{
    "direction_a": [
        {
            "id": "_13",
            "label": "USPENSKA - ŠAFARIKOVA",
            "longitude": 19.8416504854,
            "latitude": 45.255203707
        },
        {
            "id": "_15",
            "label": "ŽARKA ZRENJANINA - OPŠTINA",
            "longitude": 19.8471827488,
            "latitude": 45.2524025428
        },
        {
            "id": "_14",
            "label": "BUL. MIHAJLA PUPINA - POTHODNIK",
            "longitude": 19.844187,
            "latitude": 45.253337
        },
        {
            "id": "_16",
            "label": "BUL. CARA LAZARA - URBIS",
            "longitude": 19.8488525074,
            "latitude": 45.2474414598
        },
        {
            "id": "_17",
            "label": "FRUŠKOGORSKA - NARODNOG FRONTA",
            "longitude": 19.8475310279,
            "latitude": 45.2420582997
        },
        {
            "id": "_18",
            "label": "ŠTRAND - OKRETNICA",
            "longitude": 19.84777609,
            "latitude": 45.2386999087
        },
        {
            "id": "_1",
            "label": "SENTANDREJSKI PUT - ZMAJEVAČKI PUT",
            "longitude": 19.8247023774,
            "latitude": 45.3025717506
        },
        {
            "id": "_2",
            "label": "SENTANDREJSKI PUT - SAVSKA",
            "longitude": 19.8226695053,
            "latitude": 45.2997652739
        },
        {
            "id": "_3",
            "label": "SENTANDREJSKI PUT - VELEBITSKA",
            "longitude": 19.8223251106,
            "latitude": 45.295793932
        },
        {
            "id": "_4",
            "label": "SENTANDREJSKI PUT - ZELENGORSKA",
            "longitude": 19.8237880279,
            "latitude": 45.2916390663
        },
        {
            "id": "_5",
            "label": "SENTANDREJSKI PUT - DOLINSKA",
            "longitude": 19.8247619009,
            "latitude": 45.2888681125
        },
        {
            "id": "_6",
            "label": "SENTANDREJSKI PUT - OTOKARA KERŠOVANIJA",
            "longitude": 19.8256640401,
            "latitude": 45.28628095
        },
        {
            "id": "_7",
            "label": "SENTANDREJSKI PUT - MOST KANAL DTD",
            "longitude": 19.8268347377,
            "latitude": 45.2828585422
        },
        {
            "id": "_8",
            "label": "SENTANDREJSKI PUT - BENZINSKA PUMPA",
            "longitude": 19.8308548777,
            "latitude": 45.2713036839
        },
        {
            "id": "_9",
            "label": "SENTANDREJSKI PUT - PARTIZANSKA",
            "longitude": 19.8317437287,
            "latitude": 45.2687779267
        },
        {
            "id": "_10",
            "label": "KISAČKA - BUL. JAŠE TOMIĆA",
            "longitude": 19.8354809218,
            "latitude": 45.2656954001
        },
        {
            "id": "_11",
            "label": "KISAČKA - BUL. KRALJA PETRA I",
            "longitude": 19.8401023551,
            "latitude": 45.2623699914
        },
        {
            "id": "_12",
            "label": "KISAČKA - VUKA KARADŽIĆA",
            "longitude": 19.8420940143,
            "latitude": 45.2609612857
        }
    ],
    "direction_b": [
        {
            "id": "_6",
            "label": "USPENSKA - POZORIŠNI TRG",
            "longitude": 19.8419960985,
            "latitude": 45.255185246
        },
        {
            "id": "_3",
            "label": "STRAŽILOVSKA - URBIS",
            "longitude": 19.8492059684,
            "latitude": 45.2481301777
        },
        {
            "id": "_5",
            "label": "BUL. MIHAJLA PUPINA - POTHODNIK",
            "longitude": 19.844141,
            "latitude": 45.253519
        },
        {
            "id": "_4",
            "label": "ŽARKA ZRENJANINA - IZVRŠNO VEĆE",
            "longitude": 19.8475593745,
            "latitude": 45.2528535063
        },
        {
            "id": "_1",
            "label": "ŠTRAND - OKRETNICA",
            "longitude": 19.848256,
            "latitude": 45.239001
        },
        {
            "id": "_2",
            "label": "FRUŠKOGORSKA - DR. I. ĐURIČIĆA",
            "longitude": 19.847528317,
            "latitude": 45.2429842112
        },
        {
            "id": "_17",
            "label": "SENTANDREJSKI PUT - SAVSKA",
            "longitude": 19.8226514651,
            "latitude": 45.2993746126
        },
        {
            "id": "_18",
            "label": "SENTANDREJSKI PUT - ZMAJEVAČKI PUT",
            "longitude": 19.8247023774,
            "latitude": 45.3025717506
        },
        {
            "id": "_7",
            "label": "KISAČKA - TEMERINSKA",
            "longitude": 19.8423966225,
            "latitude": 45.2608711975
        },
        {
            "id": "_8",
            "label": "KISAČKA - DOSITEJEVA",
            "longitude": 19.8390209306,
            "latitude": 45.2632551971
        },
        {
            "id": "_9",
            "label": "KISAČKA - PODVOŽNJAK",
            "longitude": 19.834665763,
            "latitude": 45.2665045391
        },
        {
            "id": "_10",
            "label": "SENTANDREJSKI PUT - PARTIZANSKA",
            "longitude": 19.8315959987,
            "latitude": 45.2699357528
        },
        {
            "id": "_11",
            "label": "SENTANDREJSKI PUT - TEODORA MANDIĆA",
            "longitude": 19.830315176,
            "latitude": 45.2737069812
        },
        {
            "id": "_12",
            "label": "SENTANDREJSKI PUT - PRIMORSKA",
            "longitude": 19.8263159471,
            "latitude": 45.2848260115
        },
        {
            "id": "_13",
            "label": "SENTANDREJSKI PUT - OTOKARA KERŠOV.",
            "longitude": 19.825474462,
            "latitude": 45.2872651434
        },
        {
            "id": "_14",
            "label": "SENTANDREJSKI PUT - SPORTSKA HALA",
            "longitude": 19.8245477965,
            "latitude": 45.2898775272
        },
        {
            "id": "_15",
            "label": "SENTANDREJSKI PUT - ZELENGORSKA",
            "longitude": 19.8237043193,
            "latitude": 45.2922920477
        },
        {
            "id": "_16",
            "label": "SENTANDREJSKI PUT - VELEBITSKA",
            "longitude": 19.8226166593,
            "latitude": 45.2953893559
        }
    ]
}