{
    "direction_a": [
        {
            "id": "_1",
            "label": "USPENSKA - ŠAFARIKOVA",
            "longitude": 19.8414070119,
            "latitude": 45.2550293771
        },
        {
            "id": "__",
            "label": "BUL. OSLOBOĐENJA - FUTOŠKA PIJACA",
            "longitude": 19.8366307617,
            "latitude": 45.2528681592
        },
        {
            "id": "__",
            "label": "BUL. OSLOBOĐENJA - POKRAJINSKI SUP",
            "longitude": 19.8351029309,
            "latitude": 45.255629856
        },
        {
            "id": "__",
            "label": "BUL. OSLOBOĐENJA - KRALJA PETRA I",
            "longitude": 19.8318492939,
            "latitude": 45.2613766166
        },
        {
            "id": "__",
            "label": "PRIMORSKA - SENTANDREJSKI PUT",
            "longitude": 19.825949915,
            "latitude": 45.2836607098
        },
        {
            "id": "__",
            "label": "PRIMORSKA - NOVOGRAP",
            "longitude": 19.8170137915,
            "latitude": 45.2829316542
        },
        {
            "id": "__",
            "label": "PRIMORSKA - APATINSKA",
            "longitude": 19.8117226773,
            "latitude": 45.2838787569
        },
        {
            "id": "__",
            "label": "PRIMORSKA - STOTEKS",
            "longitude": 19.8089573695,
            "latitude": 45.284399498
        },
        {
            "id": "__",
            "label": "PRIMORSKA - HINS",
            "longitude": 19.8000847096,
            "latitude": 45.2864831757
        },
        {
            "id": "__",
            "label": "PRIMORSKA - BAZAR VELEPRODAJA",
            "longitude": 19.7942811115,
            "latitude": 45.2879205478
        },
        {
            "id": "__",
            "label": "KISAČKA - PODVOŽNJAK",
            "longitude": 19.834665763,
            "latitude": 45.2665045391
        },
        {
            "id": "__",
            "label": "SENTANDREJSKI PUT - PARTIZANSKA",
            "longitude": 19.8315959987,
            "latitude": 45.2699357528
        },
        {
            "id": "__",
            "label": "SENTANDREJSKI PUT - TEODORA MANDIĆA",
            "longitude": 19.830315176,
            "latitude": 45.2737069812
        },
        {
            "id": "__",
            "label": "BUL. JAŠE TOMIĆA - BUL. OSLOBOĐENJA",
            "longitude": 19.831181344,
            "latitude": 45.264414954
        }
    ],
    "direction_b": [
        {
            "id": "__",
            "label": "USPENSKA - ŠAFARIKOVA",
            "longitude": 19.8414070119,
            "latitude": 45.2550293771
        },
        {
            "id": "__",
            "label": "USPENSKA - POZORIŠNI TRG",
            "longitude": 19.8422463011,
            "latitude": 45.2548499029
        },
        {
            "id": "__",
            "label": "JEVREJSKA - BUL. OSLOBOĐENJA",
            "longitude": 19.8377609655,
            "latitude": 45.2522080286
        },
        {
            "id": "__",
            "label": "BUL. OSLOBOĐENJA - BUL. JAŠE TOMIĆA",
            "longitude": 19.8304838937,
            "latitude": 45.263325649
        },
        {
            "id": "__",
            "label": "BUL. OSLOBOĐENJA - KRALJA PETRA I",
            "longitude": 19.8322222835,
            "latitude": 45.2601777537
        },
        {
            "id": "__",
            "label": "BUL. OSLOBOÐENJA - NOVOSADSKOG SAJMA",
            "longitude": 19.8353175469,
            "latitude": 45.2545506888
        },
        {
            "id": "_1",
            "label": "KOTEKSPRODUKT - OKRETNICA",
            "longitude": 19.7958213074,
            "latitude": 45.2943712733
        },
        {
            "id": "__",
            "label": "PRIMORSKA - NEOPLANTA OKRETNICA",
            "longitude": 19.7896050461,
            "latitude": 45.2891747388
        },
        {
            "id": "__",
            "label": "PRIMORSKA - NEOPLANTA OKRETNICA",
            "longitude": 19.7898802778,
            "latitude": 45.2889172932
        },
        {
            "id": "__",
            "label": "PRIMORSKA 88",
            "longitude": 19.795145297,
            "latitude": 45.2876579587
        },
        {
            "id": "__",
            "label": "PRIMORSKA - HINS",
            "longitude": 19.8007371836,
            "latitude": 45.2862955383
        },
        {
            "id": "__",
            "label": "PRIMORSKA - IDEA",
            "longitude": 19.8082336599,
            "latitude": 45.2844569192
        },
        {
            "id": "__",
            "label": "PRIMORSKA - APATINSKA",
            "longitude": 19.8128528029,
            "latitude": 45.2836071021
        },
        {
            "id": "__",
            "label": "PRIMORSKA 7",
            "longitude": 19.816482199,
            "latitude": 45.2829661459
        },
        {
            "id": "__",
            "label": "SENTANDREJSKI PUT - MOST KANAL DTD",
            "longitude": 19.8268347377,
            "latitude": 45.2828585422
        },
        {
            "id": "__",
            "label": "SENTANDREJSKI PUT - BENZINSKA PUMPA",
            "longitude": 19.8308548777,
            "latitude": 45.2713036839
        },
        {
            "id": "__",
            "label": "SENTANDREJSKI PUT - PARTIZANSKA",
            "longitude": 19.8317437287,
            "latitude": 45.2687779267
        }
    ]
}