{
    "direction_a": [
        {
            "id": "_1",
            "label": "Bul. Jaše Tomića - Bul. Oslobođenja",
            "longitude": 19.831181344,
            "latitude": 45.264414954
        },
        {
            "id": "_2",
            "label": "Kisačka - Podvožnjak",
            "longitude": 19.834665763,
            "latitude": 45.2665045391
        },
        {
            "id": "_3",
            "label": "Put Šajkaškog Odreda - Temerinska",
            "longitude": 19.842795,
            "latitude": 45.270255
        },
        {
            "id": "_4",
            "label": "Put Šajkaškog Odreda - Butangas",
            "longitude": 19.8541396629,
            "latitude": 45.2801714789
        },
        {
            "id": "_5",
            "label": "Put Šajkaškog Odreda - Naftagas I",
            "longitude": 19.860216648,
            "latitude": 45.2801022232
        },
        {
            "id": "_6",
            "label": "Put Šajkaškog Odreda - Naftagas II",
            "longitude": 19.8698335025,
            "latitude": 45.2800445045
        },
        {
            "id": "_7",
            "label": "Put Šajkaškog Odreda - Hidrosonda",
            "longitude": 19.8739061759,
            "latitude": 45.2800159943
        },
        {
            "id": "_8",
            "label": "Put Šajkaškog Odreda - HGP",
            "longitude": 19.883784,
            "latitude": 45.28094
        },
        {
            "id": "_9",
            "label": "Radna Zona IV - Continental",
            "longitude": 19.876262,
            "latitude": 45.28835
        },
        {
            "id": "_10",
            "label": "Radna Zona IV - Lear Corporation",
            "longitude": 19.87358,
            "latitude": 45.290313
        },
        {
            "id": "_11",
            "label": "Radna Zona IV - Lear Okretnica",
            "longitude": 19.871145,
            "latitude": 45.289071
        }
    ],
    "direction_b": [
        {
            "id": "_1",
            "label": "Radna Zona IV - Lear Okretnica",
            "longitude": 19.871145,
            "latitude": 45.289071
        },
        {
            "id": "_2",
            "label": "Radna Zona IV - Lear Corporation",
            "longitude": 19.874696,
            "latitude": 45.289864
        },
        {
            "id": "_3",
            "label": "Radna Zona IV - Continental",
            "longitude": 19.876241,
            "latitude": 45.288166
        },
        {
            "id": "_4",
            "label": "Put Šajkaškog Odreda - HGP",
            "longitude": 19.883822,
            "latitude": 45.281076
        },
        {
            "id": "_5",
            "label": "Put Šajkaškog Odreda - Hidrosonda",
            "longitude": 19.8725659095,
            "latitude": 45.2801291859
        },
        {
            "id": "_6",
            "label": "Put Šajkaškog Odreda - Naftagas II",
            "longitude": 19.8687013766,
            "latitude": 45.280162797
        },
        {
            "id": "_7",
            "label": "Put Šajkaškog Odreda - Naftagas I",
            "longitude": 19.8594856773,
            "latitude": 45.2802328142
        },
        {
            "id": "_8",
            "label": "Put Šajkaškog Odreda - Butangas",
            "longitude": 19.8545442322,
            "latitude": 45.2802887336
        },
        {
            "id": "_9",
            "label": "Partizanska - Temerinska",
            "longitude": 19.841061,
            "latitude": 45.270261
        },
        {
            "id": "_10",
            "label": "Sentandrejski Put - Partizanska",
            "longitude": 19.8317437287,
            "latitude": 45.2687779267
        },
        {
            "id": "_11",
            "label": "Dolazni Peron",
            "longitude": 19.830784,
            "latitude": 45.26467
        }
    ]
}
