{
    "direction_a": [
        {
            "id": "_3",
            "label": "TEMERINSKA - PUT ŠAJKAŠKOG ODREDA",
            "longitude": 19.8419173482,
            "latitude": 45.2710086836
        },
        {
            "id": "_4",
            "label": "TEMERINSKA - NAJLON PIJACA",
            "longitude": 19.8345314956,
            "latitude": 45.2835133286
        },
        {
            "id": "_5",
            "label": "TEMERINSKI PUT - OTOKARA KERŠOVANIJA",
            "longitude": 19.8316979215,
            "latitude": 45.2887458333
        },
        {
            "id": "_6",
            "label": "TEMERINSKI PUT - SAVSKA",
            "longitude": 19.8305569794,
            "latitude": 45.3002863203
        },
        {
            "id": "_2",
            "label": "KISAČKA - PODVOŽNJAK",
            "longitude": 19.834665763,
            "latitude": 45.2665045391
        },
        {
            "id": "_1",
            "label": "MAS - POLAZNI PERON BR. 13",
            "longitude": 19.8285213548,
            "latitude": 45.2641307634
        },
        {
            "id": "_7",
            "label": "RIMSKI ŠANČEVI - RASKRNICA ZA SIRIG",
            "longitude": 19.8310933898,
            "latitude": 45.3112542201
        },
        {
            "id": "_9",
            "label": "RIMSKI ŠANČEVI - INSTITUT ZA RIP",
            "longitude": 19.8431261818,
            "latitude": 45.3281077085
        },
        {
            "id": "_10",
            "label": "BAČKI JARAK I - ELEKTRANA",
            "longitude": 19.8492685836,
            "latitude": 45.3363275873
        },
        {
            "id": "_11",
            "label": "BAČKI JARAK II - CRVENE ZGRADE",
            "longitude": 19.8547475877,
            "latitude": 45.344898316
        },
        {
            "id": "_12",
            "label": "BAČKI JARAK III - LIVADICA",
            "longitude": 19.8693096836,
            "latitude": 45.3673875994
        },
        {
            "id": "_13",
            "label": "BAČKI JARAK IV-CENTAR OKRETNICA",
            "longitude": 19.8734588873,
            "latitude": 45.3726119579
        },
        {
            "id": "_14",
            "label": "BAČKI JARAK V - KRAJNJA",
            "longitude": 19.8758442401,
            "latitude": 45.3771267613
        },
        {
            "id": "_15",
            "label": "TEMERIN I - KOLONIJA",
            "longitude": 19.8784970142,
            "latitude": 45.3848222743
        },
        {
            "id": "_16",
            "label": "TEMERIN II - IGRALIŠTE",
            "longitude": 19.8805795656,
            "latitude": 45.3905974594
        },
        {
            "id": "_17",
            "label": "TEMERIN - NOVOSADSKA 196 / NOVOSADSKA 267",
            "longitude": 19.8830447236,
            "latitude": 45.3964088463
        },
        {
            "id": "_18",
            "label": "TEMERIN III - ŽEL. RAMPA",
            "longitude": 19.8851729487,
            "latitude": 45.401480213
        },
        {
            "id": "_19",
            "label": "TEMERIN IV - CENTAR / AUTOBUSKA STANICA",
            "longitude": 19.8870528528,
            "latitude": 45.4058571851
        },
        {
            "id": "_20",
            "label": "TEMERIN V - MARKA OREŠKOVIĆA",
            "longitude": 19.8900556189,
            "latitude": 45.4127217473
        },
        {
            "id": "_22",
            "label": "TEMERIN VI - ČILAG",
            "longitude": 19.8922211468,
            "latitude": 45.4176986566
        },
        {
            "id": "_23",
            "label": "TEMERIN VII - TELEP",
            "longitude": 19.8938257973,
            "latitude": 45.422628849
        },
        {
            "id": "_24",
            "label": "TEMERIN VIII - KIŠ FERENCA UL.",
            "longitude": 19.8957349308,
            "latitude": 45.4280940725
        },
        {
            "id": "_21",
            "label": "TEMERIN II - IGRALIŠTE",
            "longitude": 19.8923796537,
            "latitude": 45.4162300738
        },
        {
            "id": "_25",
            "label": "TEMERIN II - IGRALIŠTE",
            "longitude": 19.8923796537,
            "latitude": 45.4162300738
        },
        {
            "id": "_8",
            "label": "RIMSKI ŠANČEVI - ŽELEZNIČKA STANICA",
            "longitude": 19.8359886246,
            "latitude": 45.3200898634
        }
    ],
    "direction_b": [
        {
            "id": "_22",
            "label": "SENTANDREJSKI PUT - PARTIZANSKA",
            "longitude": 19.8317437287,
            "latitude": 45.2687779267
        },
        {
            "id": "_18",
            "label": "TEMERINSKI PUT - SAVSKA",
            "longitude": 19.8304360891,
            "latitude": 45.2993083361
        },
        {
            "id": "_19",
            "label": "TEMERINSKI PUT - OTOKARA KERŠOVANIJA",
            "longitude": 19.8317289762,
            "latitude": 45.2880777199
        },
        {
            "id": "_20",
            "label": "TEMERINSKA - NAJLON PIJACA",
            "longitude": 19.8346922664,
            "latitude": 45.2828756397
        },
        {
            "id": "_23",
            "label": "MAS - DOLAZNI PERON",
            "longitude": 19.8292532816,
            "latitude": 45.2646698037
        },
        {
            "id": "_1",
            "label": "TEMERIN IX - ALMAŠKA UL. - OKRETNICA",
            "longitude": 19.8986752134,
            "latitude": 45.4340803891
        },
        {
            "id": "_2",
            "label": "TEMERIN VIII - STARA OKRETNICA",
            "longitude": 19.894937481,
            "latitude": 45.426794747
        },
        {
            "id": "_3",
            "label": "TEMERIN VII - TELEP",
            "longitude": 19.8935507763,
            "latitude": 45.4220043639
        },
        {
            "id": "_4",
            "label": "TEMERIN V - SERVIS FORD",
            "longitude": 19.8902732061,
            "latitude": 45.4135725297
        },
        {
            "id": "_5",
            "label": "TEMERIN IV - AUTOB. STANICA",
            "longitude": 19.8874058874,
            "latitude": 45.4070169656
        },
        {
            "id": "_6",
            "label": "TEMERIN III - ŽEL. RAMPA",
            "longitude": 19.8845412673,
            "latitude": 45.4002618308
        },
        {
            "id": "_7",
            "label": "TEMERIN - NOVOSADSKA 267",
            "longitude": 19.8829908946,
            "latitude": 45.396637947
        },
        {
            "id": "_8",
            "label": "TEMERIN II - IGRALIŠTE",
            "longitude": 19.8803043591,
            "latitude": 45.3902158736
        },
        {
            "id": "_9",
            "label": "TEMERIN I - KOLONIJA",
            "longitude": 19.8779391107,
            "latitude": 45.3836901358
        },
        {
            "id": "_10",
            "label": "BACKI JARAK V - KRAJNJA",
            "longitude": 19.8756037111,
            "latitude": 45.3768086483
        },
        {
            "id": "_11",
            "label": "BACKI JARAK IV - CENTAR",
            "longitude": 19.872324093,
            "latitude": 45.3714222292
        },
        {
            "id": "_12",
            "label": "BACKI JARAK III-LIVADICA",
            "longitude": 19.8686361779,
            "latitude": 45.3663943679
        },
        {
            "id": "_13",
            "label": "BACKI JARAK II - CRVENE ZGRADE",
            "longitude": 19.8545604338,
            "latitude": 45.3448440126
        },
        {
            "id": "_14",
            "label": "BACKI JARAK I - ELEKTRANA",
            "longitude": 19.8491510031,
            "latitude": 45.3364116654
        },
        {
            "id": "_15",
            "label": "RIMSKI ŠANČEVI - INSTITUT ZA RIP",
            "longitude": 19.8425370784,
            "latitude": 45.3277177001
        },
        {
            "id": "_16",
            "label": "RIMSKI ŠANČEVI - ŽELEZNIČKA STANICA",
            "longitude": 19.8358748509,
            "latitude": 45.3201326356
        },
        {
            "id": "_17",
            "label": "RIMSKI ŠANČEVI - RASKRNICA ZA SIRIG",
            "longitude": 19.8310249448,
            "latitude": 45.311505332
        },
        {
            "id": "_21",
            "label": "PARTIZANSKA - TEMERINSKA",
            "longitude": 19.841061,
            "latitude": 45.270261
        }
    ]
}