{
    "direction_a": [
        {
            "id": "_5",
            "label": "BUL. MIHAJLA PUPINA - POTHODNIK",
            "longitude": 19.844187,
            "latitude": 45.253337
        },
        {
            "id": "_6",
            "label": "BUL. MIHAJLA PUPINA - SONJE MARINKOVIĆ",
            "longitude": 19.8530960428,
            "latitude": 45.2542765403
        },
        {
            "id": "_7",
            "label": "BEOGRADSKA - LISINSKOG",
            "longitude": 19.8620128358,
            "latitude": 45.2547734365
        },
        {
            "id": "_8",
            "label": "PRERADOVIĆEVA - LOVAČKI DOM",
            "longitude": 19.8678103709,
            "latitude": 45.2525866389
        },
        {
            "id": "_9",
            "label": "PRERADOVIĆEVA - O.Š. JOVAN DUČIĆ",
            "longitude": 19.8727083512,
            "latitude": 45.2516407374
        },
        {
            "id": "_3",
            "label": "BUL. OSLOBOÐENJA - NOVOSADSKOG SAJMA",
            "longitude": 19.8353175469,
            "latitude": 45.2545506888
        },
        {
            "id": "_4",
            "label": "JEVREJSKA - BUL. OSLOBOĐENJA",
            "longitude": 19.8377609655,
            "latitude": 45.2522080286
        },
        {
            "id": "_2",
            "label": "BUL. OSLOBOĐENJA - KRALJA PETRA I",
            "longitude": 19.8322222835,
            "latitude": 45.2601777537
        },
        {
            "id": "_1",
            "label": "ŽELEZNIČKA STANICA",
            "longitude": 19.8295879176,
            "latitude": 45.264478508
        },
        {
            "id": "_10",
            "label": "POBEDA",
            "longitude": 19.887341,
            "latitude": 45.246386
        }
    ],
    "direction_b": [
        {
            "id": "_7",
            "label": "BUL. MIHAJLA PUPINA - POTHODNIK",
            "longitude": 19.844141,
            "latitude": 45.253519
        },
        {
            "id": "_2",
            "label": "PRERADOVIĆEVA - BENZINSKA PUMPA",
            "longitude": 19.8757045697,
            "latitude": 45.2496755784
        },
        {
            "id": "_3",
            "label": "PRERADOVIĆEVA - ŠENOINA",
            "longitude": 19.8732154355,
            "latitude": 45.251431704
        },
        {
            "id": "_4",
            "label": "PRERADOVIĆEVA - LOVAČKI DOM",
            "longitude": 19.8689433116,
            "latitude": 45.2526031657
        },
        {
            "id": "_5",
            "label": "BEOGRADSKA - VLADIMIRA NAZORA",
            "longitude": 19.8623634945,
            "latitude": 45.2548163902
        },
        {
            "id": "_8",
            "label": "BUL. OSLOBOĐENJA - FUTOŠKA PIJACA",
            "longitude": 19.8368000824,
            "latitude": 45.2525198464
        },
        {
            "id": "_9",
            "label": "BUL. OSLOBOĐENJA - POKRAJINSKI SUP",
            "longitude": 19.8351029309,
            "latitude": 45.255629856
        },
        {
            "id": "_10",
            "label": "BUL. OSLOBOĐENJA - KRALJA PETRA I",
            "longitude": 19.8318492939,
            "latitude": 45.2613766166
        },
        {
            "id": "_6",
            "label": "BUL. MIHAJLA PUPINA - DUNAVSKI PARK",
            "longitude": 19.8519122087,
            "latitude": 45.2542020579
        },
        {
            "id": "_1",
            "label": "POBEDA",
            "longitude": 19.887341,
            "latitude": 45.246386
        }
    ]
}