{
  "direction_a": [
    {
      "id": "_1",
      "label": "Bulevar Oslobođenja - Bulevar Jaše Tomića",
      "longitude": 19.8304838937,
      "latitude": 45.263325649,
      "expected_arrival_seconds": 0
    },
    {
      "id": "_2",
      "label": "Bul. Oslobođenja - Kralja Petra I",
      "longitude": 19.8322222835,
      "latitude": 45.2601777537,
      "expected_arrival_seconds": 64
    },
    {
      "id": "_3",
      "label": "Bul. Oslobođenja - Novosadskog Sajma",
      "longitude": 19.8353175469,
      "latitude": 45.2545506888,
      "expected_arrival_seconds": 163
    },
    {
      "id": "_4",
      "label": "Jevrejska - Bul. Oslobođenja",
      "longitude": 19.8377609655,
      "latitude": 45.2522080286,
      "expected_arrival_seconds": 232
    },
    {
      "id": "_5",
      "label": "Bul. Mihajla Pupina - Pothodnik",
      "longitude": 19.844187,
      "latitude": 45.253337,
      "expected_arrival_seconds": 329
    },
    {
      "id": "_6",
      "label": "Bul. Mihajla Pupina - Sonje Marinković",
      "longitude": 19.852979,
      "latitude": 45.254153,
      "expected_arrival_seconds": 473
    },
    {
      "id": "_7",
      "label": "Beogradska - Lisinskog",
      "longitude": 19.8620128358,
      "latitude": 45.2547734365,
      "expected_arrival_seconds": 553
    },
    {
      "id": "_8",
      "label": "Preradovićeva - Lovački Dom",
      "longitude": 19.8678103709,
      "latitude": 45.2525866389,
      "expected_arrival_seconds": 633
    },
    {
      "id": "_9",
      "label": "Preradovićeva - O.Š. Jovan Dučić",
      "longitude": 19.8727083512,
      "latitude": 45.2516407374,
      "expected_arrival_seconds": 707
    },
    {
      "id": "_10",
      "label": "Pobeda",
      "longitude": 19.881576,
      "latitude": 45.253667,
      "expected_arrival_seconds": 900
    }
  ],
  "direction_b": [
    {
      "id": "_1",
      "label": "Pobeda",
      "longitude": 19.881576,
      "latitude": 45.253667,
      "expected_arrival_seconds": 0
    },
    {
      "id": "_2",
      "label": "Preradovićeva - Benzinska Pumpa",
      "longitude": 19.8757045697,
      "latitude": 45.2496755784,
      "expected_arrival_seconds": 167
    },
    {
      "id": "_3",
      "label": "Preradovićeva - Šenoina",
      "longitude": 19.8732154355,
      "latitude": 45.251431704,
      "expected_arrival_seconds": 206
    },
    {
      "id": "_4",
      "label": "Preradovićeva - Lovački Dom",
      "longitude": 19.8689433116,
      "latitude": 45.2526031657,
      "expected_arrival_seconds": 292
    },
    {
      "id": "_5",
      "label": "Beogradska - Vladimira Nazora",
      "longitude": 19.8623634945,
      "latitude": 45.2548163902,
      "expected_arrival_seconds": 396
    },
    {
      "id": "_6",
      "label": "Bul. Mihajla Pupina - Dunavski Park",
      "longitude": 19.8519122087,
      "latitude": 45.2542020579,
      "expected_arrival_seconds": 544
    },
    {
      "id": "_7",
      "label": "Bul. Mihajla Pupina - Pothodnik",
      "longitude": 19.844141,
      "latitude": 45.253519,
      "expected_arrival_seconds": 631
    },
    {
      "id": "_8",
      "label": "Bul. Oslobođenja - Futoška Pijaca",
      "longitude": 19.8368000824,
      "latitude": 45.2525198464,
      "expected_arrival_seconds": 746
    },
    {
      "id": "_9",
      "label": "Bul. Oslobođenja - Pokrajinski SUP",
      "longitude": 19.8351029309,
      "latitude": 45.255629856,
      "expected_arrival_seconds": 808
    },
    {
      "id": "_10",
      "label": "Bul. Oslobođenja - Kralja Petra I",
      "longitude": 19.8318492939,
      "latitude": 45.2613766166,
      "expected_arrival_seconds": 946
    },
    {
      "id": "_11",
      "label": "Železnička Stanica - Dolasci",
      "longitude": 19.830132455,
      "latitude": 45.2650202834,
      "expected_arrival_seconds": 1020
    }
  ]
}