{
    "direction_a": [
        {
            "id": "_2",
            "label": "RUMENAČKA - BUL. JAŠE TOMIĆA",
            "longitude": 19.8182127414,
            "latitude": 45.2633439588
        },
        {
            "id": "_3",
            "label": "RUMENAČKA - RADNIČKO IGRALIŠTE",
            "longitude": 19.8148147237,
            "latitude": 45.2660444179
        },
        {
            "id": "_1",
            "label": "ŽELEZNIČKA STANICA TERMINAL",
            "longitude": 19.8293295677,
            "latitude": 45.2649620671
        },
        {
            "id": "_4",
            "label": "RUMENAČKI PUT - AVIJATIČARSKA",
            "longitude": 19.8079135339,
            "latitude": 45.2712216153
        },
        {
            "id": "_5",
            "label": "RUMENAČKI PUT - KRUŽNI TOK",
            "longitude": 19.7998638594,
            "latitude": 45.2759310771
        },
        {
            "id": "_6",
            "label": "SAJLOVO - NADVOŽNJAK",
            "longitude": 19.7849461714,
            "latitude": 45.2805491923
        },
        {
            "id": "_7",
            "label": "SAJLOVO - BANGLADEŠ",
            "longitude": 19.7718910191,
            "latitude": 45.2830754582
        },
        {
            "id": "_8",
            "label": "RUMENKA - ULAZ",
            "longitude": 19.7486571265,
            "latitude": 45.2902962929
        },
        {
            "id": "_9",
            "label": "RUMENKA - VOJVOĐANSKA 15",
            "longitude": 19.7437457219,
            "latitude": 45.2913623157
        },
        {
            "id": "_10",
            "label": "RUMENKA - NIKOLE TESLE 36",
            "longitude": 19.7402002932,
            "latitude": 45.2867913439
        },
        {
            "id": "_11",
            "label": "RUMENKA - VOJVODE PUTNIKA 67",
            "longitude": 19.7349006264,
            "latitude": 45.2872345478
        },
        {
            "id": "_12",
            "label": "RUMENKA - PARTIZANSKA 4",
            "longitude": 19.7359138518,
            "latitude": 45.2914389856
        },
        {
            "id": "_13",
            "label": "RUMENKA - PARTIZANSKA 58",
            "longitude": 19.7393740621,
            "latitude": 45.2963585515
        },
        {
            "id": "_14",
            "label": "RUMENKA - OKRETNICA",
            "longitude": 19.744365,
            "latitude": 45.30357
        }
    ],
    "direction_b": [
        {
            "id": "_12",
            "label": "RUMENAČKI PUT - AVIJATIČARSKA",
            "longitude": 19.8089150153,
            "latitude": 45.2702133075
        },
        {
            "id": "_13",
            "label": "RUMENAČKA - POLICIJSKA STANICA",
            "longitude": 19.8130603695,
            "latitude": 45.2670846403
        },
        {
            "id": "_14",
            "label": "BUL. JAŠE TOMIĆA - RUMENAČKA",
            "longitude": 19.8192032513,
            "latitude": 45.2630741789
        },
        {
            "id": "_15",
            "label": "ŽELEZNIČKA STANICA - DOLASCI",
            "longitude": 19.830132455,
            "latitude": 45.2650202834
        },
        {
            "id": "_9",
            "label": "RUMENAČKI PUT - NADVOŽNJAK",
            "longitude": 19.7863577779,
            "latitude": 45.2801667701
        },
        {
            "id": "_11",
            "label": "RUMENAČKI PUT - KRUŽNI TOK",
            "longitude": 19.8018176756,
            "latitude": 45.2747023047
        },
        {
            "id": "_2",
            "label": "RUMENKA - KANAL",
            "longitude": 19.7416538887,
            "latitude": 45.2998666774
        },
        {
            "id": "_3",
            "label": "RUMENKA - PARTIZANSKA 59",
            "longitude": 19.7383925986,
            "latitude": 45.2951261357
        },
        {
            "id": "_4",
            "label": "RUMENKA - DANILA KIŠA 1",
            "longitude": 19.7353517518,
            "latitude": 45.2907294609
        },
        {
            "id": "_5",
            "label": "RUMENKA - VOJVODE PUTNIKA 57",
            "longitude": 19.7359478885,
            "latitude": 45.2868155248
        },
        {
            "id": "_6",
            "label": "RUMENKA - NIKOLE TESLE 21",
            "longitude": 19.7408012034,
            "latitude": 45.2874100612
        },
        {
            "id": "_7",
            "label": "RUMENKA - CENTAR",
            "longitude": 19.7447983387,
            "latitude": 45.291518222
        },
        {
            "id": "_8",
            "label": "SAJLOVO - BANGLADEŠ",
            "longitude": 19.7732069555,
            "latitude": 45.2827262394
        },
        {
            "id": "_10",
            "label": "RUMENAČKI PUT - GRADSKO GROBLJE",
            "longitude": 19.7947421097,
            "latitude": 45.2782283307
        },
        {
            "id": "_1",
            "label": "RUMENKA - OKRETNICA",
            "longitude": 19.744365,
            "latitude": 45.30357
        }
    ]
}