{
  "direction_a": [
    {
      "id": "_1",
      "label": "ŽELEZNIČKA STANICA TERMINAL",
      "longitude": 19.8304717489,
      "latitude": 45.2648776355
    },
    {
      "id": "_2",
      "label": "BUL. OSLOBOĐENJA - KRALJA PETRA I",
      "longitude": 19.8322222835,
      "latitude": 45.2601777537
    },
    {
      "id": "_3",
      "label": "FUTOŠKA - BUL. OSLOBOĐENJA",
      "longitude": 19.8364491963,
      "latitude": 45.2518040573
    },
    {
      "id": "_4",
      "label": "FUTOŠKA - JODNA BANJA",
      "longitude": 19.8289089911,
      "latitude": 45.2492337673
    },
    {
      "id": "_5",
      "label": "FUTOŠKA - BOLNICA",
      "longitude": 19.8235646906,
      "latitude": 45.2494540403
    },
    {
      "id": "_6",
      "label": "FUTOŠKA - BULEVAR EVROPE",
      "longitude": 19.815564749,
      "latitude": 45.2485623853
    },
    {
      "id": "_7",
      "label": "FUTOŠKA - JUGOALAT",
      "longitude": 19.810052585,
      "latitude": 45.2478325873
    },
    {
      "id": "_8",
      "label": "FUTOŠKI PUT - GRAFIKA",
      "longitude": 19.8055379367,
      "latitude": 45.2475026928
    },
    {
      "id": "_9",
      "label": "FUTOŠKI PUT - SATELITSKA PIJACA",
      "longitude": 19.7998632846,
      "latitude": 45.2461119679
    },
    {
      "id": "_10",
      "label": "FUTOŠKI PUT - GARAŽA GSP",
      "longitude": 19.792952863,
      "latitude": 45.2440016201
    },
    {
      "id": "_11",
      "label": "FUTOŠKI PUT - BENZINSKA PUMPA",
      "longitude": 19.7871434415,
      "latitude": 45.243434196
    },
    {
      "id": "_12",
      "label": "NOVOSADSKI PUT - ZORANA RADMILOVIĆA",
      "longitude": 19.7819769289,
      "latitude": 45.2437879717
    },
    {
      "id": "_13",
      "label": "SPORTSKI CENTAR",
      "longitude": 19.7746201566,
      "latitude": 45.2453178784
    },
    {
      "id": "_14",
      "label": "VETERNIK - FEŠTER",
      "longitude": 19.7673159236,
      "latitude": 45.2470495425
    },
    {
      "id": "_15",
      "label": "VETERNIK - NOVOS. PUT - SONJE MARINKOVIĆ",
      "longitude": 19.7628098913,
      "latitude": 45.248109015
    },
    {
      "id": "_16",
      "label": "VETERNIK - MESNA ZAJEDNICA",
      "longitude": 19.7556811934,
      "latitude": 45.2497997749
    },
    {
      "id": "_17",
      "label": "VETERNIK - IVE LOLE RIBARA I",
      "longitude": 19.747660267,
      "latitude": 45.248640168
    },
    {
      "id": "_18",
      "label": "VETERNIK - IVE LOLE RIBARA 68",
      "longitude": 19.7434923771,
      "latitude": 45.247820743
    },
    {
      "id": "_19",
      "label": "VETERNIK - ZAVOD ZA DECU",
      "longitude": 19.7362036012,
      "latitude": 45.2463691629
    },
    {
      "id": "_20",
      "label": "FUTOG - RADE KONDIĆA - RUMENAČKA",
      "longitude": 19.7268575049,
      "latitude": 45.2443245613
    },
    {
      "id": "_21",
      "label": "FUTOG - RADE KONDIĆA - INDUSTRIJSKA",
      "longitude": 19.7187351485,
      "latitude": 45.242713394
    },
    {
      "id": "_22",
      "label": "FUTOG - GRMEČKA 36",
      "longitude": 19.7096568438,
      "latitude": 45.2414768934
    },
    {
      "id": "_23",
      "label": "FUTOG - GRMEČKA 86",
      "longitude": 19.7043868376,
      "latitude": 45.2455411191
    },
    {
      "id": "_24",
      "label": "FUTOG - MILAN VIDAK - OKRETNICA",
      "longitude": 19.7005280394,
      "latitude": 45.2502487472
    }
  ],
  "direction_b": [
    {
      "id": "_1",
      "label": "FUTOG - MILAN VIDAK - OKRETNICA",
      "longitude": 19.7005280394,
      "latitude": 45.2502487472
    },
    {
      "id": "_2",
      "label": "FUTOŠKA - CARA DUŠANA",
      "longitude": 19.8252968807,
      "latitude": 45.2491656314
    },
    {
      "id": "_2",
      "label": "FUTOG - GRMEČKA - DUŠANA KOŠUTIĆA",
      "longitude": 19.704951521,
      "latitude": 45.2450297114
    },
    {
      "id": "_3",
      "label": "FUTOG - RADE KONDIĆA - GRMEČKA",
      "longitude": 19.710492541,
      "latitude": 45.2410451184
    },
    {
      "id": "_4",
      "label": "FUTOG - RADE KONDIĆA - INDUSTRIJSKA",
      "longitude": 19.7194038535,
      "latitude": 45.2427078645
    },
    {
      "id": "_5",
      "label": "FUTOG - RADE KONDIĆA - RUMENAČKA",
      "longitude": 19.7278720071,
      "latitude": 45.2444242272
    },
    {
      "id": "_6",
      "label": "VETERNIK - ZAVOD ZA DECU",
      "longitude": 19.7371847016,
      "latitude": 45.2463545316
    },
    {
      "id": "_7",
      "label": "VETERNIK - IVE LOLE RIBARA K. BR. 37",
      "longitude": 19.7442091654,
      "latitude": 45.2477580225
    },
    {
      "id": "_8",
      "label": "VETERNIK - IVE LOLE RIBARA 17",
      "longitude": 19.7490170677,
      "latitude": 45.2487018425
    },
    {
      "id": "_9",
      "label": "VETERNIK - PRAVOSLAVNA CRKVA",
      "longitude": 19.7572312271,
      "latitude": 45.2492300271
    },
    {
      "id": "_10",
      "label": "VETERNIK - NOVOS. PUT - SONJE MARINKOVIĆ",
      "longitude": 19.7636929212,
      "latitude": 45.2476834381
    },
    {
      "id": "_11",
      "label": "VETERNIK - FEŠTER",
      "longitude": 19.7680295823,
      "latitude": 45.2466526277
    },
    {
      "id": "_12",
      "label": "SPORTSKI CENTAR",
      "longitude": 19.7751981963,
      "latitude": 45.2448774927
    },
    {
      "id": "_13",
      "label": "NOVOSADSKI PUT - STEVANA SINĐELIĆA",
      "longitude": 19.7826331453,
      "latitude": 45.2435354955
    },
    {
      "id": "_14",
      "label": "FUTOŠKI PUT - BENZINSKA PUMPA",
      "longitude": 19.7880484583,
      "latitude": 45.2431816762
    },
    {
      "id": "_15",
      "label": "FUTOŠKI PUT - GARAŽA GSP",
      "longitude": 19.792701,
      "latitude": 45.243705
    },
    {
      "id": "_16",
      "label": "FUTOŠKI PUT - BUL. PATRIJAHA PAVLA",
      "longitude": 19.79550631,
      "latitude": 45.2445958159
    },
    {
      "id": "_17",
      "label": "FUTOŠKI PUT - SATELITSKA PIJACA",
      "longitude": 19.8010162498,
      "latitude": 45.24628254
    },
    {
      "id": "_18",
      "label": "FUTOŠKI PUT - VRŠAČKA",
      "longitude": 19.8083415635,
      "latitude": 45.247517576
    },
    {
      "id": "_19",
      "label": "FUTOŠKA - HIGIJENSKI ZAVOD",
      "longitude": 19.8177958089,
      "latitude": 45.2488161894
    },
    {
      "id": "_21",
      "label": "FUTOŠKA - ANTONA ČEHOVA",
      "longitude": 19.8300215701,
      "latitude": 45.2490835157
    },
    {
      "id": "_22",
      "label": "BUL. OSLOBOĐENJA - FUTOŠKA PIJACA",
      "longitude": 19.8366307617,
      "latitude": 45.2528681592
    },
    {
      "id": "_23",
      "label": "BUL. OSLOBOĐENJA - KRALJA PETRA I",
      "longitude": 19.8318492939,
      "latitude": 45.2613766166
    },
    {
      "id": "_24",
      "label": "ŽELEZNIČKA STANICA - DOLASCI",
      "longitude": 19.830132455,
      "latitude": 45.2650202834
    },
    {
      "id": "_",
      "label": "DOLAZNI PERON",
      "longitude": 19.830784,
      "latitude": 45.26467
    }
  ]
}