{
    "direction_a": [
        {
            "id": "_2",
            "label": "FUTOŠKA - BUL. OSLOBOĐENJA",
            "longitude": 19.8364491963,
            "latitude": 45.2518040573
        },
        {
            "id": "_3",
            "label": "FUTOŠKA - BOLNICA",
            "longitude": 19.8235646906,
            "latitude": 45.2494540403
        },
        {
            "id": "_4",
            "label": "FUTOŠKA - JUGOALAT",
            "longitude": 19.810052585,
            "latitude": 45.2478325873
        },
        {
            "id": "_5",
            "label": "FUTOŠKI PUT - SATELITSKA PIJACA",
            "longitude": 19.7998632846,
            "latitude": 45.2461119679
        },
        {
            "id": "_1",
            "label": "ŽELEZNIČKA STANICA TERMINAL",
            "longitude": 19.8303881347,
            "latitude": 45.2650262948
        },
        {
            "id": "_6",
            "label": "FUTOŠKI PUT - GARAŽA GSP",
            "longitude": 19.792952863,
            "latitude": 45.2440016201
        },
        {
            "id": "_7",
            "label": "VETERNIK - FEŠTER",
            "longitude": 19.7673159236,
            "latitude": 45.2470495425
        },
        {
            "id": "_8",
            "label": "VETERNIK - MESNA ZAJEDNICA",
            "longitude": 19.7556811934,
            "latitude": 45.2497997749
        },
        {
            "id": "_9",
            "label": "VETERNIK - ZAVOD ZA DECU",
            "longitude": 19.7362036012,
            "latitude": 45.2463691629
        },
        {
            "id": "_14",
            "label": "FUTOG - CARICE MILICE - ROBNA KUĆA",
            "longitude": 19.69371563,
            "latitude": 45.2388740721
        },
        {
            "id": "_10",
            "label": "FUTOG - RADE KONDIĆA - RUMENAČKA",
            "longitude": 19.7268575049,
            "latitude": 45.2443245613
        },
        {
            "id": "_11",
            "label": "FUTOG - RADE KONDIĆA - INDUSTRIJSKA",
            "longitude": 19.7187351485,
            "latitude": 45.242713394
        },
        {
            "id": "_12",
            "label": "FUTOG - RADE KONDIĆA - GRMEČKA",
            "longitude": 19.7096935603,
            "latitude": 45.2410495646
        },
        {
            "id": "_13",
            "label": "FUTOG - BENZINSKA PUMPA",
            "longitude": 19.7014434935,
            "latitude": 45.2393573607
        },
        {
            "id": "_15",
            "label": "FUTOG - CARICE MILICE - KOZARAČKA",
            "longitude": 19.68609644,
            "latitude": 45.2392722403
        },
        {
            "id": "_16",
            "label": "FUTOG - IZLAZ",
            "longitude": 19.6807476159,
            "latitude": 45.2396103112
        },
        {
            "id": "_17",
            "label": "BAČKOPALANAČKI PUT - ČARDA",
            "longitude": 19.6692785465,
            "latitude": 45.2405123768
        },
        {
            "id": "_18",
            "label": "BAČKOPALANAČKI PUT - SALAŠ",
            "longitude": 19.6534083692,
            "latitude": 45.2419113433
        },
        {
            "id": "_19",
            "label": "BEGEČ - NILOLE TESLE - AGROBEGEČ",
            "longitude": 19.6400853519,
            "latitude": 45.2419179659
        },
        {
            "id": "_20",
            "label": "BEGEČ - NIKOLE TESLE - ULAZ",
            "longitude": 19.634540326,
            "latitude": 45.2410161599
        },
        {
            "id": "_21",
            "label": "BEGEČ - PARTIZANSKA - FUDBALSKI TEREN",
            "longitude": 19.6267120374,
            "latitude": 45.241173578
        },
        {
            "id": "_22",
            "label": "BEGEČ - KRALJA PETRA I - ZMAJ JOVINA",
            "longitude": 19.6220838306,
            "latitude": 45.240328794
        },
        {
            "id": "_23",
            "label": "BEGEČ - ČESMA",
            "longitude": 19.6229258878,
            "latitude": 45.2373033856
        },
        {
            "id": "_24",
            "label": "BEGEČ - KRALJA PETRA I - DOSITEJA OBRADOVIĆA",
            "longitude": 19.6237022402,
            "latitude": 45.2344845661
        },
        {
            "id": "_25",
            "label": "BEGEČ - OKRETNICA",
            "longitude": 19.6220513162,
            "latitude": 45.2310593407
        }
    ],
    "direction_b": [
        {
            "id": "_24",
            "label": "FUTOŠKA - CARA DUŠANA",
            "longitude": 19.8252968807,
            "latitude": 45.2491656314
        },
        {
            "id": "_23",
            "label": "FUTOŠKI PUT - VRŠAČKA",
            "longitude": 19.8083415635,
            "latitude": 45.247517576
        },
        {
            "id": "_21",
            "label": "FUTOŠKI PUT - BUL. PATRIJAHA PAVLA",
            "longitude": 19.79550631,
            "latitude": 45.2445958159
        },
        {
            "id": "_22",
            "label": "FUTOŠKI PUT - SATELITSKA PIJACA",
            "longitude": 19.8010162498,
            "latitude": 45.24628254
        },
        {
            "id": "_25",
            "label": "BUL. OSLOBOĐENJA - FUTOŠKA PIJACA",
            "longitude": 19.8366307617,
            "latitude": 45.2528681592
        },
        {
            "id": "_26",
            "label": "ŽELEZNIČKA STANICA - DOLASCI",
            "longitude": 19.830132455,
            "latitude": 45.2650202834
        },
        {
            "id": "_12",
            "label": "FUTOG - CARICE MILICE - ROBNA KUĆA",
            "longitude": 19.6945874305,
            "latitude": 45.2386780841
        },
        {
            "id": "_14",
            "label": "FUTOG - RADE KONDIĆA - GRMEČKA",
            "longitude": 19.710492541,
            "latitude": 45.2410451184
        },
        {
            "id": "_15",
            "label": "FUTOG - RADE KONDIĆA - INDUSTRIJSKA",
            "longitude": 19.7194038535,
            "latitude": 45.2427078645
        },
        {
            "id": "_16",
            "label": "FUTOG - RADE KONDIĆA - RUMENAČKA",
            "longitude": 19.7278720071,
            "latitude": 45.2444242272
        },
        {
            "id": "_17",
            "label": "VETERNIK - ZAVOD ZA DECU",
            "longitude": 19.7371847016,
            "latitude": 45.2463545316
        },
        {
            "id": "_18",
            "label": "VETERNIK - PRAVOSLAVNA CRKVA",
            "longitude": 19.7572312271,
            "latitude": 45.2492300271
        },
        {
            "id": "_19",
            "label": "VETERNIK - FEŠTER",
            "longitude": 19.7680295823,
            "latitude": 45.2466526277
        },
        {
            "id": "_1",
            "label": "BEGEČ - OKRETNICA",
            "longitude": 19.6220513162,
            "latitude": 45.2310593407
        },
        {
            "id": "_2",
            "label": "BEGEČ - KRALJA PETRA I - DOSITEJA OBRADOVIĆA",
            "longitude": 19.6236073708,
            "latitude": 45.2350784381
        },
        {
            "id": "_3",
            "label": "BEGEČ - ČESMA",
            "longitude": 19.622897357,
            "latitude": 45.2377119869
        },
        {
            "id": "_4",
            "label": "BEGEČ - KRALJA PETRA I - ZMAJ JOVINA",
            "longitude": 19.6221147229,
            "latitude": 45.2406816439
        },
        {
            "id": "_5",
            "label": "BEGEČ - PARTIZANSKA - STADION",
            "longitude": 19.6278103336,
            "latitude": 45.2410597438
        },
        {
            "id": "_6",
            "label": "BEGEČ - NIKOLE TESLE - ULAZ",
            "longitude": 19.6342153146,
            "latitude": 45.2409278186
        },
        {
            "id": "_7",
            "label": "BEGEČ - NIKOLE TESLE - HEMIPRODUKT",
            "longitude": 19.6382594445,
            "latitude": 45.2414349692
        },
        {
            "id": "_8",
            "label": "BAČKOPALANAČKI PUT - SALAŠ",
            "longitude": 19.6532486911,
            "latitude": 45.2418427335
        },
        {
            "id": "_9",
            "label": "BAČKOPALANAČKI PUT - ČARDA",
            "longitude": 19.6697390487,
            "latitude": 45.2404009547
        },
        {
            "id": "_10",
            "label": "FUTOG - IZLAZ",
            "longitude": 19.6794477912,
            "latitude": 45.2396198902
        },
        {
            "id": "_11",
            "label": "FUTOG - KOZARAČKA - STARA OKRETNICA",
            "longitude": 19.6864559541,
            "latitude": 45.2391587159
        },
        {
            "id": "_13",
            "label": "FUTOG - RADE KONDIĆA - NJEGOŠEVA",
            "longitude": 19.7040749573,
            "latitude": 45.2398713667
        },
        {
            "id": "_20",
            "label": "FUTOŠKI PUT - GARAŽA GSP",
            "longitude": 19.792701,
            "latitude": 45.243705
        }
    ]
}