{
    "direction_a": [
        {
            "id": "_1",
            "label": "Novo Naselje - Bistrica - Okretnica",
            "longitude": 19.791754249,
            "latitude": 45.2489224745
        },
        {
            "id": "_2",
            "label": "Bul. J. Dučića - Igralište",
            "longitude": 19.7936823203,
            "latitude": 45.2495765937
        },
        {
            "id": "_3",
            "label": "Bul. J. Dučića - Bate Brkića",
            "longitude": 19.7983862612,
            "latitude": 45.2511237051
        },
        {
            "id": "_4",
            "label": "Bul. J. Dučića - Robna Kuća",
            "longitude": 19.8018919417,
            "latitude": 45.2523770585
        },
        {
            "id": "_5",
            "label": "Bul. S. Jovanovića - Dom Zdravlja",
            "longitude": 19.8056491406,
            "latitude": 45.2510355315
        },
        {
            "id": "_6",
            "label": "Futoški Put - Vršačka",
            "longitude": 19.8083415635,
            "latitude": 45.247517576
        },
        {
            "id": "_7",
            "label": "Futoška - Higijenski Zavod",
            "longitude": 19.8177958089,
            "latitude": 45.2488161894
        },
        {
            "id": "_8",
            "label": "Cara Dušana - Futoška",
            "longitude": 19.8247020319,
            "latitude": 45.2487841683
        },
        {
            "id": "_9",
            "label": "Cara Dušana - Medicinska Škola",
            "longitude": 19.8250937953,
            "latitude": 45.2436192236
        },
        {
            "id": "_10",
            "label": "Bul. Cara Lazara - Ive Andrića",
            "longitude": 19.8258641034,
            "latitude": 45.2399480828
        },
        {
            "id": "_11",
            "label": "Bul. Cara Lazara - Dom Zdravlja",
            "longitude": 19.8317379566,
            "latitude": 45.241465683
        },
        {
            "id": "_12",
            "label": "Bul. Cara Lazara - Šekspirova",
            "longitude": 19.8371533191,
            "latitude": 45.2426706144
        },
        {
            "id": "_13",
            "label": "Bul. Cara Lazara - Bul. Oslobođenja",
            "longitude": 19.8424535024,
            "latitude": 45.2440216217
        },
        {
            "id": "_14",
            "label": "Stražilovska - Urbis",
            "longitude": 19.8492059684,
            "latitude": 45.2481301777
        },
        {
            "id": "_15",
            "label": "Žarka Zrenjanina - Izvršno Veće",
            "longitude": 19.8475593745,
            "latitude": 45.2528535063
        },
        {
            "id": "_16",
            "label": "Bul. Mihajla Pupina - Sonje Marinković",
            "longitude": 19.852979,
            "latitude": 45.254153
        },
        {
            "id": "_17",
            "label": "Beogradska - Lisinskog",
            "longitude": 19.8620128358,
            "latitude": 45.2547734365
        },
        {
            "id": "_18",
            "label": "Preradovićeva - Lovački Dom",
            "longitude": 19.8678103709,
            "latitude": 45.2525866389
        },
        {
            "id": "_19",
            "label": "Preradovićeva - O.Š. Jovan Dučić",
            "longitude": 19.8727083512,
            "latitude": 45.2516407374
        },
        {
            "id": "_20",
            "label": "Preradovićeva - Reljkovićeva",
            "longitude": 19.876524398,
            "latitude": 45.2488033781
        },
        {
            "id": "_21",
            "label": "Preradovićeva - Marina Držića",
            "longitude": 19.8801002749,
            "latitude": 45.2455157784
        },
        {
            "id": "_22",
            "label": "Preradovićeva - Račkog",
            "longitude": 19.8830977084,
            "latitude": 45.241791669
        },
        {
            "id": "_23",
            "label": "Petrovaradin - Železnička Stanica",
            "longitude": 19.8857439999,
            "latitude": 45.2389365212
        },
        {
            "id": "_24",
            "label": "Petrovaradin - Okretnica",
            "longitude": 19.8878906109,
            "latitude": 45.2360062995
        },
        {
            "id": "_",
            "label": "NOVO NASELJE - KRUŽNI TOK",
            "longitude": 19.787416,
            "latitude": 45.247888
        }
    ],
    "direction_b": [
        {
            "id": "_1",
            "label": "Petrovaradin - Okretnica",
            "longitude": 19.8878906109,
            "latitude": 45.2360062995
        },
        {
            "id": "_2",
            "label": "Petrovaradin - Železnička Stanica",
            "longitude": 19.8853872807,
            "latitude": 45.2396101516
        },
        {
            "id": "_3",
            "label": "Preradovićeva - Božidar Adžije",
            "longitude": 19.8814113961,
            "latitude": 45.2439233024
        },
        {
            "id": "_4",
            "label": "Preradovićeva - Marina Držića",
            "longitude": 19.87968712,
            "latitude": 45.2464017138
        },
        {
            "id": "_5",
            "label": "Preradovićeva - Benzinska Pumpa",
            "longitude": 19.8757045697,
            "latitude": 45.2496755784
        },
        {
            "id": "_6",
            "label": "Preradovićeva - Šenoina",
            "longitude": 19.8732154355,
            "latitude": 45.251431704
        },
        {
            "id": "_7",
            "label": "Preradovićeva - Lovački Dom",
            "longitude": 19.8689433116,
            "latitude": 45.2526031657
        },
        {
            "id": "_8",
            "label": "Beogradska - Vladimira Nazora",
            "longitude": 19.8623634945,
            "latitude": 45.2548163902
        },
        {
            "id": "_9",
            "label": "Bul. Mihajla Pupina - Dunavski Park",
            "longitude": 19.8519122087,
            "latitude": 45.2542020579
        },
        {
            "id": "_10",
            "label": "Žarka Zrenjanina - Opština",
            "longitude": 19.8471827488,
            "latitude": 45.2524025428
        },
        {
            "id": "_11",
            "label": "Bul. Cara Lazara - Urbis",
            "longitude": 19.8488525074,
            "latitude": 45.2474414598
        },
        {
            "id": "_12",
            "label": "Bul. Cara Lazara - Bul. Oslobođenja",
            "longitude": 19.8407575757,
            "latitude": 45.2437760634
        },
        {
            "id": "_13",
            "label": "Bul. Cara Lazara - Puškinova",
            "longitude": 19.8359820245,
            "latitude": 45.2425681438
        },
        {
            "id": "_14",
            "label": "Bul. Cara Lazara - Dom Zdravlja",
            "longitude": 19.8302794061,
            "latitude": 45.2413137447
        },
        {
            "id": "_15",
            "label": "Cara Dušana - Bul. Cara Lazara",
            "longitude": 19.8253952094,
            "latitude": 45.2403667659
        },
        {
            "id": "_16",
            "label": "Cara Dušana - Medicinska Škola",
            "longitude": 19.8252026974,
            "latitude": 45.2442691715
        },
        {
            "id": "_17",
            "label": "Futoška - Bolnica",
            "longitude": 19.8238348508,
            "latitude": 45.2494278377
        },
        {
            "id": "_18",
            "label": "Futoška - Bulevar Evrope",
            "longitude": 19.815564749,
            "latitude": 45.2485623853
        },
        {
            "id": "_19",
            "label": "Futoška - Jugoalat",
            "longitude": 19.810052585,
            "latitude": 45.2478325873
        },
        {
            "id": "_20",
            "label": "Bul. S. Jovanovića - Futoški Put",
            "longitude": 19.8075067499,
            "latitude": 45.2482734052
        },
        {
            "id": "_21",
            "label": "Bul. S. Jovanovića - Branislava Borote",
            "longitude": 19.8053597388,
            "latitude": 45.2515983077
        },
        {
            "id": "_22",
            "label": "Bul. J. Dučića - Bul. S. Jovanovića",
            "longitude": 19.8031021067,
            "latitude": 45.2529483166
        },
        {
            "id": "_23",
            "label": "Bul. J. Dučića - Braće Dronjak",
            "longitude": 19.7983752275,
            "latitude": 45.2513539058
        },
        {
            "id": "_24",
            "label": "Bul. Jovana Dučića - Igralište",
            "longitude": 19.7947978105,
            "latitude": 45.2500788277
        },
        {
            "id": "_25",
            "label": "Novo Naselje - Bistrica - Okretnica",
            "longitude": 19.7915144259,
            "latitude": 45.2489713023
        },
        {
            "id": "_",
            "label": "NOVO NASELJE - KRUŽNI TOK",
            "longitude": 19.786933,
            "latitude": 45.248251
        }
    ]
}
