{
  "direction_a": [
    {
      "id": "_1",
      "label": "MIN-ovo naselje I",
      "longitude": 21.8637303572165,
      "latitude": 43.3076867757935
    },
    {
      "id": "_2",
      "label": "Dimitrija Leka",
      "longitude": 21.8639742250401,
      "latitude": 43.3097553508546
    },
    {
      "id": "_3",
      "label": "Stojana Andrića",
      "longitude": 21.8608498717116,
      "latitude": 43.3123192946439
    },
    {
      "id": "_4",
      "label": "MIN-ovo naselje",
      "longitude": 21.8593943830182,
      "latitude": 43.3120854222464
    },
    {
      "id": "_5",
      "label": "Bubanjskih heroja",
      "longitude": 21.8578171715799,
      "latitude": 43.3116111978529
    },
    {
      "id": "_6",
      "label": "Trafo",
      "longitude": 21.8551907370983,
      "latitude": 43.3155935289381
    },
    {
      "id": "_7",
      "label": "Ledena stena",
      "longitude": 21.8578406594633,
      "latitude": 43.3158976921897
    },
    {
      "id": "_8",
      "label": "Ledena stena",
      "longitude": 21.8661689785356,
      "latitude": 43.3151596048934
    },
    {
      "id": "_9",
      "label": "Žitopek",
      "longitude": 21.869968326309,
      "latitude": 43.3153197240548
    },
    {
      "id": "_10",
      "label": "Železnička stanica",
      "longitude": 21.8789426196503,
      "latitude": 43.3156199887215
    },
    {
      "id": "_11",
      "label": "Pirotska rampa",
      "longitude": 21.8830330327269,
      "latitude": 43.3159538659189
    },
    {
      "id": "_12",
      "label": "Kičevo",
      "longitude": 21.8872228608338,
      "latitude": 43.3173526389032
    },
    {
      "id": "_13",
      "label": "Trg kralja Aleksandra",
      "longitude": 21.8918020230148,
      "latitude": 43.3183845408261
    },
    {
      "id": "_14",
      "label": "Trg kralja Milana",
      "longitude": 21.896946556276,
      "latitude": 43.3207908920573
    },
    {
      "id": "_15",
      "label": "Dom Vojske Srbije",
      "longitude": 21.902075639307,
      "latitude": 43.3203003501236
    },
    {
      "id": "_16",
      "label": "Trg Radničkog saveta",
      "longitude": 21.9077620562237,
      "latitude": 43.3191588136655
    },
    {
      "id": "_17",
      "label": "Gradska bolnica",
      "longitude": 21.911791328114,
      "latitude": 43.3173623190023
    },
    {
      "id": "_18",
      "label": "ATD",
      "longitude": 21.9171793923648,
      "latitude": 43.3149426403545
    },
    {
      "id": "_19",
      "label": "Vojna bolnica",
      "longitude": 21.9214618057625,
      "latitude": 43.3131293655137
    },
    {
      "id": "_20",
      "label": "Ćele kula",
      "longitude": 21.9260087788505,
      "latitude": 43.311706262001
    },
    {
      "id": "_21",
      "label": "Ekonomska škola",
      "longitude": 21.9334671875581,
      "latitude": 43.31044282626
    },
    {
      "id": "_22",
      "label": "Agrogradnja",
      "longitude": 21.9439686368909,
      "latitude": 43.3087720853555
    },
    {
      "id": "_23",
      "label": "Elektronska industrija",
      "longitude": 21.9514888488563,
      "latitude": 43.3075663749013
    },
    {
      "id": "_24",
      "label": "Brzi Brod 1",
      "longitude": 21.9604941651667,
      "latitude": 43.3061316316367
    },
    {
      "id": "_25",
      "label": "Brzi Brod 2",
      "longitude": 21.965505107242,
      "latitude": 43.305297170538
    },
    {
      "id": "_26",
      "label": "Naselje Nikola Tesla",
      "longitude": 21.9810603438492,
      "latitude": 43.302679956718
    },
    {
      "id": "_27",
      "label": "12 borova",
      "longitude": 21.990621027426,
      "latitude": 43.3009230000657
    },
    {
      "id": "_28",
      "label": "Banjska rampa",
      "longitude": 21.997386130288,
      "latitude": 43.3002339300215
    },
    {
      "id": "_29",
      "label": "Niška Banja",
      "longitude": 22.0054237654496,
      "latitude": 43.2928754973678
    }
  ],
  "direction_b": [
    {
      "id": "_1",
      "label": "Niška Banja",
      "longitude": 22.0056675285127,
      "latitude": 43.2928607463968
    },
    {
      "id": "_2",
      "label": "Banjska rampa",
      "longitude": 21.9981570677594,
      "latitude": 43.3004972425215
    },
    {
      "id": "_3",
      "label": "12 borova",
      "longitude": 21.9912805662133,
      "latitude": 43.301007289603
    },
    {
      "id": "_4",
      "label": "Naselje Nikola Tesla",
      "longitude": 21.9823908834615,
      "latitude": 43.3026415015022
    },
    {
      "id": "_5",
      "label": "Brzi Brod 2",
      "longitude": 21.9654318948423,
      "latitude": 43.3054994310338
    },
    {
      "id": "_6",
      "label": "Brzi Brod 1",
      "longitude": 21.9607111718618,
      "latitude": 43.3062918371399
    },
    {
      "id": "_7",
      "label": "Elektronska industrija",
      "longitude": 21.9507394851671,
      "latitude": 43.3078876867236
    },
    {
      "id": "_8",
      "label": "Agrogradnja",
      "longitude": 21.9436691226044,
      "latitude": 43.3090122116553
    },
    {
      "id": "_9",
      "label": "Ekonomska škola",
      "longitude": 21.933942286778,
      "latitude": 43.3105559610188
    },
    {
      "id": "_10",
      "label": "Ćele kula",
      "longitude": 21.9264666732397,
      "latitude": 43.3118231681998
    },
    {
      "id": "_11",
      "label": "Vojna bolnica",
      "longitude": 21.9213768479601,
      "latitude": 43.3133803024156
    },
    {
      "id": "_12",
      "label": "Medicinski fakultet",
      "longitude": 21.9161983170636,
      "latitude": 43.3156130588459
    },
    {
      "id": "_13",
      "label": "Gradska bolnica",
      "longitude": 21.9105455040249,
      "latitude": 43.3181428266918
    },
    {
      "id": "_14",
      "label": "Crveni pevac",
      "longitude": 21.9052139193894,
      "latitude": 43.3200864481009
    },
    {
      "id": "_15",
      "label": "Trg kralja Milana (Spomenik)",
      "longitude": 21.8958302411904,
      "latitude": 43.3210067072558
    },
    {
      "id": "_16",
      "label": "Šivara",
      "longitude": 21.8884782066108,
      "latitude": 43.3197355494934
    },
    {
      "id": "_17",
      "label": "Feroks",
      "longitude": 21.8841748009106,
      "latitude": 43.316474327193
    },
    {
      "id": "_18",
      "label": "Železnička stanica (Glavna pošta)",
      "longitude": 21.876359694241,
      "latitude": 43.3156938763504
    },
    {
      "id": "_19",
      "label": "Žitopek",
      "longitude": 21.8704436078558,
      "latitude": 43.315451124882
    },
    {
      "id": "_20",
      "label": "Ledena stena",
      "longitude": 21.8662988440398,
      "latitude": 43.3152756422237
    },
    {
      "id": "_21",
      "label": "Ledena stena",
      "longitude": 21.8589191790085,
      "latitude": 43.3159705907125
    },
    {
      "id": "_22",
      "label": "Trafo",
      "longitude": 21.8550521033761,
      "latitude": 43.3153785246254
    },
    {
      "id": "_23",
      "label": "Jermenska",
      "longitude": 21.8583680088914,
      "latitude": 43.3111605622752
    },
    {
      "id": "_24",
      "label": "MIN-ovo naselje I",
      "longitude": 21.8637303572165,
      "latitude": 43.3076867757935
    }
  ]
}