{
  "direction_a": [
    {
      "id": "_1",
      "label": "Trg Pavla Stojkovića",
      "longitude": 21.8922247453321,
      "latitude": 43.3176178805745
    },
    {
      "id": "_2",
      "label": "Autobuska stanica",
      "longitude": 21.8902451533189,
      "latitude": 43.3252218774593
    },
    {
      "id": "_3",
      "label": "Logor",
      "longitude": 21.8875487349086,
      "latitude": 43.3290344529612
    },
    {
      "id": "_4",
      "label": "DIN",
      "longitude": 21.8817421640371,
      "latitude": 43.3338828528293
    },
    {
      "id": "_5",
      "label": "Tempo",
      "longitude": 21.8794126967102,
      "latitude": 43.3356741926269
    },
    {
      "id": "_6",
      "label": "Jastrebac",
      "longitude": 21.8762735658457,
      "latitude": 43.3381144363934
    },
    {
      "id": "_7",
      "label": "Strugara",
      "longitude": 21.878319847236,
      "latitude": 43.3418020296778
    },
    {
      "id": "_8",
      "label": "Prijepoljska",
      "longitude": 21.8817083827351,
      "latitude": 43.3458320838413
    },
    {
      "id": "_9",
      "label": "Branka Bjegovića MK",
      "longitude": 21.8857716225461,
      "latitude": 43.3485605410288
    },
    {
      "id": "_10",
      "label": "22. decembra",
      "longitude": 21.8902733591917,
      "latitude": 43.3481906218499
    },
    {
      "id": "_11",
      "label": "Dobrovoljačka",
      "longitude": 21.8930007433436,
      "latitude": 43.3486211874327
    }
  ],
  "direction_b": [
    {
      "id": "_1",
      "label": "Podvinik II",
      "longitude": 21.8951632898454,
      "latitude": 43.3492235556414
    },
    {
      "id": "_2",
      "label": "Dobrovoljačka",
      "longitude": 21.8926310307117,
      "latitude": 43.3486438856367
    },
    {
      "id": "_3",
      "label": "22. decembra",
      "longitude": 21.8892359008696,
      "latitude": 43.3484363626097
    },
    {
      "id": "_4",
      "label": "Branka Bjegovića MK",
      "longitude": 21.8859183667133,
      "latitude": 43.3488114507733
    },
    {
      "id": "_5",
      "label": "Prijepoljska",
      "longitude": 21.8814451483646,
      "latitude": 43.3457116945402
    },
    {
      "id": "_6",
      "label": "Strugara",
      "longitude": 21.8784129332961,
      "latitude": 43.3420983715478
    },
    {
      "id": "_7",
      "label": "MIN",
      "longitude": 21.8759274047295,
      "latitude": 43.3380558835071
    },
    {
      "id": "_8",
      "label": "Tempo",
      "longitude": 21.8784520193647,
      "latitude": 43.3361010799998
    },
    {
      "id": "_9",
      "label": "DIN",
      "longitude": 21.8823420736979,
      "latitude": 43.3330734525927
    },
    {
      "id": "_10",
      "label": "Logor",
      "longitude": 21.8868925225776,
      "latitude": 43.3293582215928
    },
    {
      "id": "_11",
      "label": "Autobuska stanica",
      "longitude": 21.8900510173565,
      "latitude": 43.3237524972742
    },
    {
      "id": "_12",
      "label": "Ured",
      "longitude": 21.8913006731576,
      "latitude": 43.3193390516789
    },
    {
      "id": "_13",
      "label": "Trg Pavla Stojkovića",
      "longitude": 21.8919873863238,
      "latitude": 43.3174054938887
    }
  ]
}