{
  "direction_a": [
    {
      "id": "_1",
      "label": "Омладински Стадион",
      "longitude": 20.490085,
      "latitude": 44.815368
    },
    {
      "id": "_2",
      "label": "МЗ Крњача",
      "longitude": 20.494105,
      "latitude": 44.837744
    },
    {
      "id": "_3",
      "label": "Блок Бранко Момиров",
      "longitude": 20.491051,
      "latitude": 44.841315
    },
    {
      "id": "_4",
      "label": "Партизански Блок",
      "longitude": 20.488307,
      "latitude": 44.84637
    },
    {
      "id": "_5",
      "label": "Блок Сутјеска",
      "longitude": 20.486444,
      "latitude": 44.849427
    },
    {
      "id": "_6",
      "label": "Пиротско Насеље",
      "longitude": 20.483699,
      "latitude": 44.853545
    },
    {
      "id": "_7",
      "label": "Пакрачка",
      "longitude": 20.480411,
      "latitude": 44.85847
    },
    {
      "id": "_8",
      "label": "Себеш Суви",
      "longitude": 20.478215,
      "latitude": 44.861742
    },
    {
      "id": "_9",
      "label": "Себешка Река",
      "longitude": 20.473805,
      "latitude": 44.868343
    },
    {
      "id": "_10",
      "label": "Себеш Мокри",
      "longitude": 20.470407,
      "latitude": 44.873404
    },
    {
      "id": "_11",
      "label": "Борча Раскршће",
      "longitude": 20.467627,
      "latitude": 44.877582
    },
    {
      "id": "_12",
      "label": "Косовопољска",
      "longitude": 20.46341,
      "latitude": 44.883767
    },
    {
      "id": "_13",
      "label": "Братства и Јединства",
      "longitude": 20.460235,
      "latitude": 44.888513
    },
    {
      "id": "_14",
      "label": "Преток",
      "longitude": 20.457784,
      "latitude": 44.892162
    },
    {
      "id": "_15",
      "label": "Мали Збег",
      "longitude": 20.455845,
      "latitude": 44.895071
    },
    {
      "id": "_16",
      "label": "Гробље Збег",
      "longitude": 20.452344,
      "latitude": 44.900445
    },
    {
      "id": "_17",
      "label": "Расадник",
      "longitude": 20.447482,
      "latitude": 44.907712
    },
    {
      "id": "_18",
      "label": "Пут за Ковилово",
      "longitude": 20.443536,
      "latitude": 44.913456
    },
    {
      "id": "_19",
      "label": "Пут за Јабучки Рит",
      "longitude": 20.44069,
      "latitude": 44.917713
    },
    {
      "id": "_20",
      "label": "Фриком",
      "longitude": 20.437975,
      "latitude": 44.921868
    },
    {
      "id": "_21",
      "label": "ПК Београд",
      "longitude": 20.437629,
      "latitude": 44.92988
    },
    {
      "id": "_22",
      "label": "Насеље Товилиште",
      "longitude": 20.437541,
      "latitude": 44.933219
    },
    {
      "id": "_23",
      "label": "Падинска Скела (Марије Илић Агапове)",
      "longitude": 20.432052,
      "latitude": 44.93778
    },
    {
      "id": "_24",
      "label": "Падинска Скела (Ратомира Стојадиновића)",
      "longitude": 20.428812,
      "latitude": 44.941679
    },
    {
      "id": "_25",
      "label": "Падинска Скела",
      "longitude": 20.424607,
      "latitude": 44.945009
    }
  ],
  "direction_b": [
    {
      "id": "_1",
      "label": "Падинска Скела",
      "longitude": 20.424607,
      "latitude": 44.945009
    },
    {
      "id": "_2",
      "label": "Падинска Скела (Ратомира Стојадиновића)",
      "longitude": 20.428203,
      "latitude": 44.941897
    },
    {
      "id": "_3",
      "label": "Падинска Скела (Марије Илић Агапове)",
      "longitude": 20.43191,
      "latitude": 44.937732
    },
    {
      "id": "_4",
      "label": "Насеље Товилиште",
      "longitude": 20.437084,
      "latitude": 44.933868
    },
    {
      "id": "_5",
      "label": "ПК Београд",
      "longitude": 20.436978,
      "latitude": 44.928624
    },
    {
      "id": "_6",
      "label": "Фриком",
      "longitude": 20.438595,
      "latitude": 44.920405
    },
    {
      "id": "_7",
      "label": "Пут за Јабучки Рит",
      "longitude": 20.441749,
      "latitude": 44.915741
    },
    {
      "id": "_8",
      "label": "Пут за Ковилово",
      "longitude": 20.443986,
      "latitude": 44.912405
    },
    {
      "id": "_9",
      "label": "Расадник",
      "longitude": 20.448196,
      "latitude": 44.906168
    },
    {
      "id": "_10",
      "label": "Гробље Збег",
      "longitude": 20.452642,
      "latitude": 44.89949
    },
    {
      "id": "_11",
      "label": "Мали Збег",
      "longitude": 20.456399,
      "latitude": 44.893838
    },
    {
      "id": "_12",
      "label": "Преток",
      "longitude": 20.458186,
      "latitude": 44.891203
    },
    {
      "id": "_13",
      "label": "Братства и Јединства",
      "longitude": 20.460969,
      "latitude": 44.886993
    },
    {
      "id": "_14",
      "label": "Косовопољска",
      "longitude": 20.464099,
      "latitude": 44.882347
    },
    {
      "id": "_15",
      "label": "Борча Раскршће",
      "longitude": 20.467531,
      "latitude": 44.877219
    },
    {
      "id": "_16",
      "label": "Себеш Мокри",
      "longitude": 20.470556,
      "latitude": 44.872697
    },
    {
      "id": "_17",
      "label": "Себешка Река",
      "longitude": 20.473635,
      "latitude": 44.868102
    },
    {
      "id": "_18",
      "label": "Себеш Суви",
      "longitude": 20.478635,
      "latitude": 44.860618
    },
    {
      "id": "_19",
      "label": "Пакрачка",
      "longitude": 20.480785,
      "latitude": 44.857411
    },
    {
      "id": "_20",
      "label": "Пиротско Насеље",
      "longitude": 20.484112,
      "latitude": 44.852438
    },
    {
      "id": "_21",
      "label": "Блок Сутјеска",
      "longitude": 20.486769,
      "latitude": 44.848453
    },
    {
      "id": "_22",
      "label": "Партизански Блок",
      "longitude": 20.488131,
      "latitude": 44.846097
    },
    {
      "id": "_23",
      "label": "Блок Бранко Момиров",
      "longitude": 20.490776,
      "latitude": 44.841187
    },
    {
      "id": "_24",
      "label": "Омладински Стадион",
      "longitude": 20.489693,
      "latitude": 44.815337
    },
    {
      "id": "_25",
      "label": "Омладински Стадион",
      "longitude": 20.490085,
      "latitude": 44.815368
    }
  ]
}