{
  "direction_a": [
    {
      "id": "_1",
      "label": "Padinska skela",
      "longitude": 20.424549820332,
      "latitude": 44.9449400487075
    },
    {
      "id": "_2",
      "label": "Ratomira Stojadinovića",
      "longitude": 20.4283695427275,
      "latitude": 44.941821984016
    },
    {
      "id": "_3",
      "label": "Marije Ilić Agapove",
      "longitude": 20.4323147356985,
      "latitude": 44.9372375204365
    },
    {
      "id": "_4",
      "label": "Naselje Tovilište",
      "longitude": 20.4354499925363,
      "latitude": 44.9353541337153
    },
    {
      "id": "_5",
      "label": "KP dom",
      "longitude": 20.4281132819616,
      "latitude": 44.9541587632969
    },
    {
      "id": "_6",
      "label": "Sefkereški kanal",
      "longitude": 20.4185197456246,
      "latitude": 44.9719885193896
    },
    {
      "id": "_7",
      "label": "Put za Vrbovski",
      "longitude": 20.4122699298122,
      "latitude": 44.9926405608816
    },
    {
      "id": "_8",
      "label": "Besni fok",
      "longitude": 20.4090805388082,
      "latitude": 45.0019113839974
    },
    {
      "id": "_9",
      "label": "Besni fok (naselje)",
      "longitude": 20.406197,
      "latitude": 45.001447
    },
    {
      "id": "_10",
      "label": "Njive",
      "longitude": 20.399067,
      "latitude": 45.007162
    },
    {
      "id": "_11",
      "label": "Kanal",
      "longitude": 20.390609,
      "latitude": 45.010017
    },
    {
      "id": "_12",
      "label": "Preliv 1",
      "longitude": 20.3889620684887,
      "latitude": 45.0130607540582
    },
    {
      "id": "_13",
      "label": "Preliv ",
      "longitude": 20.38684,
      "latitude": 45.017149
    }
  ],
  "direction_b": [
    {
      "id": "_1",
      "label": "Preliv ",
      "longitude": 20.38684,
      "latitude": 45.017149
    },
    {
      "id": "_2",
      "label": "Preliv 1",
      "longitude": 20.388828,
      "latitude": 45.013099
    },
    {
      "id": "_3",
      "label": "Kanal",
      "longitude": 20.390361,
      "latitude": 45.010327
    },
    {
      "id": "_4",
      "label": "Njive",
      "longitude": 20.39894,
      "latitude": 45.007162
    },
    {
      "id": "_5",
      "label": "Besni fok (naselje)",
      "longitude": 20.4065519875928,
      "latitude": 45.0013468784402
    },
    {
      "id": "_6",
      "label": "Besni fok",
      "longitude": 20.4089101514766,
      "latitude": 45.0019519024866
    },
    {
      "id": "_7",
      "label": "Put za Vrbovski",
      "longitude": 20.412252698524,
      "latitude": 44.9918413398444
    },
    {
      "id": "_8",
      "label": "Sefkereški kanal",
      "longitude": 20.417972949843,
      "latitude": 44.9729072718031
    },
    {
      "id": "_9",
      "label": "KP dom",
      "longitude": 20.4273102979147,
      "latitude": 44.9546155215837
    },
    {
      "id": "_10",
      "label": "Naselje Tovilište",
      "longitude": 20.4360516721038,
      "latitude": 44.9352383018753
    },
    {
      "id": "_11",
      "label": "Marije Ilić Agapove",
      "longitude": 20.4320657912273,
      "latitude": 44.9378158449887
    },
    {
      "id": "_12",
      "label": "Ratomira Stojadinovića",
      "longitude": 20.4287176070256,
      "latitude": 44.9417337247083
    },
    {
      "id": "_13",
      "label": "Padinska skela",
      "longitude": 20.4251665231332,
      "latitude": 44.9448549474565
    }
  ]
}