{
  "direction_a": [
    {
      "id": "_1",
      "label": "Padinska skela",
      "longitude": 20.424549820332,
      "latitude": 44.9449400487075
    },
    {
      "id": "_2",
      "label": "Ratomira Stojadinovića",
      "longitude": 20.4283695427275,
      "latitude": 44.941821984016
    },
    {
      "id": "_3",
      "label": "Marije Ilić Agapove",
      "longitude": 20.4323147356985,
      "latitude": 44.9372375204365
    },
    {
      "id": "_4",
      "label": "Naselje Tovilište",
      "longitude": 20.4354499925363,
      "latitude": 44.9353541337153
    },
    {
      "id": "_5",
      "label": "KP dom",
      "longitude": 20.4281132819616,
      "latitude": 44.9541587632969
    },
    {
      "id": "_6",
      "label": "Sefkereški kanal",
      "longitude": 20.4185197456246,
      "latitude": 44.9719885193896
    },
    {
      "id": "_7",
      "label": "Put za Vrbovski",
      "longitude": 20.4122699298122,
      "latitude": 44.9926405608816
    },
    {
      "id": "_8",
      "label": "Besni fok",
      "longitude": 20.4090805388082,
      "latitude": 45.0019113839974
    },
    {
      "id": "_9",
      "label": "Preliv",
      "longitude": 20.3989191138555,
      "latitude": 45.021264482156
    },
    {
      "id": "_10",
      "label": "Nasipska čuvarnica",
      "longitude": 20.3937504476545,
      "latitude": 45.0327832350732
    },
    {
      "id": "_11",
      "label": "Japanski cvet",
      "longitude": 20.3913259187153,
      "latitude": 45.052062800978
    },
    {
      "id": "_12",
      "label": "Put za Dunavac",
      "longitude": 20.3805835646295,
      "latitude": 45.0652268167122
    },
    {
      "id": "_13",
      "label": "Tržni centar",
      "longitude": 20.3790662680584,
      "latitude": 45.1015929739155
    },
    {
      "id": "_14",
      "label": "Faraon",
      "longitude": 20.3842156652332,
      "latitude": 45.1107853874216
    },
    {
      "id": "_15",
      "label": "PKB Magacin",
      "longitude": 20.3893984382819,
      "latitude": 45.1124419281823
    },
    {
      "id": "_16",
      "label": "Čenta",
      "longitude": 20.3850455497425,
      "latitude": 45.1071002258317
    }
  ],
  "direction_b": [
    {
      "id": "_1",
      "label": "Čenta",
      "longitude": 20.3850455497425,
      "latitude": 45.1071002258317
    },
    {
      "id": "_2",
      "label": "Tržni centar",
      "longitude": 20.3796769751132,
      "latitude": 45.1026977653379
    },
    {
      "id": "_3",
      "label": "Put za Dunavac",
      "longitude": 20.3805523624228,
      "latitude": 45.0645859101818
    },
    {
      "id": "_4",
      "label": "Japanski cvet",
      "longitude": 20.3920878949072,
      "latitude": 45.0503552041297
    },
    {
      "id": "_5",
      "label": "Nasipska čuvarnica",
      "longitude": 20.393539031267,
      "latitude": 45.0335776446804
    },
    {
      "id": "_6",
      "label": "Preliv",
      "longitude": 20.3981314436297,
      "latitude": 45.0218434992644
    },
    {
      "id": "_7",
      "label": "Besni fok",
      "longitude": 20.4089101514766,
      "latitude": 45.0019519024866
    },
    {
      "id": "_8",
      "label": "Put za Vrbovski",
      "longitude": 20.412252698524,
      "latitude": 44.9918413398444
    },
    {
      "id": "_9",
      "label": "Sefkereški kanal",
      "longitude": 20.417972949843,
      "latitude": 44.9729072718031
    },
    {
      "id": "_10",
      "label": "KP dom",
      "longitude": 20.4273102979147,
      "latitude": 44.9546155215837
    },
    {
      "id": "_11",
      "label": "Naselje Tovilište",
      "longitude": 20.4360516721038,
      "latitude": 44.9352383018753
    },
    {
      "id": "_12",
      "label": "Marije Ilić Agapove",
      "longitude": 20.4320657912273,
      "latitude": 44.9378158449887
    },
    {
      "id": "_13",
      "label": "Ratomira Stojadinovića",
      "longitude": 20.4287176070256,
      "latitude": 44.9417337247083
    },
    {
      "id": "_14",
      "label": "Padinska skela",
      "longitude": 20.4251665231332,
      "latitude": 44.9448549474565
    }
  ]
}