{
  "direction_a": [
    {
      "id": "_1",
      "label": "Падинска Скела",
      "longitude": 20.424607,
      "latitude": 44.945009
    },
    {
      "id": "_2",
      "label": "Падинска Скела (Ратомира Стојадиновића)",
      "longitude": 20.428203,
      "latitude": 44.941897
    },
    {
      "id": "_3",
      "label": "Падинска Скела (Марије Илић Агапове)",
      "longitude": 20.43191,
      "latitude": 44.937732
    },
    {
      "id": "_4",
      "label": "Насеље Товилиште",
      "longitude": 20.435555,
      "latitude": 44.935288
    },
    {
      "id": "_5",
      "label": "КП Дом",
      "longitude": 20.428278,
      "latitude": 44.954116
    },
    {
      "id": "_6",
      "label": "Сефкерешки Канал",
      "longitude": 20.418633,
      "latitude": 44.971982
    },
    {
      "id": "_7",
      "label": "Пут за Врбовски",
      "longitude": 20.412367,
      "latitude": 44.992459
    },
    {
      "id": "_8",
      "label": "Бесни Фок",
      "longitude": 20.409092,
      "latitude": 45.001861
    },
    {
      "id": "_9",
      "label": "Прелив",
      "longitude": 20.398975,
      "latitude": 45.021265
    },
    {
      "id": "_10",
      "label": "Насипска Чуварница",
      "longitude": 20.393785,
      "latitude": 45.032668
    },
    {
      "id": "_11",
      "label": "Јапански Цвет",
      "longitude": 20.391435,
      "latitude": 45.051974
    },
    {
      "id": "_12",
      "label": "Пут за Дунавац",
      "longitude": 20.380736,
      "latitude": 45.064528
    },
    {
      "id": "_13",
      "label": "Чента (Тржни Центар)",
      "longitude": 20.379215,
      "latitude": 45.101866
    },
    {
      "id": "_14",
      "label": "Чента (Фараон)",
      "longitude": 20.384665,
      "latitude": 45.11156
    },
    {
      "id": "_15",
      "label": "ПКБ Јединство",
      "longitude": 20.387758,
      "latitude": 45.11796
    },
    {
      "id": "_16",
      "label": "ПКБ Магацин",
      "longitude": 20.389488,
      "latitude": 45.112567
    },
    {
      "id": "_17",
      "label": "Чента",
      "longitude": 20.385067,
      "latitude": 45.107155
    }
  ],
  "direction_b": [
    {
      "id": "_1",
      "label": "Чента",
      "longitude": 20.385067,
      "latitude": 45.107155
    },
    {
      "id": "_2",
      "label": "Чента (Тржни Центар)",
      "longitude": 20.379006,
      "latitude": 45.101869
    },
    {
      "id": "_3",
      "label": "Пут за Дунавац",
      "longitude": 20.380282,
      "latitude": 45.065851
    },
    {
      "id": "_4",
      "label": "Јапански Цвет",
      "longitude": 20.392025,
      "latitude": 45.050392
    },
    {
      "id": "_5",
      "label": "Насипска Чуварница",
      "longitude": 20.393498,
      "latitude": 45.033612
    },
    {
      "id": "_6",
      "label": "Прелив",
      "longitude": 20.39809,
      "latitude": 45.021847
    },
    {
      "id": "_7",
      "label": "Бесни Фок",
      "longitude": 20.408751,
      "latitude": 45.002064
    },
    {
      "id": "_8",
      "label": "Пут за Врбовски",
      "longitude": 20.412187,
      "latitude": 44.991935
    },
    {
      "id": "_9",
      "label": "Сефкерешки Канал",
      "longitude": 20.417852,
      "latitude": 44.972971
    },
    {
      "id": "_10",
      "label": "КП Дом",
      "longitude": 20.427245,
      "latitude": 44.954651
    },
    {
      "id": "_11",
      "label": "Насеље Товилиште",
      "longitude": 20.436092,
      "latitude": 44.935211
    },
    {
      "id": "_12",
      "label": "Падинска Скела (Марије Илић Агапове)",
      "longitude": 20.432052,
      "latitude": 44.93778
    },
    {
      "id": "_13",
      "label": "Падинска Скела (Ратомира Стојадиновића)",
      "longitude": 20.428812,
      "latitude": 44.941679
    },
    {
      "id": "_14",
      "label": "Падинска Скела",
      "longitude": 20.424607,
      "latitude": 44.945009
    }
  ]
}