{
  "direction_a": [
    {
      "id": "_1",
      "label": "Omladinski stadion (ulaz)",
      "longitude": 20.4901007929794,
      "latitude": 44.8154388682299
    },
    {
      "id": "_2",
      "label": "MZ Krnjača",
      "longitude": 20.4941835071208,
      "latitude": 44.8376623052089
    },
    {
      "id": "_3",
      "label": "Blok Branka Momirova",
      "longitude": 20.4908417975942,
      "latitude": 44.8414147132766
    },
    {
      "id": "_4",
      "label": "Partizanski blok",
      "longitude": 20.4881921537112,
      "latitude": 44.846397637296
    },
    {
      "id": "_5",
      "label": "Blok Sutjeska",
      "longitude": 20.4863259678953,
      "latitude": 44.8494311207245
    },
    {
      "id": "_6",
      "label": "Pirotsko naselje",
      "longitude": 20.4836376503621,
      "latitude": 44.8535552105582
    },
    {
      "id": "_7",
      "label": "Pakračka",
      "longitude": 20.4803037155818,
      "latitude": 44.8585204610583
    },
    {
      "id": "_8",
      "label": "Sebeš suvi",
      "longitude": 20.4780975569801,
      "latitude": 44.8618402458717
    },
    {
      "id": "_9",
      "label": "Sebeška reka",
      "longitude": 20.4737486457741,
      "latitude": 44.8683809788243
    },
    {
      "id": "_10",
      "label": "Sebeš mokri",
      "longitude": 20.4703541554214,
      "latitude": 44.8734140439099
    },
    {
      "id": "_11",
      "label": "Borča raskršće",
      "longitude": 20.4675850646196,
      "latitude": 44.8775409654627
    },
    {
      "id": "_12",
      "label": "Kosovopoljska",
      "longitude": 20.4633688578965,
      "latitude": 44.8837093251119
    },
    {
      "id": "_13",
      "label": "Bratstva i jedinstva",
      "longitude": 20.4601084635954,
      "latitude": 44.8885573114419
    },
    {
      "id": "_14",
      "label": "Pretok",
      "longitude": 20.4576305086878,
      "latitude": 44.8922623784065
    },
    {
      "id": "_15",
      "label": "Mali zbeg",
      "longitude": 20.4557685618205,
      "latitude": 44.8950523745025
    },
    {
      "id": "_16",
      "label": "Groblje Zbeg",
      "longitude": 20.4538291957137,
      "latitude": 44.897976961232
    },
    {
      "id": "_17",
      "label": "SC Kovilovo",
      "longitude": 20.4562664031982,
      "latitude": 44.9111862182617
    }
  ],
  "direction_b": [
    {
      "id": "_1",
      "label": "SC Kovilovo",
      "longitude": 20.4563015570981,
      "latitude": 44.9109100481603
    },
    {
      "id": "_2",
      "label": "Groblje Zbeg",
      "longitude": 20.4529223276776,
      "latitude": 44.8990813655596
    },
    {
      "id": "_3",
      "label": "Mali zbeg",
      "longitude": 20.4564027458025,
      "latitude": 44.8938512616383
    },
    {
      "id": "_4",
      "label": "Pretok",
      "longitude": 20.4581746603036,
      "latitude": 44.8912048199244
    },
    {
      "id": "_5",
      "label": "Bratstva i jedinstva",
      "longitude": 20.4610376509133,
      "latitude": 44.8869255875895
    },
    {
      "id": "_6",
      "label": "Kosovopoljska",
      "longitude": 20.464092658278,
      "latitude": 44.8823681953597
    },
    {
      "id": "_7",
      "label": "Borča raskršće",
      "longitude": 20.4675835368457,
      "latitude": 44.8771557830855
    },
    {
      "id": "_8",
      "label": "Sebeš mokri",
      "longitude": 20.4705528288382,
      "latitude": 44.8727238045324
    },
    {
      "id": "_9",
      "label": "Sebeška reka",
      "longitude": 20.4736906620926,
      "latitude": 44.8680765319421
    },
    {
      "id": "_10",
      "label": "Sebeš suvi",
      "longitude": 20.4786295214143,
      "latitude": 44.8606565365871
    },
    {
      "id": "_11",
      "label": "Pakračka",
      "longitude": 20.4807459919225,
      "latitude": 44.8574533279554
    },
    {
      "id": "_12",
      "label": "Pirotsko naselje",
      "longitude": 20.4840466935259,
      "latitude": 44.8525149126039
    },
    {
      "id": "_13",
      "label": "Blok Sutjeska",
      "longitude": 20.4867634268595,
      "latitude": 44.8485100228802
    },
    {
      "id": "_14",
      "label": "Partizanski blok",
      "longitude": 20.4882681445937,
      "latitude": 44.8459541940358
    },
    {
      "id": "_15",
      "label": "Blok Branka Momirova",
      "longitude": 20.4908213801493,
      "latitude": 44.8411464382178
    },
    {
      "id": "_16",
      "label": "Omladinski stadion (izlaz)",
      "longitude": 20.4895760577327,
      "latitude": 44.8152979432564
    }
  ]
}