{
  "direction_a": [
    {
      "id": "_1",
      "label": "Zemun (Bačka)",
      "longitude": 20.3797251982401,
      "latitude": 44.8485712816992
    },
    {
      "id": "_2",
      "label": "Bačka",
      "longitude": 20.3793491284847,
      "latitude": 44.8506139254291
    },
    {
      "id": "_3",
      "label": "Banatska",
      "longitude": 20.3779253341391,
      "latitude": 44.8583331448915
    },
    {
      "id": "_4",
      "label": "Groblje Zbeg",
      "longitude": 20.4529223276776,
      "latitude": 44.8990813655596
    },
    {
      "id": "_5",
      "label": "Mali zbeg",
      "longitude": 20.4564027458025,
      "latitude": 44.8938512616383
    },
    {
      "id": "_6",
      "label": "Pretok",
      "longitude": 20.4581746603036,
      "latitude": 44.8912048199244
    },
    {
      "id": "_7",
      "label": "Bratstva i jedinstva",
      "longitude": 20.4610376509133,
      "latitude": 44.8869255875895
    },
    {
      "id": "_8",
      "label": "Kosovopoljska",
      "longitude": 20.464092658278,
      "latitude": 44.8823681953597
    },
    {
      "id": "_9",
      "label": "Borča raskršće",
      "longitude": 20.4675835368457,
      "latitude": 44.8771557830855
    },
    {
      "id": "_10",
      "label": "Sebeš mokri",
      "longitude": 20.4705528288382,
      "latitude": 44.8727238045324
    },
    {
      "id": "_11",
      "label": "Sebeška reka",
      "longitude": 20.4736906620926,
      "latitude": 44.8680765319421
    },
    {
      "id": "_12",
      "label": "Sebeš suvi",
      "longitude": 20.4786295214143,
      "latitude": 44.8606565365871
    },
    {
      "id": "_13",
      "label": "Pakračka",
      "longitude": 20.4807459919225,
      "latitude": 44.8574533279554
    },
    {
      "id": "_14",
      "label": "Pirotsko naselje",
      "longitude": 20.4840466935259,
      "latitude": 44.8525149126039
    },
    {
      "id": "_15",
      "label": "Blok Sutjeska",
      "longitude": 20.4867634268595,
      "latitude": 44.8485100228802
    },
    {
      "id": "_16",
      "label": "Partizanski blok",
      "longitude": 20.4882681445937,
      "latitude": 44.8459541940358
    },
    {
      "id": "_17",
      "label": "Blok Branka Momirova",
      "longitude": 20.4908213801493,
      "latitude": 44.8411464382178
    },
    {
      "id": "_18",
      "label": "Blok Braća Marić",
      "longitude": 20.500764489909,
      "latitude": 44.8401641745819
    },
    {
      "id": "_19",
      "label": "Janko Lisjak",
      "longitude": 20.5095108050078,
      "latitude": 44.8439636607123
    },
    {
      "id": "_20",
      "label": "Progres",
      "longitude": 20.5144519802946,
      "latitude": 44.8460635437679
    },
    {
      "id": "_21",
      "label": "Politika",
      "longitude": 20.5191630315859,
      "latitude": 44.8475808830213
    },
    {
      "id": "_22",
      "label": "Hidrotehnika",
      "longitude": 20.5277014206277,
      "latitude": 44.8498535907642
    },
    {
      "id": "_23",
      "label": "Rafinerija",
      "longitude": 20.5321324599329,
      "latitude": 44.8510326619359
    },
    {
      "id": "_24",
      "label": "Balkan",
      "longitude": 20.5372580353076,
      "latitude": 44.8523979507856
    },
    {
      "id": "_25",
      "label": "Radiostanica",
      "longitude": 20.5444620530173,
      "latitude": 44.8543130398228
    },
    {
      "id": "_26",
      "label": "Naselje Ilić",
      "longitude": 20.554593419692,
      "latitude": 44.8570076164766
    },
    {
      "id": "_27",
      "label": "Deseti kilometar",
      "longitude": 20.561950100881,
      "latitude": 44.8589653900664
    },
    {
      "id": "_28",
      "label": "Sibnica",
      "longitude": 20.5904297225535,
      "latitude": 44.8665003850741
    },
    {
      "id": "_29",
      "label": "MZ Reva (Mali raj)",
      "longitude": 20.595449508996,
      "latitude": 44.8678230838986
    },
    {
      "id": "_30",
      "label": "Sibnička nova 4. deo",
      "longitude": 20.6069504065473,
      "latitude": 44.8696934737403
    },
    {
      "id": "_31",
      "label": "Reva (Duboka bara)",
      "longitude": 20.615231194656,
      "latitude": 44.8702164571237
    }
  ],
  "direction_b": [
    {
      "id": "_1",
      "label": "Reva (Duboka bara)",
      "longitude": 20.615231194656,
      "latitude": 44.8702164571237
    },
    {
      "id": "_2",
      "label": "Sibnička nova 4. deo",
      "longitude": 20.6055047005639,
      "latitude": 44.869760516735
    },
    {
      "id": "_3",
      "label": "MZ Reva (Mali raj)",
      "longitude": 20.595087433615,
      "latitude": 44.867843407459
    },
    {
      "id": "_4",
      "label": "Sibnica",
      "longitude": 20.5884559446902,
      "latitude": 44.8660919584447
    },
    {
      "id": "_5",
      "label": "Deseti kilometar",
      "longitude": 20.5606374015912,
      "latitude": 44.8588739819644
    },
    {
      "id": "_6",
      "label": "Naselje Ilić",
      "longitude": 20.5533842905173,
      "latitude": 44.8569471246956
    },
    {
      "id": "_7",
      "label": "Radiostanica",
      "longitude": 20.5431949355306,
      "latitude": 44.8542342111855
    },
    {
      "id": "_8",
      "label": "Balkan",
      "longitude": 20.5360162583409,
      "latitude": 44.852320944472
    },
    {
      "id": "_9",
      "label": "Rafinerija",
      "longitude": 20.5308225644982,
      "latitude": 44.8509355227397
    },
    {
      "id": "_10",
      "label": "Hidrotehnika",
      "longitude": 20.5265177728828,
      "latitude": 44.8497929192591
    },
    {
      "id": "_11",
      "label": "Politika",
      "longitude": 20.5179012630834,
      "latitude": 44.8474891967867
    },
    {
      "id": "_12",
      "label": "Progres",
      "longitude": 20.5132821303963,
      "latitude": 44.8458768007834
    },
    {
      "id": "_13",
      "label": "Janko Lisjak",
      "longitude": 20.5083916873006,
      "latitude": 44.8437680848338
    },
    {
      "id": "_14",
      "label": "Blok Braća Marić",
      "longitude": 20.4996786719085,
      "latitude": 44.8399326600864
    },
    {
      "id": "_15",
      "label": "Blok Branka Momirova",
      "longitude": 20.4908417975942,
      "latitude": 44.8414147132766
    },
    {
      "id": "_16",
      "label": "Partizanski blok",
      "longitude": 20.4881921537112,
      "latitude": 44.846397637296
    },
    {
      "id": "_17",
      "label": "Blok Sutjeska",
      "longitude": 20.4863259678953,
      "latitude": 44.8494311207245
    },
    {
      "id": "_18",
      "label": "Pirotsko naselje",
      "longitude": 20.4836376503621,
      "latitude": 44.8535552105582
    },
    {
      "id": "_19",
      "label": "Pakračka",
      "longitude": 20.4803037155818,
      "latitude": 44.8585204610583
    },
    {
      "id": "_20",
      "label": "Sebeš suvi",
      "longitude": 20.4780975569801,
      "latitude": 44.8618402458717
    },
    {
      "id": "_21",
      "label": "Sebeška reka",
      "longitude": 20.4737486457741,
      "latitude": 44.8683809788243
    },
    {
      "id": "_22",
      "label": "Sebeš mokri",
      "longitude": 20.4703541554214,
      "latitude": 44.8734140439099
    },
    {
      "id": "_23",
      "label": "Borča raskršće",
      "longitude": 20.4675850646196,
      "latitude": 44.8775409654627
    },
    {
      "id": "_24",
      "label": "Kosovopoljska",
      "longitude": 20.4633688578965,
      "latitude": 44.8837093251119
    },
    {
      "id": "_25",
      "label": "Bratstva i jedinstva",
      "longitude": 20.4601084635954,
      "latitude": 44.8885573114419
    },
    {
      "id": "_26",
      "label": "Pretok",
      "longitude": 20.4576305086878,
      "latitude": 44.8922623784065
    },
    {
      "id": "_27",
      "label": "Mali zbeg",
      "longitude": 20.4557685618205,
      "latitude": 44.8950523745025
    },
    {
      "id": "_28",
      "label": "Groblje Zbeg",
      "longitude": 20.4538291957137,
      "latitude": 44.897976961232
    },
    {
      "id": "_29",
      "label": "Banatska",
      "longitude": 20.3779346366211,
      "latitude": 44.857465648138
    },
    {
      "id": "_30",
      "label": "Zemun (Bačka)",
      "longitude": 20.3791195543265,
      "latitude": 44.8484222127299
    }
  ]
}