{
  "direction_a": [
    {
      "id": "_1",
      "label": "Ustanička",
      "longitude": 20.5179804503104,
      "latitude": 44.784537892735
    },
    {
      "id": "_2",
      "label": "Koste Trifkovića",
      "longitude": 20.5159594017901,
      "latitude": 44.7893009589398
    },
    {
      "id": "_3",
      "label": "Mite Ružića",
      "longitude": 20.5127317422065,
      "latitude": 44.791107016141
    },
    {
      "id": "_4",
      "label": "Dr Velizara Kosanovića",
      "longitude": 20.5109171575512,
      "latitude": 44.7919776567746
    },
    {
      "id": "_5",
      "label": "Pijaca Zvezdara",
      "longitude": 20.5047686392372,
      "latitude": 44.7933048301686
    },
    {
      "id": "_6",
      "label": "Batutova",
      "longitude": 20.4981814692508,
      "latitude": 44.7959274906804
    },
    {
      "id": "_7",
      "label": "Lion",
      "longitude": 20.4945406516858,
      "latitude": 44.7974630380806
    },
    {
      "id": "_8",
      "label": "Pop Stojanova",
      "longitude": 20.489902533483,
      "latitude": 44.7994098200475
    },
    {
      "id": "_9",
      "label": "Pijaca Đeram",
      "longitude": 20.4860837956229,
      "latitude": 44.8010037029835
    },
    {
      "id": "_10",
      "label": "GO Zvezdara",
      "longitude": 20.4822394555881,
      "latitude": 44.8026099416232
    },
    {
      "id": "_11",
      "label": "Vukov spomenik (Bulevar kralja Aleksandra)",
      "longitude": 20.4777109725931,
      "latitude": 44.804499331641
    },
    {
      "id": "_12",
      "label": "Pravni fakultet",
      "longitude": 20.4711808001071,
      "latitude": 44.8068378959805
    },
    {
      "id": "_13",
      "label": "Trg Slavija (Bulevar oslobođenja)",
      "longitude": 20.4660196131815,
      "latitude": 44.8014232725427
    },
    {
      "id": "_14",
      "label": "Karađorđev park",
      "longitude": 20.4651954172747,
      "latitude": 44.7970276562542
    },
    {
      "id": "_15",
      "label": "Franše D'Eperea",
      "longitude": 20.4662516364324,
      "latitude": 44.7926677913445
    },
    {
      "id": "_16",
      "label": "Zvečanska",
      "longitude": 20.4657276091827,
      "latitude": 44.7886245509231
    },
    {
      "id": "_17",
      "label": "Trg oslobođenja",
      "longitude": 20.4672988223481,
      "latitude": 44.7862397716509
    },
    {
      "id": "_18",
      "label": "Kralja Vladimira",
      "longitude": 20.4714618206852,
      "latitude": 44.7820310239031
    },
    {
      "id": "_19",
      "label": "Vitanovačka",
      "longitude": 20.4745825877532,
      "latitude": 44.7770343908444
    },
    {
      "id": "_20",
      "label": "Petrovačka",
      "longitude": 20.4756785760107,
      "latitude": 44.7748723042334
    },
    {
      "id": "_21",
      "label": "Nikšićka",
      "longitude": 20.4779177105912,
      "latitude": 44.7714608699044
    },
    {
      "id": "_22",
      "label": "Visoka škola elektrotehnike",
      "longitude": 20.4794926165984,
      "latitude": 44.7685539560792
    },
    {
      "id": "_23",
      "label": "Saobraćajni fakultet",
      "longitude": 20.4825168033552,
      "latitude": 44.7651675846705
    },
    {
      "id": "_24",
      "label": "Voždovac",
      "longitude": 20.4840977688354,
      "latitude": 44.7612454761128
    },
    {
      "id": "_25",
      "label": "Bebelova",
      "longitude": 20.4832383922184,
      "latitude": 44.7584445320514
    },
    {
      "id": "_26",
      "label": "Vračarska",
      "longitude": 20.4809280130457,
      "latitude": 44.7571849600277
    },
    {
      "id": "_27",
      "label": "Banjica",
      "longitude": 20.4777130800732,
      "latitude": 44.7573683655414
    }
  ],
  "direction_b": [
    {
      "id": "_1",
      "label": "Banjica",
      "longitude": 20.4780763081859,
      "latitude": 44.7571468276654
    },
    {
      "id": "_2",
      "label": "Vračarska",
      "longitude": 20.48122769172,
      "latitude": 44.7570063228124
    },
    {
      "id": "_3",
      "label": "Bebelova",
      "longitude": 20.4833778557325,
      "latitude": 44.7583857624971
    },
    {
      "id": "_4",
      "label": "Voždovac",
      "longitude": 20.4842612738022,
      "latitude": 44.7613254074882
    },
    {
      "id": "_5",
      "label": "Saobraćajni fakultet",
      "longitude": 20.4823006160142,
      "latitude": 44.7658973770496
    },
    {
      "id": "_6",
      "label": "Visoka škola elektrotehnike",
      "longitude": 20.4795392541324,
      "latitude": 44.7687071606744
    },
    {
      "id": "_7",
      "label": "Nikšićka",
      "longitude": 20.4772010711223,
      "latitude": 44.7730415348957
    },
    {
      "id": "_8",
      "label": "Vitanovačka",
      "longitude": 20.474630576442,
      "latitude": 44.7773171973497
    },
    {
      "id": "_9",
      "label": "Kralja Vladimira",
      "longitude": 20.4718924358984,
      "latitude": 44.7816442248745
    },
    {
      "id": "_10",
      "label": "Bože Jankovića",
      "longitude": 20.470332526245,
      "latitude": 44.7836547393734
    },
    {
      "id": "_11",
      "label": "Trg oslobođenja",
      "longitude": 20.4664128286546,
      "latitude": 44.787218407701
    },
    {
      "id": "_12",
      "label": "Franše D'Eperea",
      "longitude": 20.4662405697233,
      "latitude": 44.7930475210909
    },
    {
      "id": "_13",
      "label": "Karađorđev park",
      "longitude": 20.4657590648182,
      "latitude": 44.7982550256383
    },
    {
      "id": "_14",
      "label": "Trg Slavija (Bulevar oslobođenja)",
      "longitude": 20.4664336279974,
      "latitude": 44.8017635811315
    },
    {
      "id": "_15",
      "label": "Pravni fakultet",
      "longitude": 20.4728884168429,
      "latitude": 44.8064497728219
    },
    {
      "id": "_16",
      "label": "Vukov spomenik (Bulevar kralja Aleksandra)",
      "longitude": 20.4787003419823,
      "latitude": 44.8039870490846
    },
    {
      "id": "_17",
      "label": "GO Zvezdara",
      "longitude": 20.4826770173225,
      "latitude": 44.8023041305215
    },
    {
      "id": "_18",
      "label": "Pijaca Đeram",
      "longitude": 20.487277483137,
      "latitude": 44.8003808736458
    },
    {
      "id": "_19",
      "label": "Pop Stojanova",
      "longitude": 20.4915655364201,
      "latitude": 44.7985910404997
    },
    {
      "id": "_20",
      "label": "Lion",
      "longitude": 20.495472906767,
      "latitude": 44.7969433658914
    },
    {
      "id": "_21",
      "label": "Batutova",
      "longitude": 20.499815055926,
      "latitude": 44.7951411844009
    },
    {
      "id": "_22",
      "label": "Pijaca Zvezdara",
      "longitude": 20.5047073011366,
      "latitude": 44.7930867763058
    },
    {
      "id": "_23",
      "label": "Dr Velizara Kosanovića",
      "longitude": 20.5089844562786,
      "latitude": 44.7924607823968
    },
    {
      "id": "_24",
      "label": "Mite Ružića",
      "longitude": 20.5136194698621,
      "latitude": 44.7904394134507
    },
    {
      "id": "_25",
      "label": "Koste Trifkovića",
      "longitude": 20.5162784323904,
      "latitude": 44.7886255365273
    },
    {
      "id": "_26",
      "label": "Ustanička",
      "longitude": 20.5176234559302,
      "latitude": 44.7849197749785
    }
  ]
}