{
  "direction_a": [
    {
      "id": "_1",
      "label": "Устаничка",
      "longitude": 20.517904,
      "latitude": 44.784621
    },
    {
      "id": "_2",
      "label": "Косте Трифковића",
      "longitude": 20.515961,
      "latitude": 44.789267
    },
    {
      "id": "_3",
      "label": "Мите Ружића",
      "longitude": 20.512963,
      "latitude": 44.790948
    },
    {
      "id": "_4",
      "label": "Др Велизара Косановића",
      "longitude": 20.510904,
      "latitude": 44.791944
    },
    {
      "id": "_5",
      "label": "Пијаца Звездара",
      "longitude": 20.504859,
      "latitude": 44.793244
    },
    {
      "id": "_6",
      "label": "Батутова",
      "longitude": 20.498235,
      "latitude": 44.795919
    },
    {
      "id": "_7",
      "label": "Лион",
      "longitude": 20.494649,
      "latitude": 44.797447
    },
    {
      "id": "_8",
      "label": "Поп Стојанова",
      "longitude": 20.489962,
      "latitude": 44.799425
    },
    {
      "id": "_9",
      "label": "Пијаца Стари Ђерам",
      "longitude": 20.486231,
      "latitude": 44.800976
    },
    {
      "id": "_10",
      "label": "ГО Звездара",
      "longitude": 20.482318,
      "latitude": 44.802602
    },
    {
      "id": "_11",
      "label": "Вуков Споменик /бул.Краља Александра/",
      "longitude": 20.477742,
      "latitude": 44.804487
    },
    {
      "id": "_12",
      "label": "Правни факултет",
      "longitude": 20.471193,
      "latitude": 44.80682
    },
    {
      "id": "_13",
      "label": "Трг Славија /Булевар Ослобођења/",
      "longitude": 20.466047,
      "latitude": 44.801404
    },
    {
      "id": "_14",
      "label": "Карађорђев парк",
      "longitude": 20.465237,
      "latitude": 44.797099
    },
    {
      "id": "_15",
      "label": "Франше Д'Епереа",
      "longitude": 20.466279,
      "latitude": 44.792631
    },
    {
      "id": "_16",
      "label": "Звечанска",
      "longitude": 20.46574,
      "latitude": 44.788686
    },
    {
      "id": "_17",
      "label": "Трг Ослобођења",
      "longitude": 20.466707,
      "latitude": 44.786689
    },
    {
      "id": "_18",
      "label": "Боже Jанковића",
      "longitude": 20.469806,
      "latitude": 44.783915
    },
    {
      "id": "_19",
      "label": "Краља Владимира",
      "longitude": 20.471384,
      "latitude": 44.78206
    },
    {
      "id": "_20",
      "label": "Витановачка",
      "longitude": 20.474519,
      "latitude": 44.777066
    },
    {
      "id": "_21",
      "label": "Петровачка",
      "longitude": 20.475769,
      "latitude": 44.774644
    },
    {
      "id": "_22",
      "label": "Никшићка",
      "longitude": 20.477828,
      "latitude": 44.771493
    },
    {
      "id": "_23",
      "label": "Висока Школа Електротехнике",
      "longitude": 20.479839,
      "latitude": 44.768074
    },
    {
      "id": "_24",
      "label": "Саобраћајни факултет",
      "longitude": 20.482503,
      "latitude": 44.765034
    },
    {
      "id": "_25",
      "label": "Вождовац",
      "longitude": 20.484091,
      "latitude": 44.761266
    },
    {
      "id": "_26",
      "label": "Бебелова",
      "longitude": 20.483378,
      "latitude": 44.75877
    },
    {
      "id": "_27",
      "label": "Врачарска",
      "longitude": 20.481185,
      "latitude": 44.757078
    },
    {
      "id": "_28",
      "label": "Бањица",
      "longitude": 20.478021,
      "latitude": 44.757093
    }
  ],
  "direction_b": [
    {
      "id": "_1",
      "label": "Бањица",
      "longitude": 20.478021,
      "latitude": 44.757093
    },
    {
      "id": "_2",
      "label": "Врачарска",
      "longitude": 20.481204,
      "latitude": 44.757021
    },
    {
      "id": "_3",
      "label": "Бебелова",
      "longitude": 20.483542,
      "latitude": 44.758819
    },
    {
      "id": "_4",
      "label": "Вождовац",
      "longitude": 20.484282,
      "latitude": 44.761298
    },
    {
      "id": "_5",
      "label": "Саобраћајни факултет",
      "longitude": 20.482919,
      "latitude": 44.764689
    },
    {
      "id": "_6",
      "label": "Висока Школа Електротехнике",
      "longitude": 20.479599,
      "latitude": 44.768643
    },
    {
      "id": "_7",
      "label": "Никшићка",
      "longitude": 20.477892,
      "latitude": 44.772008
    },
    {
      "id": "_8",
      "label": "Витановачка",
      "longitude": 20.474691,
      "latitude": 44.777267
    },
    {
      "id": "_9",
      "label": "Краља Владимира",
      "longitude": 20.471917,
      "latitude": 44.781655
    },
    {
      "id": "_10",
      "label": "Боже Jанковића",
      "longitude": 20.470401,
      "latitude": 44.783644
    },
    {
      "id": "_11",
      "label": "Трг Ослобођења",
      "longitude": 20.466401,
      "latitude": 44.787304
    },
    {
      "id": "_12",
      "label": "Франше Д'Епереа",
      "longitude": 20.466409,
      "latitude": 44.792663
    },
    {
      "id": "_13",
      "label": "Карађорђев парк",
      "longitude": 20.465719,
      "latitude": 44.79816
    },
    {
      "id": "_14",
      "label": "Трг Славија /Булевар Ослобођења/",
      "longitude": 20.46636,
      "latitude": 44.801732
    },
    {
      "id": "_15",
      "label": "Правни факултет",
      "longitude": 20.47258,
      "latitude": 44.806622
    },
    {
      "id": "_16",
      "label": "Вуков Споменик /бул.Краља Александра/",
      "longitude": 20.47869,
      "latitude": 44.804024
    },
    {
      "id": "_17",
      "label": "ГО Звездара",
      "longitude": 20.482718,
      "latitude": 44.802339
    },
    {
      "id": "_18",
      "label": "Пијаца Стари Ђерам",
      "longitude": 20.487317,
      "latitude": 44.800423
    },
    {
      "id": "_19",
      "label": "Поп Стојанова",
      "longitude": 20.491591,
      "latitude": 44.798646
    },
    {
      "id": "_20",
      "label": "Лион",
      "longitude": 20.495468,
      "latitude": 44.797003
    },
    {
      "id": "_21",
      "label": "Батутова",
      "longitude": 20.499779,
      "latitude": 44.795153
    },
    {
      "id": "_22",
      "label": "Пијаца Звездара",
      "longitude": 20.504835,
      "latitude": 44.793067
    },
    {
      "id": "_23",
      "label": "Др Велизара Косановића",
      "longitude": 20.509005,
      "latitude": 44.79249
    },
    {
      "id": "_24",
      "label": "Мите Ружића",
      "longitude": 20.513398,
      "latitude": 44.790568
    },
    {
      "id": "_25",
      "label": "Косте Трифковића",
      "longitude": 20.51623,
      "latitude": 44.788715
    },
    {
      "id": "_26",
      "label": "Устаничка",
      "longitude": 20.517904,
      "latitude": 44.784621
    }
  ]
}