{
  "direction_a": [
    {
      "id": "_1",
      "label": "Zeleni venac",
      "longitude": 20.4560061316883,
      "latitude": 44.8140907748699
    },
    {
      "id": "_2",
      "label": "Brankov most",
      "longitude": 20.4520673994809,
      "latitude": 44.8153355656855
    },
    {
      "id": "_3",
      "label": "Ušće",
      "longitude": 20.4392792138466,
      "latitude": 44.8151261862399
    },
    {
      "id": "_4",
      "label": "Palata Srbija",
      "longitude": 20.430112880555,
      "latitude": 44.8210368962738
    },
    {
      "id": "_5",
      "label": "Hotel Jugoslavija",
      "longitude": 20.4195414026107,
      "latitude": 44.8291806377152
    },
    {
      "id": "_6",
      "label": "Džona Kenedija",
      "longitude": 20.418253187124,
      "latitude": 44.8353207651787
    },
    {
      "id": "_7",
      "label": "Karađorđev trg",
      "longitude": 20.4167764798883,
      "latitude": 44.8380347107505
    },
    {
      "id": "_8",
      "label": "Aleksandra Dubčeka",
      "longitude": 20.4106325818005,
      "latitude": 44.8392074367307
    },
    {
      "id": "_9",
      "label": "KBC Zemun",
      "longitude": 20.4063517433083,
      "latitude": 44.8412354412422
    },
    {
      "id": "_10",
      "label": "Prilaz",
      "longitude": 20.403429836462,
      "latitude": 44.8414758654433
    },
    {
      "id": "_11",
      "label": "Zlatiborska",
      "longitude": 20.3960208655267,
      "latitude": 44.8411401043499
    },
    {
      "id": "_12",
      "label": "Bosanska",
      "longitude": 20.3897463439512,
      "latitude": 44.8414308690138
    },
    {
      "id": "_13",
      "label": "Rada Končara",
      "longitude": 20.3835267035069,
      "latitude": 44.8422651523699
    },
    {
      "id": "_14",
      "label": "Prvomajska",
      "longitude": 20.3796665616237,
      "latitude": 44.8429318956947
    },
    {
      "id": "_15",
      "label": "Vojni put",
      "longitude": 20.3762719659402,
      "latitude": 44.8414681657469
    },
    {
      "id": "_16",
      "label": "Branko Plećaš",
      "longitude": 20.3743588863482,
      "latitude": 44.8396380490463
    },
    {
      "id": "_17",
      "label": "OŠ Gavrilo Princip",
      "longitude": 20.3712859724594,
      "latitude": 44.8400352176704
    },
    {
      "id": "_18",
      "label": "Zemun (Novi grad)",
      "longitude": 20.3686725786025,
      "latitude": 44.8419071492534
    }
  ],
  "direction_b": [
    {
      "id": "_1",
      "label": "Zemun (Novi grad)",
      "longitude": 20.3686725786025,
      "latitude": 44.8419071492534
    },
    {
      "id": "_2",
      "label": "OŠ Gavrilo Princip",
      "longitude": 20.3716392482535,
      "latitude": 44.8398841629729
    },
    {
      "id": "_3",
      "label": "Branko Plećaš",
      "longitude": 20.3759425074896,
      "latitude": 44.8396394788829
    },
    {
      "id": "_4",
      "label": "Vojni put",
      "longitude": 20.3766956524302,
      "latitude": 44.8425342077564
    },
    {
      "id": "_5",
      "label": "Prvomajska",
      "longitude": 20.3797352975625,
      "latitude": 44.8426550836463
    },
    {
      "id": "_6",
      "label": "Rada Končara",
      "longitude": 20.3854354484707,
      "latitude": 44.8419118186068
    },
    {
      "id": "_7",
      "label": "Bosanska",
      "longitude": 20.390725550375,
      "latitude": 44.8411750906423
    },
    {
      "id": "_8",
      "label": "Zlatiborska",
      "longitude": 20.3955286988905,
      "latitude": 44.841029517593
    },
    {
      "id": "_9",
      "label": "Prilaz",
      "longitude": 20.4046196901809,
      "latitude": 44.8416422390108
    },
    {
      "id": "_10",
      "label": "KBC Zemun",
      "longitude": 20.4070744215334,
      "latitude": 44.8403284321712
    },
    {
      "id": "_11",
      "label": "Aleksandra Dubčeka",
      "longitude": 20.4109439891515,
      "latitude": 44.8389336523026
    },
    {
      "id": "_12",
      "label": "Karađorđev trg",
      "longitude": 20.4173846006181,
      "latitude": 44.8369272647968
    },
    {
      "id": "_13",
      "label": "Džona Kenedija",
      "longitude": 20.4183755630291,
      "latitude": 44.8332047057775
    },
    {
      "id": "_14",
      "label": "Hotel Jugoslavija",
      "longitude": 20.4196373463238,
      "latitude": 44.8271724349496
    },
    {
      "id": "_15",
      "label": "Palata Srbija",
      "longitude": 20.4311999689162,
      "latitude": 44.8202989319791
    },
    {
      "id": "_16",
      "label": "Ušće",
      "longitude": 20.4389758364111,
      "latitude": 44.8151193033414
    },
    {
      "id": "_17",
      "label": "Brankov most",
      "longitude": 20.4526067155746,
      "latitude": 44.8149925584042
    },
    {
      "id": "_18",
      "label": "Zeleni venac",
      "longitude": 20.457370242161,
      "latitude": 44.8139658411018
    }
  ]
}