{
  "direction_a": [
    {
      "id": "_1",
      "label": "Зелени венац",
      "longitude": 20.456957,
      "latitude": 44.814023
    },
    {
      "id": "_2",
      "label": "Бранков мост",
      "longitude": 20.452213,
      "latitude": 44.815368
    },
    {
      "id": "_3",
      "label": "Ушће",
      "longitude": 20.439286,
      "latitude": 44.815093
    },
    {
      "id": "_4",
      "label": "Палата Србија",
      "longitude": 20.430198,
      "latitude": 44.821013
    },
    {
      "id": "_5",
      "label": "Хотел Југославија",
      "longitude": 20.419578,
      "latitude": 44.829166
    },
    {
      "id": "_6",
      "label": "Џона Кенедија",
      "longitude": 20.418296,
      "latitude": 44.835283
    },
    {
      "id": "_7",
      "label": "Карађорђев трг",
      "longitude": 20.416849,
      "latitude": 44.838016
    },
    {
      "id": "_8",
      "label": "Александра Дубчека",
      "longitude": 20.410665,
      "latitude": 44.839212
    },
    {
      "id": "_9",
      "label": "КБЦ Земун",
      "longitude": 20.406449,
      "latitude": 44.84118
    },
    {
      "id": "_10",
      "label": "Прилаз",
      "longitude": 20.403406,
      "latitude": 44.841472
    },
    {
      "id": "_11",
      "label": "Златиборска",
      "longitude": 20.396073,
      "latitude": 44.84115
    },
    {
      "id": "_12",
      "label": "Босанска",
      "longitude": 20.389643,
      "latitude": 44.841489
    },
    {
      "id": "_13",
      "label": "Рада Кончара",
      "longitude": 20.383645,
      "latitude": 44.842242
    },
    {
      "id": "_14",
      "label": "Првомајска",
      "longitude": 20.379704,
      "latitude": 44.842886
    },
    {
      "id": "_15",
      "label": "Војни пут",
      "longitude": 20.376297,
      "latitude": 44.841484
    },
    {
      "id": "_16",
      "label": "Бранко Плећаш",
      "longitude": 20.375328,
      "latitude": 44.839482
    },
    {
      "id": "_17",
      "label": "ОШ Гаврило Принцип",
      "longitude": 20.371346,
      "latitude": 44.840008
    },
    {
      "id": "_18",
      "label": "Земун /Нови Град/",
      "longitude": 20.368632,
      "latitude": 44.842048
    }
  ],
  "direction_b": [
    {
      "id": "_1",
      "label": "Земун /Нови Град/",
      "longitude": 20.368632,
      "latitude": 44.842048
    },
    {
      "id": "_2",
      "label": "ОШ Гаврило Принцип",
      "longitude": 20.371638,
      "latitude": 44.839878
    },
    {
      "id": "_3",
      "label": "Бранко Плећаш",
      "longitude": 20.375926,
      "latitude": 44.839574
    },
    {
      "id": "_4",
      "label": "Војни пут",
      "longitude": 20.376667,
      "latitude": 44.842419
    },
    {
      "id": "_5",
      "label": "Првомајска",
      "longitude": 20.37973,
      "latitude": 44.842647
    },
    {
      "id": "_6",
      "label": "Рада Кончара",
      "longitude": 20.385415,
      "latitude": 44.841894
    },
    {
      "id": "_7",
      "label": "Босанска",
      "longitude": 20.390591,
      "latitude": 44.841192
    },
    {
      "id": "_8",
      "label": "Златиборска",
      "longitude": 20.395465,
      "latitude": 44.840995
    },
    {
      "id": "_9",
      "label": "Прилаз",
      "longitude": 20.404612,
      "latitude": 44.841613
    },
    {
      "id": "_10",
      "label": "КБЦ Земун",
      "longitude": 20.407075,
      "latitude": 44.840334
    },
    {
      "id": "_11",
      "label": "Александра Дубчека",
      "longitude": 20.410782,
      "latitude": 44.839011
    },
    {
      "id": "_12",
      "label": "Карађорђев трг",
      "longitude": 20.417246,
      "latitude": 44.837067
    },
    {
      "id": "_13",
      "label": "Џона Кенедија",
      "longitude": 20.418327,
      "latitude": 44.833261
    },
    {
      "id": "_14",
      "label": "Хотел Југославија",
      "longitude": 20.419637,
      "latitude": 44.827156
    },
    {
      "id": "_15",
      "label": "Палата Србија",
      "longitude": 20.431204,
      "latitude": 44.820322
    },
    {
      "id": "_16",
      "label": "Ушће",
      "longitude": 20.439017,
      "latitude": 44.814935
    },
    {
      "id": "_17",
      "label": "Бранков мост",
      "longitude": 20.452631,
      "latitude": 44.814962
    },
    {
      "id": "_18",
      "label": "Зелени венац",
      "longitude": 20.456957,
      "latitude": 44.814023
    }
  ]
}