{
  "direction_a": [
    {
      "id": "_1",
      "label": "Trg Slavija",
      "longitude": 20.4658913763059,
      "latitude": 44.8027240093001
    },
    {
      "id": "_2",
      "label": "Katanićeva",
      "longitude": 20.4717355606405,
      "latitude": 44.7994842279664
    },
    {
      "id": "_3",
      "label": "Mačvanska",
      "longitude": 20.4740772330908,
      "latitude": 44.7977256727693
    },
    {
      "id": "_4",
      "label": "Vojvode Dragomira",
      "longitude": 20.4791162226368,
      "latitude": 44.7979178460651
    },
    {
      "id": "_5",
      "label": "Crveni krst",
      "longitude": 20.4873972933218,
      "latitude": 44.7973989593364
    },
    {
      "id": "_6",
      "label": "Bregalnička",
      "longitude": 20.4907370115391,
      "latitude": 44.7950505445845
    },
    {
      "id": "_7",
      "label": "Velimira Todorovića",
      "longitude": 20.4950368418566,
      "latitude": 44.7933020296051
    },
    {
      "id": "_8",
      "label": "Škola Vojislav Ilić",
      "longitude": 20.4968660642852,
      "latitude": 44.791355358691
    },
    {
      "id": "_9",
      "label": "Bačvanska",
      "longitude": 20.4943641095269,
      "latitude": 44.7910149806456
    },
    {
      "id": "_10",
      "label": "Grčića Milenka",
      "longitude": 20.4908465977597,
      "latitude": 44.7914818073972
    },
    {
      "id": "_11",
      "label": "Kruševačka",
      "longitude": 20.4848100377437,
      "latitude": 44.7906809076115
    }
  ],
  "direction_b": [
    {
      "id": "_1",
      "label": "Kruševačka",
      "longitude": 20.4855469153869,
      "latitude": 44.7908156065379
    },
    {
      "id": "_2",
      "label": "Grčića Milenka",
      "longitude": 20.4893062824142,
      "latitude": 44.7915919583987
    },
    {
      "id": "_3",
      "label": "Bačvanska",
      "longitude": 20.4937157349717,
      "latitude": 44.7908735293819
    },
    {
      "id": "_4",
      "label": "Škola Vojislav Ilić",
      "longitude": 20.497423174079,
      "latitude": 44.7918221764687
    },
    {
      "id": "_5",
      "label": "Velimira Todorovića",
      "longitude": 20.4943810962527,
      "latitude": 44.7937149222967
    },
    {
      "id": "_6",
      "label": "Bregalnička",
      "longitude": 20.4907486106064,
      "latitude": 44.7951693901315
    },
    {
      "id": "_7",
      "label": "Crveni krst",
      "longitude": 20.4859194528292,
      "latitude": 44.7978585259903
    },
    {
      "id": "_8",
      "label": "Vojvode Dragomira",
      "longitude": 20.4802070456083,
      "latitude": 44.7980577850169
    },
    {
      "id": "_9",
      "label": "Novopazarska",
      "longitude": 20.4740420932187,
      "latitude": 44.7979774990468
    },
    {
      "id": "_10",
      "label": "Katanićeva",
      "longitude": 20.4712045690011,
      "latitude": 44.800052353489
    },
    {
      "id": "_11",
      "label": "Trg Slavija",
      "longitude": 20.4668319426505,
      "latitude": 44.8027139840699
    }
  ]
}