{
  "direction_a": [
    {
      "id": "_1",
      "label": "Карабурма 2",
      "longitude": 20.521974,
      "latitude": 44.806904
    },
    {
      "id": "_2",
      "label": "Салвадора Аљендеа",
      "longitude": 20.522173,
      "latitude": 44.810067
    },
    {
      "id": "_3",
      "label": "Хусињских Рудара",
      "longitude": 20.51783,
      "latitude": 44.812986
    },
    {
      "id": "_4",
      "label": "Стевана Христића",
      "longitude": 20.514009,
      "latitude": 44.813069
    },
    {
      "id": "_5",
      "label": "Диљска",
      "longitude": 20.510446,
      "latitude": 44.813194
    },
    {
      "id": "_6",
      "label": "Патриса Лумумбе",
      "longitude": 20.506355,
      "latitude": 44.814731
    },
    {
      "id": "_7",
      "label": "Вука Врчевића",
      "longitude": 20.496788,
      "latitude": 44.817933
    },
    {
      "id": "_8",
      "label": "СУП Палилула",
      "longitude": 20.493847,
      "latitude": 44.817223
    },
    {
      "id": "_9",
      "label": "Омладински Стадион",
      "longitude": 20.490454,
      "latitude": 44.814262
    },
    {
      "id": "_10",
      "label": "Ватрогасна Команда",
      "longitude": 20.487953,
      "latitude": 44.812082
    },
    {
      "id": "_11",
      "label": "Ново Гробље",
      "longitude": 20.484837,
      "latitude": 44.809874
    },
    {
      "id": "_12",
      "label": "Далматинска",
      "longitude": 20.480474,
      "latitude": 44.807116
    },
    {
      "id": "_13",
      "label": "Вуков Споменик",
      "longitude": 20.478161,
      "latitude": 44.805645
    },
    {
      "id": "_14",
      "label": "ГО Врачар",
      "longitude": 20.475165,
      "latitude": 44.801641
    },
    {
      "id": "_15",
      "label": "Пијаца Каленић",
      "longitude": 20.476436,
      "latitude": 44.799011
    },
    {
      "id": "_16",
      "label": "Јужни булевар",
      "longitude": 20.478176,
      "latitude": 44.793874
    },
    {
      "id": "_17",
      "label": "Тетовска",
      "longitude": 20.48059,
      "latitude": 44.789385
    },
    {
      "id": "_18",
      "label": "Душановац /Пошта/",
      "longitude": 20.482228,
      "latitude": 44.785937
    },
    {
      "id": "_19",
      "label": "Хусова",
      "longitude": 20.480568,
      "latitude": 44.78392
    },
    {
      "id": "_20",
      "label": "Универзитет Сингидунум",
      "longitude": 20.477265,
      "latitude": 44.782598
    },
    {
      "id": "_21",
      "label": "Витановачка",
      "longitude": 20.479255,
      "latitude": 44.779612
    },
    {
      "id": "_22",
      "label": "Бјеловарска",
      "longitude": 20.481482,
      "latitude": 44.77512
    },
    {
      "id": "_23",
      "label": "Дарвинова",
      "longitude": 20.482222,
      "latitude": 44.772329
    },
    {
      "id": "_24",
      "label": "Мештровићева",
      "longitude": 20.487496,
      "latitude": 44.771835
    },
    {
      "id": "_25",
      "label": "Јована Бијелића",
      "longitude": 20.48962,
      "latitude": 44.768524
    },
    {
      "id": "_26",
      "label": "Пиве Караматијевића",
      "longitude": 20.491279,
      "latitude": 44.765888
    },
    {
      "id": "_27",
      "label": "Ратка Митровића",
      "longitude": 20.490139,
      "latitude": 44.762678
    },
    {
      "id": "_28",
      "label": "Предузеће Изолација",
      "longitude": 20.494409,
      "latitude": 44.758992
    },
    {
      "id": "_29",
      "label": "Предузеће Петар Велебит",
      "longitude": 20.497385,
      "latitude": 44.756145
    },
    {
      "id": "_30",
      "label": "Душана Јовановића",
      "longitude": 20.499972,
      "latitude": 44.75396
    },
    {
      "id": "_31",
      "label": "Пут за Кумодрашко Гробље",
      "longitude": 20.50268,
      "latitude": 44.751824
    },
    {
      "id": "_32",
      "label": "Јунска",
      "longitude": 20.50064,
      "latitude": 44.749938
    },
    {
      "id": "_33",
      "label": "Кумодраж 2 ",
      "longitude": 20.497862,
      "latitude": 44.748694
    }
  ],
  "direction_b": [
    {
      "id": "_1",
      "label": "Кумодраж 2 ",
      "longitude": 20.499069,
      "latitude": 44.748957
    },
    {
      "id": "_2",
      "label": "Јунска",
      "longitude": 20.501147,
      "latitude": 44.749991
    },
    {
      "id": "_3",
      "label": "Пут за Кумодрашко Гробље",
      "longitude": 20.502293,
      "latitude": 44.75237
    },
    {
      "id": "_4",
      "label": "Душана Јовановића",
      "longitude": 20.500054,
      "latitude": 44.754152
    },
    {
      "id": "_5",
      "label": "Предузеће Петар Велебит",
      "longitude": 20.497355,
      "latitude": 44.756477
    },
    {
      "id": "_6",
      "label": "Предузеће Изолација",
      "longitude": 20.493618,
      "latitude": 44.760018
    },
    {
      "id": "_7",
      "label": "Ратка Митровића",
      "longitude": 20.49065,
      "latitude": 44.762536
    },
    {
      "id": "_8",
      "label": "Пиве Караматијевића",
      "longitude": 20.491357,
      "latitude": 44.766147
    },
    {
      "id": "_9",
      "label": "Јована Бијелића",
      "longitude": 20.490175,
      "latitude": 44.767955
    },
    {
      "id": "_10",
      "label": "Мештровићева",
      "longitude": 20.488052,
      "latitude": 44.77128
    },
    {
      "id": "_11",
      "label": "Дарвинова",
      "longitude": 20.482327,
      "latitude": 44.772721
    },
    {
      "id": "_12",
      "label": "Бјеловарска",
      "longitude": 20.481327,
      "latitude": 44.775906
    },
    {
      "id": "_13",
      "label": "Витановачка",
      "longitude": 20.479826,
      "latitude": 44.779011
    },
    {
      "id": "_14",
      "label": "Универзитет Сингидунум",
      "longitude": 20.477296,
      "latitude": 44.78279
    },
    {
      "id": "_15",
      "label": "Хусова",
      "longitude": 20.479768,
      "latitude": 44.783906
    },
    {
      "id": "_16",
      "label": "Душановац /Пошта/",
      "longitude": 20.482422,
      "latitude": 44.785912
    },
    {
      "id": "_17",
      "label": "Тетовска",
      "longitude": 20.480064,
      "latitude": 44.79011
    },
    {
      "id": "_18",
      "label": "Јужни булевар",
      "longitude": 20.478396,
      "latitude": 44.793016
    },
    {
      "id": "_19",
      "label": "Пијаца Каленић",
      "longitude": 20.476956,
      "latitude": 44.800796
    },
    {
      "id": "_20",
      "label": "Вуков Споменик",
      "longitude": 20.478154,
      "latitude": 44.805407
    },
    {
      "id": "_21",
      "label": "Далматинска",
      "longitude": 20.480195,
      "latitude": 44.806702
    },
    {
      "id": "_22",
      "label": "Ново Гробље",
      "longitude": 20.4867,
      "latitude": 44.810848
    },
    {
      "id": "_23",
      "label": "Ватрогасна Команда",
      "longitude": 20.488902,
      "latitude": 44.812648
    },
    {
      "id": "_24",
      "label": "Омладински Стадион",
      "longitude": 20.491066,
      "latitude": 44.814554
    },
    {
      "id": "_25",
      "label": "Вука Врчевића",
      "longitude": 20.495489,
      "latitude": 44.817647
    },
    {
      "id": "_26",
      "label": "Војводе Мицка Крстића",
      "longitude": 20.501067,
      "latitude": 44.817644
    },
    {
      "id": "_27",
      "label": "Патриса Лумумбе",
      "longitude": 20.506209,
      "latitude": 44.81469
    },
    {
      "id": "_28",
      "label": "Диљска",
      "longitude": 20.511015,
      "latitude": 44.813062
    },
    {
      "id": "_29",
      "label": "Стевана Христића",
      "longitude": 20.513481,
      "latitude": 44.812955
    },
    {
      "id": "_30",
      "label": "Хусињских Рудара",
      "longitude": 20.517976,
      "latitude": 44.812727
    },
    {
      "id": "_31",
      "label": "Салвадора Аљендеа",
      "longitude": 20.521688,
      "latitude": 44.810582
    },
    {
      "id": "_32",
      "label": "Карабурма 2",
      "longitude": 20.522,
      "latitude": 44.807373
    },
    {
      "id": "_33",
      "label": "Карабурма 2",
      "longitude": 20.521974,
      "latitude": 44.806904
    }
  ]
}