{
  "direction_a": [
    {
      "id": "_1",
      "label": "Karaburma 2",
      "longitude": 20.5221471316488,
      "latitude": 44.8071315834124
    },
    {
      "id": "_2",
      "label": "Salvadora Aljendea",
      "longitude": 20.5221358265856,
      "latitude": 44.8100473843558
    },
    {
      "id": "_3",
      "label": "Husinjskih rudara",
      "longitude": 20.5177146065819,
      "latitude": 44.8129663429274
    },
    {
      "id": "_4",
      "label": "Stevana Hristića",
      "longitude": 20.5137995167317,
      "latitude": 44.8130632235533
    },
    {
      "id": "_5",
      "label": "Diljska",
      "longitude": 20.5102837396024,
      "latitude": 44.8131832728994
    },
    {
      "id": "_6",
      "label": "Patrisa Lumumbe",
      "longitude": 20.5064098866519,
      "latitude": 44.81467500203
    },
    {
      "id": "_7",
      "label": "Vuka Vrčevića",
      "longitude": 20.4967449953722,
      "latitude": 44.8179214607077
    },
    {
      "id": "_8",
      "label": "SUP Palilula",
      "longitude": 20.4937449077625,
      "latitude": 44.8171541083316
    },
    {
      "id": "_9",
      "label": "Omladinski stadion",
      "longitude": 20.4902263510143,
      "latitude": 44.8140966974399
    },
    {
      "id": "_10",
      "label": "Vatrogasna komanda",
      "longitude": 20.4879102459397,
      "latitude": 44.8120704938242
    },
    {
      "id": "_11",
      "label": "Novo groblje",
      "longitude": 20.4848471309767,
      "latitude": 44.8099022992411
    },
    {
      "id": "_12",
      "label": "Dalmatinska",
      "longitude": 20.480615642886,
      "latitude": 44.8072229663571
    },
    {
      "id": "_13",
      "label": "Vukov spomenik",
      "longitude": 20.4779759224612,
      "latitude": 44.8055460757338
    },
    {
      "id": "_14",
      "label": "GO Vračar",
      "longitude": 20.4757040249597,
      "latitude": 44.8012249399025
    },
    {
      "id": "_15",
      "label": "Pijaca Kalenić",
      "longitude": 20.4764515234774,
      "latitude": 44.7990684619992
    },
    {
      "id": "_16",
      "label": "Južni bulevar",
      "longitude": 20.4781847821195,
      "latitude": 44.7938188192583
    },
    {
      "id": "_17",
      "label": "Tetovska",
      "longitude": 20.4805828885614,
      "latitude": 44.7893713173926
    },
    {
      "id": "_18",
      "label": "Dušanovac (pošta)",
      "longitude": 20.4822116676932,
      "latitude": 44.7858472487658
    },
    {
      "id": "_19",
      "label": "Husova",
      "longitude": 20.4805048553308,
      "latitude": 44.7839550260481
    },
    {
      "id": "_20",
      "label": "Ljubićka (Univerzitet Singidunum)",
      "longitude": 20.4772260666708,
      "latitude": 44.7826405993841
    },
    {
      "id": "_21",
      "label": "Vitanovačka",
      "longitude": 20.4792553488666,
      "latitude": 44.7795467723283
    },
    {
      "id": "_22",
      "label": "Bjelovarska",
      "longitude": 20.4814858402251,
      "latitude": 44.7751164788882
    },
    {
      "id": "_23",
      "label": "Darvinova",
      "longitude": 20.4831902124771,
      "latitude": 44.7715639303424
    },
    {
      "id": "_24",
      "label": "Meštrovićeva",
      "longitude": 20.4874475316559,
      "latitude": 44.7718890079117
    },
    {
      "id": "_25",
      "label": "Jovana Bijelića",
      "longitude": 20.4896250949076,
      "latitude": 44.7684914665699
    },
    {
      "id": "_26",
      "label": "Pive Karamatijevića",
      "longitude": 20.491340919817,
      "latitude": 44.7658622019437
    },
    {
      "id": "_27",
      "label": "Voždovački kružni put",
      "longitude": 20.4901130956205,
      "latitude": 44.7626780952706
    },
    {
      "id": "_28",
      "label": "Preduzeće Izolacija",
      "longitude": 20.4940202470405,
      "latitude": 44.7593259334503
    },
    {
      "id": "_29",
      "label": "Pukovnika Petra Mišića",
      "longitude": 20.495548724812,
      "latitude": 44.7578567251857
    },
    {
      "id": "_30",
      "label": "Preduzeće Petar Velebit",
      "longitude": 20.497408024917,
      "latitude": 44.7560973576265
    },
    {
      "id": "_31",
      "label": "Dušana Jovanovića",
      "longitude": 20.5000110835118,
      "latitude": 44.7539020200267
    },
    {
      "id": "_32",
      "label": "Put za Kumodraško groblje",
      "longitude": 20.5027449966558,
      "latitude": 44.7517413877051
    },
    {
      "id": "_33",
      "label": "Junska",
      "longitude": 20.5006966959727,
      "latitude": 44.7499451717096
    },
    {
      "id": "_34",
      "label": "Kumodraž 2",
      "longitude": 20.497830817934,
      "latitude": 44.7486601231353
    }
  ],
  "direction_b": [
    {
      "id": "_1",
      "label": "Kumodraž 2",
      "longitude": 20.4989446883812,
      "latitude": 44.7489547786108
    },
    {
      "id": "_2",
      "label": "Junska",
      "longitude": 20.501145634513,
      "latitude": 44.7500227204236
    },
    {
      "id": "_3",
      "label": "Put za Kumodraško groblje",
      "longitude": 20.5022342337492,
      "latitude": 44.7523943463275
    },
    {
      "id": "_4",
      "label": "Dušana Jovanovića",
      "longitude": 20.4999247625715,
      "latitude": 44.7542472292638
    },
    {
      "id": "_5",
      "label": "Preduzeće Petar Velebit",
      "longitude": 20.4972346971492,
      "latitude": 44.756569978196
    },
    {
      "id": "_6",
      "label": "Pukovnika Petra Mišića",
      "longitude": 20.4952480101286,
      "latitude": 44.7584511773668
    },
    {
      "id": "_7",
      "label": "Preduzeće Izolacija",
      "longitude": 20.4939998129319,
      "latitude": 44.7596426295598
    },
    {
      "id": "_8",
      "label": "Voždovački kružni put",
      "longitude": 20.4905762920301,
      "latitude": 44.7625793564963
    },
    {
      "id": "_9",
      "label": "Pive Karamatijevića",
      "longitude": 20.4912851922571,
      "latitude": 44.7661679412744
    },
    {
      "id": "_10",
      "label": "Jovana Bijelića",
      "longitude": 20.4901657365482,
      "latitude": 44.7679214951879
    },
    {
      "id": "_11",
      "label": "Meštrovićeva",
      "longitude": 20.4880191797695,
      "latitude": 44.7712471887841
    },
    {
      "id": "_12",
      "label": "Darvinova",
      "longitude": 20.4822503534218,
      "latitude": 44.7729726294759
    },
    {
      "id": "_13",
      "label": "Bjelovarska",
      "longitude": 20.481293796213,
      "latitude": 44.7759669715648
    },
    {
      "id": "_14",
      "label": "Vitanovačka",
      "longitude": 20.479767755688,
      "latitude": 44.7790487197807
    },
    {
      "id": "_15",
      "label": "Ljubićka (Univerzitet Singidunum)",
      "longitude": 20.477180986972,
      "latitude": 44.782876182784
    },
    {
      "id": "_16",
      "label": "Husova",
      "longitude": 20.4796717203525,
      "latitude": 44.7838558563318
    },
    {
      "id": "_17",
      "label": "Dušanovac (pošta)",
      "longitude": 20.4823878917816,
      "latitude": 44.7859254399553
    },
    {
      "id": "_18",
      "label": "Tetovska",
      "longitude": 20.4800759691071,
      "latitude": 44.7900943865485
    },
    {
      "id": "_19",
      "label": "Južni bulevar",
      "longitude": 20.4783686566505,
      "latitude": 44.7930456935017
    },
    {
      "id": "_20",
      "label": "Pijaca Kalenić",
      "longitude": 20.4770799906071,
      "latitude": 44.8008676363606
    },
    {
      "id": "_21",
      "label": "Dalmatinska",
      "longitude": 20.4802461581991,
      "latitude": 44.8066957208867
    },
    {
      "id": "_22",
      "label": "Novo groblje",
      "longitude": 20.4866497871415,
      "latitude": 44.8107779308082
    },
    {
      "id": "_23",
      "label": "Vatrogasna komanda",
      "longitude": 20.4889041974732,
      "latitude": 44.8126202954361
    },
    {
      "id": "_24",
      "label": "Omladinski stadion",
      "longitude": 20.4912152864622,
      "latitude": 44.8146482563707
    },
    {
      "id": "_25",
      "label": "Vuka Vrčevića",
      "longitude": 20.4954830533882,
      "latitude": 44.8176369359186
    },
    {
      "id": "_26",
      "label": "Vojvode Micka Krstića",
      "longitude": 20.5010463013331,
      "latitude": 44.8176522536747
    },
    {
      "id": "_27",
      "label": "Patrisa Lumumbe",
      "longitude": 20.5062611125488,
      "latitude": 44.81462576483
    },
    {
      "id": "_28",
      "label": "Diljska",
      "longitude": 20.5109346294533,
      "latitude": 44.8130600542843
    },
    {
      "id": "_29",
      "label": "Stevana Hristića",
      "longitude": 20.51301382532,
      "latitude": 44.8129788977167
    },
    {
      "id": "_30",
      "label": "Husinjskih rudara",
      "longitude": 20.5179695312854,
      "latitude": 44.8127172267434
    },
    {
      "id": "_31",
      "label": "Salvadora Aljendea",
      "longitude": 20.5218185783682,
      "latitude": 44.8104996397428
    },
    {
      "id": "_32",
      "label": "Karaburma 2",
      "longitude": 20.5221471316488,
      "latitude": 44.8071315834124
    }
  ]
}