{
  "direction_a": [
    {
      "id": "_1",
      "label": "Trg republike",
      "longitude": 20.4617425740777,
      "latitude": 44.8166646919616
    },
    {
      "id": "_2",
      "label": "Pionirski park",
      "longitude": 20.4651200189327,
      "latitude": 44.8109999868147
    },
    {
      "id": "_3",
      "label": "Resavska",
      "longitude": 20.4681162674703,
      "latitude": 44.8090700158441
    },
    {
      "id": "_4",
      "label": "Pravni fakultet",
      "longitude": 20.4719754000281,
      "latitude": 44.8067605591121
    },
    {
      "id": "_5",
      "label": "Tehnički fakulteti",
      "longitude": 20.475579409314,
      "latitude": 44.805232765126
    },
    {
      "id": "_6",
      "label": "Vukov spomenik",
      "longitude": 20.4783354886266,
      "latitude": 44.8054847139866
    },
    {
      "id": "_7",
      "label": "Dalmatinska",
      "longitude": 20.4802461581991,
      "latitude": 44.8066957208867
    },
    {
      "id": "_8",
      "label": "Novo groblje",
      "longitude": 20.4866497871415,
      "latitude": 44.8107779308082
    },
    {
      "id": "_9",
      "label": "Vatrogasna komanda",
      "longitude": 20.4889041974732,
      "latitude": 44.8126202954361
    },
    {
      "id": "_10",
      "label": "Omladinski stadion",
      "longitude": 20.4912152864622,
      "latitude": 44.8146482563707
    },
    {
      "id": "_11",
      "label": "Generala Aračića",
      "longitude": 20.4971830122624,
      "latitude": 44.8137656023914
    },
    {
      "id": "_12",
      "label": "Marijane Gregoran",
      "longitude": 20.5001752632761,
      "latitude": 44.8133700924916
    },
    {
      "id": "_13",
      "label": "Triglavska",
      "longitude": 20.5068702109895,
      "latitude": 44.8116801390382
    },
    {
      "id": "_14",
      "label": "Oštreljska",
      "longitude": 20.5094035776371,
      "latitude": 44.8108090399142
    },
    {
      "id": "_15",
      "label": "Astronomska",
      "longitude": 20.5138944420675,
      "latitude": 44.8080580882236
    },
    {
      "id": "_16",
      "label": "Ćalije",
      "longitude": 20.5173095515758,
      "latitude": 44.8054050355837
    },
    {
      "id": "_17",
      "label": "Sime Trojanovića",
      "longitude": 20.5194421805089,
      "latitude": 44.8018807629976
    },
    {
      "id": "_18",
      "label": "Nikole Doksata",
      "longitude": 20.5209404735679,
      "latitude": 44.7995309440232
    },
    {
      "id": "_19",
      "label": "Bosutska",
      "longitude": 20.5219804416519,
      "latitude": 44.796644623939
    },
    {
      "id": "_20",
      "label": "Ladne vode",
      "longitude": 20.523503344497,
      "latitude": 44.7943470690466
    },
    {
      "id": "_21",
      "label": "Vitezova Karađorđeve zvezde",
      "longitude": 20.5245289280059,
      "latitude": 44.7926001197697
    },
    {
      "id": "_22",
      "label": "Selište",
      "longitude": 20.5275184582277,
      "latitude": 44.7901770676703
    },
    {
      "id": "_23",
      "label": "Stojčino brdo",
      "longitude": 20.5308598491488,
      "latitude": 44.7892494141877
    },
    {
      "id": "_24",
      "label": "Mirijevski venac",
      "longitude": 20.5336635718338,
      "latitude": 44.7894840238412
    },
    {
      "id": "_25",
      "label": "Branka Ćopića",
      "longitude": 20.536710565888,
      "latitude": 44.7874192582128
    },
    {
      "id": "_26",
      "label": "Mihaila Bulgakova",
      "longitude": 20.5406732444428,
      "latitude": 44.7871525901286
    },
    {
      "id": "_27",
      "label": "Semjuela Beketa",
      "longitude": 20.5406720438741,
      "latitude": 44.7905094219603
    },
    {
      "id": "_28",
      "label": "Mirijevo 3",
      "longitude": 20.536889059854,
      "latitude": 44.7938960609304
    }
  ],
  "direction_b": [
    {
      "id": "_1",
      "label": "Mirijevo 3",
      "longitude": 20.5368446846388,
      "latitude": 44.79343690469
    },
    {
      "id": "_2",
      "label": "Semjuela Beketa",
      "longitude": 20.540520519036,
      "latitude": 44.7904926165988
    },
    {
      "id": "_3",
      "label": "Mihaila Bulgakova",
      "longitude": 20.5405165031867,
      "latitude": 44.7871573628434
    },
    {
      "id": "_4",
      "label": "Matice srpske",
      "longitude": 20.5352369305837,
      "latitude": 44.7867995331735
    },
    {
      "id": "_5",
      "label": "Stojčino brdo",
      "longitude": 20.5301761936522,
      "latitude": 44.789399611522
    },
    {
      "id": "_6",
      "label": "Selište",
      "longitude": 20.527653675794,
      "latitude": 44.7906456010852
    },
    {
      "id": "_7",
      "label": "Vitezova Karađorđeve zvezde",
      "longitude": 20.5251434432951,
      "latitude": 44.7925413534455
    },
    {
      "id": "_8",
      "label": "Ladne vode",
      "longitude": 20.5230707419731,
      "latitude": 44.7953154246626
    },
    {
      "id": "_9",
      "label": "Bosutska",
      "longitude": 20.5219635603711,
      "latitude": 44.7971611277782
    },
    {
      "id": "_10",
      "label": "Nikole Doksata",
      "longitude": 20.5205280201776,
      "latitude": 44.8001915887999
    },
    {
      "id": "_11",
      "label": "Sime Trojanovića",
      "longitude": 20.5194053029073,
      "latitude": 44.8023665838492
    },
    {
      "id": "_12",
      "label": "Ćalije",
      "longitude": 20.5179358394237,
      "latitude": 44.8048820940423
    },
    {
      "id": "_13",
      "label": "Astronomska",
      "longitude": 20.5142620374571,
      "latitude": 44.8079408502817
    },
    {
      "id": "_14",
      "label": "Oštreljska",
      "longitude": 20.5101538691377,
      "latitude": 44.8105890555507
    },
    {
      "id": "_15",
      "label": "Triglavska",
      "longitude": 20.5069173514973,
      "latitude": 44.8117865359343
    },
    {
      "id": "_16",
      "label": "Marijane Gregoran",
      "longitude": 20.5006534022813,
      "latitude": 44.8133433749893
    },
    {
      "id": "_17",
      "label": "Generala Aračića",
      "longitude": 20.4965036485415,
      "latitude": 44.8139606138908
    },
    {
      "id": "_18",
      "label": "Omladinski stadion",
      "longitude": 20.4902263510143,
      "latitude": 44.8140966974399
    },
    {
      "id": "_19",
      "label": "Vatrogasna komanda",
      "longitude": 20.4879102459397,
      "latitude": 44.8120704938242
    },
    {
      "id": "_20",
      "label": "Novo groblje",
      "longitude": 20.4848471309767,
      "latitude": 44.8099022992411
    },
    {
      "id": "_21",
      "label": "Dalmatinska",
      "longitude": 20.480615642886,
      "latitude": 44.8072229663571
    },
    {
      "id": "_22",
      "label": "Tehnički fakulteti",
      "longitude": 20.4763383280773,
      "latitude": 44.8051840333328
    },
    {
      "id": "_23",
      "label": "Pravni fakultet",
      "longitude": 20.4723282741585,
      "latitude": 44.8068809760732
    },
    {
      "id": "_24",
      "label": "Glavna pošta",
      "longitude": 20.4672209588748,
      "latitude": 44.8099244175882
    },
    {
      "id": "_25",
      "label": "Terazije",
      "longitude": 20.4610734378326,
      "latitude": 44.8132849311366
    },
    {
      "id": "_26",
      "label": "Trg republike",
      "longitude": 20.4617425740777,
      "latitude": 44.8166646919616
    }
  ]
}