{
  "direction_a": [
    {
      "id": "_1",
      "label": "Републике трг",
      "longitude": 20.461632,
      "latitude": 44.816664
    },
    {
      "id": "_2",
      "label": "Пионирски Парк",
      "longitude": 20.465054,
      "latitude": 44.810986
    },
    {
      "id": "_3",
      "label": "Ресавска",
      "longitude": 20.467976,
      "latitude": 44.809155
    },
    {
      "id": "_4",
      "label": "Правни факултет",
      "longitude": 20.472006,
      "latitude": 44.806772
    },
    {
      "id": "_5",
      "label": "Технички Факултет",
      "longitude": 20.476529,
      "latitude": 44.804842
    },
    {
      "id": "_6",
      "label": "Вуков Споменик",
      "longitude": 20.478154,
      "latitude": 44.805407
    },
    {
      "id": "_7",
      "label": "Далматинска",
      "longitude": 20.480195,
      "latitude": 44.806702
    },
    {
      "id": "_8",
      "label": "Ново Гробље",
      "longitude": 20.4867,
      "latitude": 44.810848
    },
    {
      "id": "_9",
      "label": "Ватрогасна Команда",
      "longitude": 20.488902,
      "latitude": 44.812648
    },
    {
      "id": "_10",
      "label": "Омладински Стадион",
      "longitude": 20.491066,
      "latitude": 44.814554
    },
    {
      "id": "_11",
      "label": "Генерала Арачића",
      "longitude": 20.497164,
      "latitude": 44.813799
    },
    {
      "id": "_12",
      "label": "Маријане Грегоран",
      "longitude": 20.500168,
      "latitude": 44.813369
    },
    {
      "id": "_13",
      "label": "Триглавска",
      "longitude": 20.506864,
      "latitude": 44.811658
    },
    {
      "id": "_14",
      "label": "Оштрељска",
      "longitude": 20.509407,
      "latitude": 44.810822
    },
    {
      "id": "_15",
      "label": "Астрономска",
      "longitude": 20.513898,
      "latitude": 44.808086
    },
    {
      "id": "_16",
      "label": "Ћалије",
      "longitude": 20.517206,
      "latitude": 44.805525
    },
    {
      "id": "_17",
      "label": "Симе Тројановића",
      "longitude": 20.519438,
      "latitude": 44.801987
    },
    {
      "id": "_18",
      "label": "Николе Доксата",
      "longitude": 20.520958,
      "latitude": 44.799542
    },
    {
      "id": "_19",
      "label": "Босутска",
      "longitude": 20.521977,
      "latitude": 44.796688
    },
    {
      "id": "_20",
      "label": "Ладне Воде",
      "longitude": 20.523508,
      "latitude": 44.794395
    },
    {
      "id": "_21",
      "label": "Витезова Карађорђеве Звезде",
      "longitude": 20.524461,
      "latitude": 44.792647
    },
    {
      "id": "_22",
      "label": "Селиште",
      "longitude": 20.527502,
      "latitude": 44.790237
    },
    {
      "id": "_23",
      "label": "Стојчино Брдо",
      "longitude": 20.530843,
      "latitude": 44.789233
    },
    {
      "id": "_24",
      "label": "Матице Српске",
      "longitude": 20.535546,
      "latitude": 44.786515
    },
    {
      "id": "_25",
      "label": "Михаила Булгакова",
      "longitude": 20.540705,
      "latitude": 44.787169
    },
    {
      "id": "_26",
      "label": "Самјуела Бекета",
      "longitude": 20.540577,
      "latitude": 44.790945
    },
    {
      "id": "_27",
      "label": "Миријево 3",
      "longitude": 20.536968,
      "latitude": 44.793786
    }
  ],
  "direction_b": [
    {
      "id": "_1",
      "label": "Миријево 3",
      "longitude": 20.536828,
      "latitude": 44.793481
    },
    {
      "id": "_2",
      "label": "Самјуела Бекета",
      "longitude": 20.540534,
      "latitude": 44.79058
    },
    {
      "id": "_3",
      "label": "Михаила Булгакова",
      "longitude": 20.540457,
      "latitude": 44.787383
    },
    {
      "id": "_4",
      "label": "Матице Српске",
      "longitude": 20.535277,
      "latitude": 44.786778
    },
    {
      "id": "_5",
      "label": "Стојчино Брдо",
      "longitude": 20.530141,
      "latitude": 44.789407
    },
    {
      "id": "_6",
      "label": "Селиште",
      "longitude": 20.527705,
      "latitude": 44.790595
    },
    {
      "id": "_7",
      "label": "Витезова Карађорђеве Звезде",
      "longitude": 20.525342,
      "latitude": 44.792528
    },
    {
      "id": "_8",
      "label": "Ладне Воде",
      "longitude": 20.523239,
      "latitude": 44.795157
    },
    {
      "id": "_9",
      "label": "Босутска",
      "longitude": 20.522004,
      "latitude": 44.797121
    },
    {
      "id": "_10",
      "label": "Николе Доксата",
      "longitude": 20.520561,
      "latitude": 44.800164
    },
    {
      "id": "_11",
      "label": "Симе Тројановића",
      "longitude": 20.519452,
      "latitude": 44.802307
    },
    {
      "id": "_12",
      "label": "Ћалије",
      "longitude": 20.517999,
      "latitude": 44.804835
    },
    {
      "id": "_13",
      "label": "Астрономска",
      "longitude": 20.514308,
      "latitude": 44.807934
    },
    {
      "id": "_14",
      "label": "Оштрељска",
      "longitude": 20.510182,
      "latitude": 44.810579
    },
    {
      "id": "_15",
      "label": "Триглавска",
      "longitude": 20.507004,
      "latitude": 44.811762
    },
    {
      "id": "_16",
      "label": "Маријане Грегоран",
      "longitude": 20.500649,
      "latitude": 44.813358
    },
    {
      "id": "_17",
      "label": "Генерала Арачића",
      "longitude": 20.496565,
      "latitude": 44.813969
    },
    {
      "id": "_18",
      "label": "Омладински Стадион",
      "longitude": 20.490454,
      "latitude": 44.814262
    },
    {
      "id": "_19",
      "label": "Ватрогасна Команда",
      "longitude": 20.487953,
      "latitude": 44.812082
    },
    {
      "id": "_20",
      "label": "Ново Гробље",
      "longitude": 20.484837,
      "latitude": 44.809874
    },
    {
      "id": "_21",
      "label": "Далматинска",
      "longitude": 20.480474,
      "latitude": 44.807116
    },
    {
      "id": "_22",
      "label": "Технички Факултет",
      "longitude": 20.476439,
      "latitude": 44.805195
    },
    {
      "id": "_23",
      "label": "Правни факултет",
      "longitude": 20.472328,
      "latitude": 44.806937
    },
    {
      "id": "_24",
      "label": "Главна пошта",
      "longitude": 20.467193,
      "latitude": 44.809968
    },
    {
      "id": "_25",
      "label": "Пионирски Парк",
      "longitude": 20.464115,
      "latitude": 44.81209
    },
    {
      "id": "_26",
      "label": "Дом Омладине",
      "longitude": 20.462522,
      "latitude": 44.815372
    },
    {
      "id": "_27",
      "label": "Републике трг",
      "longitude": 20.461632,
      "latitude": 44.816664
    }
  ]
}