{
  "direction_a": [
    {
      "id": "_1",
      "label": "Славија трг",
      "longitude": 20.465947,
      "latitude": 44.802772
    },
    {
      "id": "_2",
      "label": "Катанићева",
      "longitude": 20.47171,
      "latitude": 44.799496
    },
    {
      "id": "_3",
      "label": "Мачванска",
      "longitude": 20.474003,
      "latitude": 44.797792
    },
    {
      "id": "_4",
      "label": "Војводе Драгомира",
      "longitude": 20.47912,
      "latitude": 44.797943
    },
    {
      "id": "_5",
      "label": "Црвени Крст",
      "longitude": 20.487434,
      "latitude": 44.79738
    },
    {
      "id": "_6",
      "label": "Брегалничка",
      "longitude": 20.49072,
      "latitude": 44.795052
    },
    {
      "id": "_7",
      "label": "Велимира Тодоровића",
      "longitude": 20.495017,
      "latitude": 44.793313
    },
    {
      "id": "_8",
      "label": "Школа Војислав Илић",
      "longitude": 20.497928,
      "latitude": 44.790843
    },
    {
      "id": "_9",
      "label": "Римска",
      "longitude": 20.499693,
      "latitude": 44.787506
    },
    {
      "id": "_10",
      "label": "Шумице",
      "longitude": 20.50136,
      "latitude": 44.782959
    },
    {
      "id": "_11",
      "label": "Медаковић 2",
      "longitude": 20.499747,
      "latitude": 44.774933
    },
    {
      "id": "_12",
      "label": "Светозора Радојчића",
      "longitude": 20.502194,
      "latitude": 44.772139
    },
    {
      "id": "_13",
      "label": "Медаковић 3 ",
      "longitude": 20.508009,
      "latitude": 44.772469
    }
  ],
  "direction_b": [
    {
      "id": "_1",
      "label": "Медаковић 3 ",
      "longitude": 20.508009,
      "latitude": 44.772469
    },
    {
      "id": "_2",
      "label": "Светозора Радојчића",
      "longitude": 20.502804,
      "latitude": 44.772067
    },
    {
      "id": "_3",
      "label": "Медаковић 2",
      "longitude": 20.500217,
      "latitude": 44.77566
    },
    {
      "id": "_4",
      "label": "Владимира Томановића",
      "longitude": 20.5021,
      "latitude": 44.781843
    },
    {
      "id": "_5",
      "label": "Шумице",
      "longitude": 20.501332,
      "latitude": 44.783911
    },
    {
      "id": "_6",
      "label": "Римска",
      "longitude": 20.500183,
      "latitude": 44.78705
    },
    {
      "id": "_7",
      "label": "Школа Војислав Илић",
      "longitude": 20.497478,
      "latitude": 44.79181
    },
    {
      "id": "_8",
      "label": "Велимира Тодоровића",
      "longitude": 20.49448,
      "latitude": 44.793702
    },
    {
      "id": "_9",
      "label": "Брегалничка",
      "longitude": 20.490773,
      "latitude": 44.795202
    },
    {
      "id": "_10",
      "label": "Црвени Крст",
      "longitude": 20.485841,
      "latitude": 44.797918
    },
    {
      "id": "_11",
      "label": "Војводе Драгомира",
      "longitude": 20.48034,
      "latitude": 44.798093
    },
    {
      "id": "_12",
      "label": "Новопазарска",
      "longitude": 20.474232,
      "latitude": 44.797895
    },
    {
      "id": "_13",
      "label": "Катанићева",
      "longitude": 20.471268,
      "latitude": 44.800046
    },
    {
      "id": "_14",
      "label": "Славија трг",
      "longitude": 20.465947,
      "latitude": 44.802772
    }
  ]
}