{
  "direction_a": [
    {
      "id": "_1",
      "label": "Ustanička",
      "longitude": 20.5175756985568,
      "latitude": 44.7845829904627
    },
    {
      "id": "_2",
      "label": "Bajdina",
      "longitude": 20.525773951973,
      "latitude": 44.7793703939793
    },
    {
      "id": "_3",
      "label": "Mirijevska",
      "longitude": 20.5298996603957,
      "latitude": 44.7776288417081
    },
    {
      "id": "_4",
      "label": "OŠ Dragojlo Dudić",
      "longitude": 20.534610090852,
      "latitude": 44.7754161330401
    },
    {
      "id": "_5",
      "label": "Nine Kirsanove",
      "longitude": 20.5480874884963,
      "latitude": 44.7762529223648
    },
    {
      "id": "_6",
      "label": "Novo naselje",
      "longitude": 20.5540902297077,
      "latitude": 44.7724749593316
    },
    {
      "id": "_7",
      "label": "Ilije Guteše",
      "longitude": 20.55823,
      "latitude": 44.77033
    },
    {
      "id": "_8",
      "label": "Put za Kaluđericu",
      "longitude": 20.5604030358932,
      "latitude": 44.7676827109783
    },
    {
      "id": "_9",
      "label": "Put za Institut",
      "longitude": 20.5643554081088,
      "latitude": 44.7645425089661
    },
    {
      "id": "_10",
      "label": "Filipa Kljajića",
      "longitude": 20.5660517531518,
      "latitude": 44.7623620261194
    },
    {
      "id": "_11",
      "label": "Stara Kaluđerica",
      "longitude": 20.5696466787473,
      "latitude": 44.7592994837846
    },
    {
      "id": "_12",
      "label": "Čardak",
      "longitude": 20.5759198835739,
      "latitude": 44.7564519348523
    },
    {
      "id": "_13",
      "label": "Hotel Radmilovac",
      "longitude": 20.5807793173361,
      "latitude": 44.7537590836894
    },
    {
      "id": "_14",
      "label": "Petra Kočića",
      "longitude": 20.5839089990382,
      "latitude": 44.7509337792772
    },
    {
      "id": "_15",
      "label": "Dušana Petrovića Šaneta",
      "longitude": 20.5877762855893,
      "latitude": 44.7484116235288
    },
    {
      "id": "_16",
      "label": "Zdravstvena stanica Leštane i Vinča",
      "longitude": 20.5986012992368,
      "latitude": 44.7455484620032
    },
    {
      "id": "_17",
      "label": "Boleč (pumpa)",
      "longitude": 20.6066576798746,
      "latitude": 44.7418720650132
    },
    {
      "id": "_18",
      "label": "Boleč raskršće",
      "longitude": 20.6114945404098,
      "latitude": 44.7357201596251
    },
    {
      "id": "_19",
      "label": "Bare",
      "longitude": 20.6224770435876,
      "latitude": 44.7278658520004
    },
    {
      "id": "_20",
      "label": "Hladnjača PKB",
      "longitude": 20.6310941661735,
      "latitude": 44.7219198434715
    },
    {
      "id": "_21",
      "label": "Vikendice",
      "longitude": 20.6599742887008,
      "latitude": 44.713093758102
    },
    {
      "id": "_22",
      "label": "Plantaža",
      "longitude": 20.6631938126721,
      "latitude": 44.7058854768214
    },
    {
      "id": "_23",
      "label": "Bećarevo brdo",
      "longitude": 20.6615722233185,
      "latitude": 44.7008588880416
    },
    {
      "id": "_24",
      "label": "Put za Zaklopaču",
      "longitude": 20.6691906592787,
      "latitude": 44.6974053541038
    },
    {
      "id": "_25",
      "label": "Usek",
      "longitude": 20.6831572141938,
      "latitude": 44.6911340461959
    },
    {
      "id": "_26",
      "label": "Suva česma",
      "longitude": 20.6931586585681,
      "latitude": 44.6884162179712
    },
    {
      "id": "_27",
      "label": "Careva glavica",
      "longitude": 20.7017628651417,
      "latitude": 44.6859044970843
    },
    {
      "id": "_28",
      "label": "Gročica",
      "longitude": 20.7055758564952,
      "latitude": 44.6832665858152
    },
    {
      "id": "_29",
      "label": "AMD Grocka",
      "longitude": 20.7103119660767,
      "latitude": 44.6806074713612
    },
    {
      "id": "_30",
      "label": "Vase Čarapića",
      "longitude": 20.7127749149033,
      "latitude": 44.6778975169507
    },
    {
      "id": "_31",
      "label": "Šumadijska",
      "longitude": 20.7161887476849,
      "latitude": 44.6736040990882
    },
    {
      "id": "_32",
      "label": "JA",
      "longitude": 20.7168630641766,
      "latitude": 44.6697790650275
    },
    {
      "id": "_33",
      "label": "Kosmajska",
      "longitude": 20.7128938896208,
      "latitude": 44.6675049065848
    },
    {
      "id": "_34",
      "label": "15. maja",
      "longitude": 20.7092662729652,
      "latitude": 44.6650784758082
    },
    {
      "id": "_35",
      "label": "Bosansko naselje",
      "longitude": 20.7068476821934,
      "latitude": 44.6599964813213
    },
    {
      "id": "_36",
      "label": "Begaljički most",
      "longitude": 20.7068994704516,
      "latitude": 44.6561915106915
    },
    {
      "id": "_37",
      "label": "Vinogradi",
      "longitude": 20.7055100711138,
      "latitude": 44.6526528558747
    },
    {
      "id": "_38",
      "label": "Begaljica (ulaz)",
      "longitude": 20.7041544184018,
      "latitude": 44.6454531556266
    },
    {
      "id": "_39",
      "label": "Borisa Kidriča",
      "longitude": 20.7040838894977,
      "latitude": 44.6429384328611
    },
    {
      "id": "_40",
      "label": "Zelengora",
      "longitude": 20.7023667026849,
      "latitude": 44.6380129199888
    },
    {
      "id": "_41",
      "label": "Ulica revolucije",
      "longitude": 20.6987097144397,
      "latitude": 44.6343836915652
    },
    {
      "id": "_42",
      "label": "Begaljica",
      "longitude": 20.6951004118232,
      "latitude": 44.6323384367321
    }
  ],
  "direction_b": [
    {
      "id": "_1",
      "label": "Begaljica",
      "longitude": 20.6951004118232,
      "latitude": 44.6323384367321
    },
    {
      "id": "_2",
      "label": "Ulica revolucije",
      "longitude": 20.6987056055545,
      "latitude": 44.6342018847237
    },
    {
      "id": "_3",
      "label": "Zelengora",
      "longitude": 20.7026864547294,
      "latitude": 44.6380947439173
    },
    {
      "id": "_4",
      "label": "Borisa Kidriča",
      "longitude": 20.7042839608573,
      "latitude": 44.6432611392001
    },
    {
      "id": "_5",
      "label": "Begaljica (ulaz)",
      "longitude": 20.7044661244382,
      "latitude": 44.6456393513552
    },
    {
      "id": "_6",
      "label": "Vinogradi",
      "longitude": 20.7056130202227,
      "latitude": 44.6522373292479
    },
    {
      "id": "_7",
      "label": "Begaljički most",
      "longitude": 20.7072859708231,
      "latitude": 44.6565632839341
    },
    {
      "id": "_8",
      "label": "Bosansko naselje",
      "longitude": 20.7070732799602,
      "latitude": 44.6602724479822
    },
    {
      "id": "_9",
      "label": "15. maja",
      "longitude": 20.7088479698753,
      "latitude": 44.664494235146
    },
    {
      "id": "_10",
      "label": "Kosmajska",
      "longitude": 20.7132692199577,
      "latitude": 44.6676048384449
    },
    {
      "id": "_11",
      "label": "Grocka",
      "longitude": 20.7176818665969,
      "latitude": 44.670504653697
    },
    {
      "id": "_12",
      "label": "Šumadijska",
      "longitude": 20.7156234631521,
      "latitude": 44.6741732893128
    },
    {
      "id": "_13",
      "label": "Vase Čarapića",
      "longitude": 20.7129947942673,
      "latitude": 44.6778152672343
    },
    {
      "id": "_14",
      "label": "AMD Grocka",
      "longitude": 20.7087524896252,
      "latitude": 44.6816961073947
    },
    {
      "id": "_15",
      "label": "Gročica",
      "longitude": 20.7052033306236,
      "latitude": 44.6835950232313
    },
    {
      "id": "_16",
      "label": "Careva glavica",
      "longitude": 20.7013386660074,
      "latitude": 44.6864631808912
    },
    {
      "id": "_17",
      "label": "Suva česma",
      "longitude": 20.6924710408751,
      "latitude": 44.6886663759812
    },
    {
      "id": "_18",
      "label": "Usek",
      "longitude": 20.6827088992238,
      "latitude": 44.6919121869798
    },
    {
      "id": "_19",
      "label": "Put za Zaklopaču",
      "longitude": 20.6690658567558,
      "latitude": 44.6976083886878
    },
    {
      "id": "_20",
      "label": "Bećarevo brdo",
      "longitude": 20.6620226954292,
      "latitude": 44.7006424192194
    },
    {
      "id": "_21",
      "label": "Plantaža",
      "longitude": 20.6633713550404,
      "latitude": 44.7057348014644
    },
    {
      "id": "_22",
      "label": "Vikendice",
      "longitude": 20.6595996903906,
      "latitude": 44.7137010290247
    },
    {
      "id": "_23",
      "label": "Hladnjača PKB",
      "longitude": 20.6315834818361,
      "latitude": 44.7219934094409
    },
    {
      "id": "_24",
      "label": "Bare",
      "longitude": 20.6217077985639,
      "latitude": 44.7285148989482
    },
    {
      "id": "_25",
      "label": "Boleč raskršće",
      "longitude": 20.6112002536803,
      "latitude": 44.7359243566244
    },
    {
      "id": "_26",
      "label": "Boleč (pumpa)",
      "longitude": 20.6058502486018,
      "latitude": 44.7428862580469
    },
    {
      "id": "_27",
      "label": "Zdravstvena stanica Leštane i Vinča",
      "longitude": 20.5972741950904,
      "latitude": 44.7460783975069
    },
    {
      "id": "_28",
      "label": "Dušana Petrovića Šaneta",
      "longitude": 20.5867063635104,
      "latitude": 44.7489819565803
    },
    {
      "id": "_29",
      "label": "Petra Kočića",
      "longitude": 20.5837554331597,
      "latitude": 44.7512158112213
    },
    {
      "id": "_30",
      "label": "Hotel Radmilovac",
      "longitude": 20.5812719621827,
      "latitude": 44.753397295478
    },
    {
      "id": "_31",
      "label": "Čardak",
      "longitude": 20.5755914667119,
      "latitude": 44.756801707084
    },
    {
      "id": "_32",
      "label": "Stara Kaluđerica",
      "longitude": 20.5690651482041,
      "latitude": 44.7597076860465
    },
    {
      "id": "_33",
      "label": "Filipa Kljajića",
      "longitude": 20.5658614548905,
      "latitude": 44.7628112872914
    },
    {
      "id": "_34",
      "label": "Put za Institut",
      "longitude": 20.5632938157039,
      "latitude": 44.7656166301699
    },
    {
      "id": "_35",
      "label": "Put za Kaluđericu",
      "longitude": 20.5604624247003,
      "latitude": 44.7678485307922
    },
    {
      "id": "_36",
      "label": "Ilije Guteše",
      "longitude": 20.55744,
      "latitude": 44.77082
    },
    {
      "id": "_37",
      "label": "Novo naselje",
      "longitude": 20.5534572735197,
      "latitude": 44.7729674776248
    },
    {
      "id": "_38",
      "label": "Nine Kirsanove",
      "longitude": 20.5482842677119,
      "latitude": 44.7762950945512
    },
    {
      "id": "_39",
      "label": "OŠ Dragojlo Dudić",
      "longitude": 20.5335783691153,
      "latitude": 44.7761373133847
    },
    {
      "id": "_40",
      "label": "Mirijevska",
      "longitude": 20.5289299736302,
      "latitude": 44.7781666423269
    },
    {
      "id": "_41",
      "label": "Bajdina",
      "longitude": 20.5234526159313,
      "latitude": 44.7810887013782
    },
    {
      "id": "_42",
      "label": "Ustanička",
      "longitude": 20.5172001841431,
      "latitude": 44.7847596034066
    }
  ]
}