{
  "direction_a": [
    {
      "id": "_1",
      "label": "Устаничка",
      "longitude": 20.517384,
      "latitude": 44.784813
    },
    {
      "id": "_2",
      "label": "Бајдина",
      "longitude": 20.525767,
      "latitude": 44.779394
    },
    {
      "id": "_3",
      "label": "Миријевска",
      "longitude": 20.529854,
      "latitude": 44.777704
    },
    {
      "id": "_4",
      "label": "ОШ Драгојло Дудић",
      "longitude": 20.534686,
      "latitude": 44.775345
    },
    {
      "id": "_5",
      "label": "Нине Кирсанове",
      "longitude": 20.547837,
      "latitude": 44.776352
    },
    {
      "id": "_6",
      "label": "Ново Насеље",
      "longitude": 20.554095,
      "latitude": 44.772432
    },
    {
      "id": "_7",
      "label": "Пут за Калуђерицу",
      "longitude": 20.560379,
      "latitude": 44.76769
    },
    {
      "id": "_8",
      "label": "Пут за Институт",
      "longitude": 20.564336,
      "latitude": 44.764531
    },
    {
      "id": "_9",
      "label": "Филипа Кљајића",
      "longitude": 20.566266,
      "latitude": 44.762054
    },
    {
      "id": "_10",
      "label": "Стара Калуђерица",
      "longitude": 20.569555,
      "latitude": 44.759323
    },
    {
      "id": "_11",
      "label": "Чардак",
      "longitude": 20.575949,
      "latitude": 44.756451
    },
    {
      "id": "_12",
      "label": "Хотел Радмиловац",
      "longitude": 20.580799,
      "latitude": 44.753694
    },
    {
      "id": "_13",
      "label": "Петра Кочића",
      "longitude": 20.583959,
      "latitude": 44.750835
    },
    {
      "id": "_14",
      "label": "Душана Петровића Шанета",
      "longitude": 20.587734,
      "latitude": 44.748383
    },
    {
      "id": "_15",
      "label": "Винча /Млин/",
      "longitude": 20.598609,
      "latitude": 44.745502
    },
    {
      "id": "_16",
      "label": "Болеч /Пумпа/",
      "longitude": 20.606662,
      "latitude": 44.741845
    },
    {
      "id": "_17",
      "label": "Болеч /Раскршће/",
      "longitude": 20.611487,
      "latitude": 44.735667
    },
    {
      "id": "_18",
      "label": "Баре",
      "longitude": 20.622395,
      "latitude": 44.727898
    },
    {
      "id": "_19",
      "label": "Хладњача ПКБ",
      "longitude": 20.630701,
      "latitude": 44.721921
    },
    {
      "id": "_20",
      "label": "Викендице",
      "longitude": 20.660025,
      "latitude": 44.713031
    },
    {
      "id": "_21",
      "label": "Плантажа",
      "longitude": 20.663247,
      "latitude": 44.705325
    },
    {
      "id": "_22",
      "label": "Бећарево Брдо",
      "longitude": 20.661603,
      "latitude": 44.700914
    },
    {
      "id": "_23",
      "label": "Пут за Заклопачу",
      "longitude": 20.669143,
      "latitude": 44.69739
    },
    {
      "id": "_24",
      "label": "Усек",
      "longitude": 20.683713,
      "latitude": 44.690474
    },
    {
      "id": "_25",
      "label": "Сува Чесма",
      "longitude": 20.693202,
      "latitude": 44.688414
    },
    {
      "id": "_26",
      "label": "Царева Главица",
      "longitude": 20.701415,
      "latitude": 44.686198
    },
    {
      "id": "_27",
      "label": "Грочица",
      "longitude": 20.704886,
      "latitude": 44.683619
    },
    {
      "id": "_28",
      "label": "АМД Гроцка",
      "longitude": 20.710199,
      "latitude": 44.680652
    },
    {
      "id": "_29",
      "label": "Гроцка (Васе Чарапића)",
      "longitude": 20.712573,
      "latitude": 44.678237
    },
    {
      "id": "_30",
      "label": "Гроцка (Шумадинска)",
      "longitude": 20.716106,
      "latitude": 44.673613
    },
    {
      "id": "_31",
      "label": "Гроцка (ЈА)",
      "longitude": 20.716787,
      "latitude": 44.669727
    },
    {
      "id": "_32",
      "label": "Гроцка (Космајска)",
      "longitude": 20.712831,
      "latitude": 44.667478
    },
    {
      "id": "_33",
      "label": "Гроцка (15. Маја)",
      "longitude": 20.709265,
      "latitude": 44.665056
    },
    {
      "id": "_34",
      "label": "Босанско Насеље",
      "longitude": 20.70687,
      "latitude": 44.660066
    },
    {
      "id": "_35",
      "label": "Гроцка (Бегаљички Мост)",
      "longitude": 20.706828,
      "latitude": 44.65603
    },
    {
      "id": "_36",
      "label": "Виногради",
      "longitude": 20.705519,
      "latitude": 44.65223
    },
    {
      "id": "_37",
      "label": "Бегаљица /Улаз/",
      "longitude": 20.703966,
      "latitude": 44.645157
    },
    {
      "id": "_38",
      "label": "Бориса Кидрича (Бегаљица)",
      "longitude": 20.704108,
      "latitude": 44.642931
    },
    {
      "id": "_39",
      "label": "Зеленгора",
      "longitude": 20.702443,
      "latitude": 44.638041
    },
    {
      "id": "_40",
      "label": "Револуције (Бегаљица)",
      "longitude": 20.698586,
      "latitude": 44.634233
    },
    {
      "id": "_41",
      "label": "Бегаљица",
      "longitude": 20.695281,
      "latitude": 44.632357
    }
  ],
  "direction_b": [
    {
      "id": "_1",
      "label": "Бегаљица",
      "longitude": 20.695281,
      "latitude": 44.632357
    },
    {
      "id": "_2",
      "label": "Револуције (Бегаљица)",
      "longitude": 20.698599,
      "latitude": 44.633994
    },
    {
      "id": "_3",
      "label": "Зеленгора",
      "longitude": 20.702799,
      "latitude": 44.638096
    },
    {
      "id": "_4",
      "label": "Бориса Кидрича (Бегаљица)",
      "longitude": 20.704409,
      "latitude": 44.64322
    },
    {
      "id": "_5",
      "label": "Бегаљица /Улаз/",
      "longitude": 20.704118,
      "latitude": 44.644809
    },
    {
      "id": "_6",
      "label": "Виногради",
      "longitude": 20.70565,
      "latitude": 44.651812
    },
    {
      "id": "_7",
      "label": "Гроцка (Бегаљички Мост)",
      "longitude": 20.707132,
      "latitude": 44.656355
    },
    {
      "id": "_8",
      "label": "Босанско Насеље",
      "longitude": 20.70713,
      "latitude": 44.660226
    },
    {
      "id": "_9",
      "label": "Гроцка (15. Маја)",
      "longitude": 20.708779,
      "latitude": 44.664415
    },
    {
      "id": "_10",
      "label": "Гроцка (Космајска)",
      "longitude": 20.713198,
      "latitude": 44.667554
    },
    {
      "id": "_11",
      "label": "Гроцка (ЈА)",
      "longitude": 20.717034,
      "latitude": 44.669742
    },
    {
      "id": "_12",
      "label": "Гроцка (Шумадинска)",
      "longitude": 20.716031,
      "latitude": 44.673805
    },
    {
      "id": "_13",
      "label": "Гроцка (Васе Чарапића)",
      "longitude": 20.712941,
      "latitude": 44.677844
    },
    {
      "id": "_14",
      "label": "АМД Гроцка",
      "longitude": 20.708907,
      "latitude": 44.681642
    },
    {
      "id": "_15",
      "label": "Грочица",
      "longitude": 20.705833,
      "latitude": 44.68324
    },
    {
      "id": "_16",
      "label": "Царева Главица",
      "longitude": 20.702422,
      "latitude": 44.685474
    },
    {
      "id": "_17",
      "label": "Сува Чесма",
      "longitude": 20.692722,
      "latitude": 44.688599
    },
    {
      "id": "_18",
      "label": "Усек",
      "longitude": 20.682789,
      "latitude": 44.691852
    },
    {
      "id": "_19",
      "label": "Пут за Заклопачу",
      "longitude": 20.669223,
      "latitude": 44.697568
    },
    {
      "id": "_20",
      "label": "Бећарево Брдо",
      "longitude": 20.661592,
      "latitude": 44.701074
    },
    {
      "id": "_21",
      "label": "Плантажа",
      "longitude": 20.663387,
      "latitude": 44.705518
    },
    {
      "id": "_22",
      "label": "Викендице",
      "longitude": 20.659698,
      "latitude": 44.713575
    },
    {
      "id": "_23",
      "label": "Хладњача ПКБ",
      "longitude": 20.631812,
      "latitude": 44.721965
    },
    {
      "id": "_24",
      "label": "Баре",
      "longitude": 20.621952,
      "latitude": 44.728463
    },
    {
      "id": "_25",
      "label": "Болеч /Раскршће/",
      "longitude": 20.611176,
      "latitude": 44.735951
    },
    {
      "id": "_26",
      "label": "Болеч /Пумпа/",
      "longitude": 20.605903,
      "latitude": 44.742864
    },
    {
      "id": "_27",
      "label": "Винча /Млин/",
      "longitude": 20.597281,
      "latitude": 44.746075
    },
    {
      "id": "_28",
      "label": "Душана Петровића Шанета",
      "longitude": 20.587041,
      "latitude": 44.748767
    },
    {
      "id": "_29",
      "label": "Петра Кочића",
      "longitude": 20.583749,
      "latitude": 44.751251
    },
    {
      "id": "_30",
      "label": "Хотел Радмиловац",
      "longitude": 20.5808,
      "latitude": 44.753876
    },
    {
      "id": "_31",
      "label": "Чардак",
      "longitude": 20.575664,
      "latitude": 44.756806
    },
    {
      "id": "_32",
      "label": "Стара Калуђерица",
      "longitude": 20.568655,
      "latitude": 44.759998
    },
    {
      "id": "_33",
      "label": "Филипа Кљајића",
      "longitude": 20.565945,
      "latitude": 44.762791
    },
    {
      "id": "_34",
      "label": "Пут за Институт",
      "longitude": 20.564262,
      "latitude": 44.764928
    },
    {
      "id": "_35",
      "label": "Пут за Калуђерицу",
      "longitude": 20.560508,
      "latitude": 44.767865
    },
    {
      "id": "_36",
      "label": "Ново Насеље",
      "longitude": 20.553489,
      "latitude": 44.773034
    },
    {
      "id": "_37",
      "label": "Нине Кирсанове",
      "longitude": 20.548267,
      "latitude": 44.776339
    },
    {
      "id": "_38",
      "label": "ОШ Драгојло Дудић",
      "longitude": 20.533626,
      "latitude": 44.77618
    },
    {
      "id": "_39",
      "label": "Миријевска",
      "longitude": 20.529104,
      "latitude": 44.778136
    },
    {
      "id": "_40",
      "label": "Бајдина",
      "longitude": 20.523552,
      "latitude": 44.781097
    },
    {
      "id": "_41",
      "label": "Устаничка",
      "longitude": 20.517387,
      "latitude": 44.784693
    },
    {
      "id": "_42",
      "label": "Устаничка",
      "longitude": 20.517384,
      "latitude": 44.784813
    }
  ]
}