{
  "direction_a": [
    {
      "id": "_1",
      "label": "Ustanička",
      "longitude": 20.5175756985568,
      "latitude": 44.7845829904627
    },
    {
      "id": "_2",
      "label": "Bajdina",
      "longitude": 20.525773951973,
      "latitude": 44.7793703939793
    },
    {
      "id": "_3",
      "label": "Mirijevska",
      "longitude": 20.5298996603957,
      "latitude": 44.7776288417081
    },
    {
      "id": "_4",
      "label": "OŠ Dragojlo Dudić",
      "longitude": 20.534610090852,
      "latitude": 44.7754161330401
    },
    {
      "id": "_5",
      "label": "Nine Kirsanove",
      "longitude": 20.5480874884963,
      "latitude": 44.7762529223648
    },
    {
      "id": "_6",
      "label": "Novo naselje",
      "longitude": 20.5540902297077,
      "latitude": 44.7724749593316
    },
    {
      "id": "_7",
      "label": "Put za Kaluđericu",
      "longitude": 20.5604030358932,
      "latitude": 44.7676827109783
    },
    {
      "id": "_8",
      "label": "Put za Institut",
      "longitude": 20.5643554081088,
      "latitude": 44.7645425089661
    },
    {
      "id": "_9",
      "label": "Filipa Kljajića",
      "longitude": 20.5660517531518,
      "latitude": 44.7623620261194
    },
    {
      "id": "_10",
      "label": "Stara Kaluđerica",
      "longitude": 20.5696466787473,
      "latitude": 44.7592994837846
    },
    {
      "id": "_11",
      "label": "Čardak",
      "longitude": 20.5759198835739,
      "latitude": 44.7564519348523
    },
    {
      "id": "_12",
      "label": "Hotel Radmilovac",
      "longitude": 20.5807793173361,
      "latitude": 44.7537590836894
    },
    {
      "id": "_13",
      "label": "Petra Kočića",
      "longitude": 20.5839089990382,
      "latitude": 44.7509337792772
    },
    {
      "id": "_14",
      "label": "Dušana Petrovića Šaneta",
      "longitude": 20.5877762855893,
      "latitude": 44.7484116235288
    },
    {
      "id": "_15",
      "label": "Zdravstvena stanica Leštane i Vinča",
      "longitude": 20.5986012992368,
      "latitude": 44.7455484620032
    },
    {
      "id": "_16",
      "label": "Boleč (pumpa)",
      "longitude": 20.6066576798746,
      "latitude": 44.7418720650132
    },
    {
      "id": "_17",
      "label": "Boleč (crkva)",
      "longitude": 20.6087356344537,
      "latitude": 44.7359213942257
    },
    {
      "id": "_18",
      "label": "Boleč (groblje)",
      "longitude": 20.6045987179423,
      "latitude": 44.7337671223864
    },
    {
      "id": "_19",
      "label": "1. maja",
      "longitude": 20.6037310289569,
      "latitude": 44.7317644119381
    },
    {
      "id": "_20",
      "label": "Boleč (centar)",
      "longitude": 20.6044077528416,
      "latitude": 44.7284080717298
    },
    {
      "id": "_21",
      "label": "Virska",
      "longitude": 20.6067672593117,
      "latitude": 44.7237237444025
    },
    {
      "id": "_22",
      "label": "Boleč",
      "longitude": 20.6075223848504,
      "latitude": 44.7218093961715
    }
  ],
  "direction_b": [
    {
      "id": "_1",
      "label": "Boleč",
      "longitude": 20.6076463412687,
      "latitude": 44.722148206834
    },
    {
      "id": "_2",
      "label": "Virska",
      "longitude": 20.6065953356815,
      "latitude": 44.7245097267987
    },
    {
      "id": "_3",
      "label": "Boleč (centar)",
      "longitude": 20.6041290423326,
      "latitude": 44.7289236925061
    },
    {
      "id": "_4",
      "label": "1. maja",
      "longitude": 20.6039223206568,
      "latitude": 44.7314824821686
    },
    {
      "id": "_5",
      "label": "Boleč (groblje)",
      "longitude": 20.6049941470303,
      "latitude": 44.7339178761143
    },
    {
      "id": "_6",
      "label": "Boleč (crkva)",
      "longitude": 20.608582744034,
      "latitude": 44.7357498804609
    },
    {
      "id": "_7",
      "label": "Boleč (pumpa)",
      "longitude": 20.6058502486018,
      "latitude": 44.7428862580469
    },
    {
      "id": "_8",
      "label": "Zdravstvena stanica Leštane i Vinča",
      "longitude": 20.5972741950904,
      "latitude": 44.7460783975069
    },
    {
      "id": "_9",
      "label": "Dušana Petrovića Šaneta",
      "longitude": 20.5867063635104,
      "latitude": 44.7489819565803
    },
    {
      "id": "_10",
      "label": "Petra Kočića",
      "longitude": 20.5837554331597,
      "latitude": 44.7512158112213
    },
    {
      "id": "_11",
      "label": "Hotel Radmilovac",
      "longitude": 20.5812719621827,
      "latitude": 44.753397295478
    },
    {
      "id": "_12",
      "label": "Čardak",
      "longitude": 20.5755914667119,
      "latitude": 44.756801707084
    },
    {
      "id": "_13",
      "label": "Stara Kaluđerica",
      "longitude": 20.5690651482041,
      "latitude": 44.7597076860465
    },
    {
      "id": "_14",
      "label": "Filipa Kljajića",
      "longitude": 20.5658614548905,
      "latitude": 44.7628112872914
    },
    {
      "id": "_15",
      "label": "Put za Institut",
      "longitude": 20.5632938157039,
      "latitude": 44.7656166301699
    },
    {
      "id": "_16",
      "label": "Put za Kaluđericu",
      "longitude": 20.5604624247003,
      "latitude": 44.7678485307922
    },
    {
      "id": "_17",
      "label": "Novo naselje",
      "longitude": 20.5534572735197,
      "latitude": 44.7729674776248
    },
    {
      "id": "_18",
      "label": "Nine Kirsanove",
      "longitude": 20.5482842677119,
      "latitude": 44.7762950945512
    },
    {
      "id": "_19",
      "label": "OŠ Dragojlo Dudić",
      "longitude": 20.5335783691153,
      "latitude": 44.7761373133847
    },
    {
      "id": "_20",
      "label": "Mirijevska",
      "longitude": 20.5289299736302,
      "latitude": 44.7781666423269
    },
    {
      "id": "_21",
      "label": "Bajdina",
      "longitude": 20.5234526159313,
      "latitude": 44.7810887013782
    },
    {
      "id": "_22",
      "label": "Ustanička",
      "longitude": 20.5172001841431,
      "latitude": 44.7847596034066
    }
  ]
}