{
  "direction_a": [
    {
      "id": "_1",
      "label": "Устаничка",
      "longitude": 20.517384,
      "latitude": 44.784813
    },
    {
      "id": "_2",
      "label": "Бајдина",
      "longitude": 20.525767,
      "latitude": 44.779394
    },
    {
      "id": "_3",
      "label": "Миријевска",
      "longitude": 20.529854,
      "latitude": 44.777704
    },
    {
      "id": "_4",
      "label": "ОШ Драгојло Дудић",
      "longitude": 20.534686,
      "latitude": 44.775345
    },
    {
      "id": "_5",
      "label": "Нине Кирсанове",
      "longitude": 20.547837,
      "latitude": 44.776352
    },
    {
      "id": "_6",
      "label": "Ново Насеље",
      "longitude": 20.554095,
      "latitude": 44.772432
    },
    {
      "id": "_7",
      "label": "Пут за Калуђерицу",
      "longitude": 20.560379,
      "latitude": 44.76769
    },
    {
      "id": "_8",
      "label": "Пут за Институт",
      "longitude": 20.564336,
      "latitude": 44.764531
    },
    {
      "id": "_9",
      "label": "Филипа Кљајића",
      "longitude": 20.566266,
      "latitude": 44.762054
    },
    {
      "id": "_10",
      "label": "Стара Калуђерица",
      "longitude": 20.569555,
      "latitude": 44.759323
    },
    {
      "id": "_11",
      "label": "Чардак",
      "longitude": 20.575949,
      "latitude": 44.756451
    },
    {
      "id": "_12",
      "label": "Хотел Радмиловац",
      "longitude": 20.580799,
      "latitude": 44.753694
    },
    {
      "id": "_13",
      "label": "Петра Кочића",
      "longitude": 20.583959,
      "latitude": 44.750835
    },
    {
      "id": "_14",
      "label": "Душана Петровића Шанета",
      "longitude": 20.587734,
      "latitude": 44.748383
    },
    {
      "id": "_15",
      "label": "Винча /Млин/",
      "longitude": 20.598609,
      "latitude": 44.745502
    },
    {
      "id": "_16",
      "label": "Болеч /Пумпа/",
      "longitude": 20.606662,
      "latitude": 44.741845
    },
    {
      "id": "_17",
      "label": "Болеч /Црква/",
      "longitude": 20.608941,
      "latitude": 44.73595
    },
    {
      "id": "_18",
      "label": "Болеч /Првог Маја/",
      "longitude": 20.603714,
      "latitude": 44.731803
    },
    {
      "id": "_19",
      "label": "Болеч /Центар/",
      "longitude": 20.604302,
      "latitude": 44.728488
    },
    {
      "id": "_20",
      "label": "Болеч /Вирска/",
      "longitude": 20.606665,
      "latitude": 44.723826
    },
    {
      "id": "_21",
      "label": "Болеч",
      "longitude": 20.607632,
      "latitude": 44.721979
    }
  ],
  "direction_b": [
    {
      "id": "_1",
      "label": "Болеч",
      "longitude": 20.607632,
      "latitude": 44.721979
    },
    {
      "id": "_2",
      "label": "Болеч /Вирска/",
      "longitude": 20.606567,
      "latitude": 44.724496
    },
    {
      "id": "_3",
      "label": "Болеч /Центар/",
      "longitude": 20.604121,
      "latitude": 44.728862
    },
    {
      "id": "_4",
      "label": "Болеч /Првог Маја/",
      "longitude": 20.603878,
      "latitude": 44.731613
    },
    {
      "id": "_5",
      "label": "Болеч /Црква/",
      "longitude": 20.608473,
      "latitude": 44.735702
    },
    {
      "id": "_6",
      "label": "Болеч /Пумпа/",
      "longitude": 20.605903,
      "latitude": 44.742864
    },
    {
      "id": "_7",
      "label": "Винча /Млин/",
      "longitude": 20.597281,
      "latitude": 44.746075
    },
    {
      "id": "_8",
      "label": "Душана Петровића Шанета",
      "longitude": 20.587041,
      "latitude": 44.748767
    },
    {
      "id": "_9",
      "label": "Петра Кочића",
      "longitude": 20.583749,
      "latitude": 44.751251
    },
    {
      "id": "_10",
      "label": "Хотел Радмиловац",
      "longitude": 20.5808,
      "latitude": 44.753876
    },
    {
      "id": "_11",
      "label": "Чардак",
      "longitude": 20.575664,
      "latitude": 44.756806
    },
    {
      "id": "_12",
      "label": "Стара Калуђерица",
      "longitude": 20.568655,
      "latitude": 44.759998
    },
    {
      "id": "_13",
      "label": "Филипа Кљајића",
      "longitude": 20.565945,
      "latitude": 44.762791
    },
    {
      "id": "_14",
      "label": "Пут за Институт",
      "longitude": 20.564262,
      "latitude": 44.764928
    },
    {
      "id": "_15",
      "label": "Пут за Калуђерицу",
      "longitude": 20.560508,
      "latitude": 44.767865
    },
    {
      "id": "_16",
      "label": "Ново Насеље",
      "longitude": 20.553489,
      "latitude": 44.773034
    },
    {
      "id": "_17",
      "label": "Нине Кирсанове",
      "longitude": 20.548267,
      "latitude": 44.776339
    },
    {
      "id": "_18",
      "label": "ОШ Драгојло Дудић",
      "longitude": 20.533626,
      "latitude": 44.77618
    },
    {
      "id": "_19",
      "label": "Миријевска",
      "longitude": 20.529104,
      "latitude": 44.778136
    },
    {
      "id": "_20",
      "label": "Бајдина",
      "longitude": 20.523552,
      "latitude": 44.781097
    },
    {
      "id": "_21",
      "label": "Устаничка",
      "longitude": 20.517387,
      "latitude": 44.784693
    },
    {
      "id": "_22",
      "label": "Устаничка",
      "longitude": 20.517384,
      "latitude": 44.784813
    }
  ]
}