{
  "direction_a": [
    {
      "id": "_1",
      "label": "Звездара /Пијаца/",
      "longitude": 20.504402,
      "latitude": 44.793792
    },
    {
      "id": "_2",
      "label": "Косте Трифковића",
      "longitude": 20.51623,
      "latitude": 44.788715
    },
    {
      "id": "_3",
      "label": "Првомајска",
      "longitude": 20.52215,
      "latitude": 44.782775
    },
    {
      "id": "_4",
      "label": "Бајдина",
      "longitude": 20.525767,
      "latitude": 44.779394
    },
    {
      "id": "_5",
      "label": "Миријевска",
      "longitude": 20.529854,
      "latitude": 44.777704
    },
    {
      "id": "_6",
      "label": "ОШ Драгојло Дудић",
      "longitude": 20.534686,
      "latitude": 44.775345
    },
    {
      "id": "_7",
      "label": "Пиранделова",
      "longitude": 20.540483,
      "latitude": 44.77714
    },
    {
      "id": "_8",
      "label": "Нине Кирсанове",
      "longitude": 20.547837,
      "latitude": 44.776352
    },
    {
      "id": "_9",
      "label": "Ново Насеље",
      "longitude": 20.554095,
      "latitude": 44.772432
    },
    {
      "id": "_10",
      "label": "Пут за Калуђерицу",
      "longitude": 20.560379,
      "latitude": 44.76769
    },
    {
      "id": "_11",
      "label": "Дом здравља",
      "longitude": 20.55701,
      "latitude": 44.76551
    },
    {
      "id": "_12",
      "label": "Копаоничка",
      "longitude": 20.55434,
      "latitude": 44.764535
    },
    {
      "id": "_13",
      "label": "Степе Степановића",
      "longitude": 20.549483,
      "latitude": 44.762789
    },
    {
      "id": "_14",
      "label": "Жељка Миливојевића",
      "longitude": 20.551128,
      "latitude": 44.759169
    },
    {
      "id": "_15",
      "label": "Радисава Игњатовића",
      "longitude": 20.551937,
      "latitude": 44.756908
    },
    {
      "id": "_16",
      "label": "Калуђерица /Центар/",
      "longitude": 20.553938,
      "latitude": 44.753271
    },
    {
      "id": "_17",
      "label": "Исидора Благојевића",
      "longitude": 20.556336,
      "latitude": 44.752563
    },
    {
      "id": "_18",
      "label": "Калуђерица",
      "longitude": 20.560661,
      "latitude": 44.752228
    }
  ],
  "direction_b": [
    {
      "id": "_1",
      "label": "Калуђерица",
      "longitude": 20.560661,
      "latitude": 44.752228
    },
    {
      "id": "_2",
      "label": "Исидора Благојевића",
      "longitude": 20.556013,
      "latitude": 44.752439
    },
    {
      "id": "_3",
      "label": "Калуђерица /Центар/",
      "longitude": 20.554039,
      "latitude": 44.753214
    },
    {
      "id": "_4",
      "label": "Радисава Игњатовића",
      "longitude": 20.552309,
      "latitude": 44.756708
    },
    {
      "id": "_5",
      "label": "Жељка Миливојевића",
      "longitude": 20.551222,
      "latitude": 44.759307
    },
    {
      "id": "_6",
      "label": "Степе Степановића",
      "longitude": 20.549646,
      "latitude": 44.76267
    },
    {
      "id": "_7",
      "label": "Копаоничка",
      "longitude": 20.554368,
      "latitude": 44.764422
    },
    {
      "id": "_8",
      "label": "Дом здравља",
      "longitude": 20.555959,
      "latitude": 44.76515
    },
    {
      "id": "_9",
      "label": "Пут за Калуђерицу",
      "longitude": 20.560508,
      "latitude": 44.767865
    },
    {
      "id": "_10",
      "label": "Ново Насеље",
      "longitude": 20.553489,
      "latitude": 44.773034
    },
    {
      "id": "_11",
      "label": "Нине Кирсанове",
      "longitude": 20.548267,
      "latitude": 44.776339
    },
    {
      "id": "_12",
      "label": "Пиранделова",
      "longitude": 20.539289,
      "latitude": 44.776858
    },
    {
      "id": "_13",
      "label": "ОШ Драгојло Дудић",
      "longitude": 20.533626,
      "latitude": 44.77618
    },
    {
      "id": "_14",
      "label": "Миријевска",
      "longitude": 20.529104,
      "latitude": 44.778136
    },
    {
      "id": "_15",
      "label": "Бајдина",
      "longitude": 20.523552,
      "latitude": 44.781097
    },
    {
      "id": "_16",
      "label": "Косте Трифковића",
      "longitude": 20.515961,
      "latitude": 44.789267
    },
    {
      "id": "_17",
      "label": "Мите Ружића",
      "longitude": 20.512963,
      "latitude": 44.790948
    },
    {
      "id": "_18",
      "label": "Звездара /Пијаца/",
      "longitude": 20.504402,
      "latitude": 44.793792
    }
  ]
}