{
  "direction_a": [
    {
      "id": "_1",
      "label": "Zvezdara (pijaca)",
      "longitude": 20.5044894009958,
      "latitude": 44.7940379887817
    },
    {
      "id": "_2",
      "label": "Koste Trifkovića",
      "longitude": 20.5162784323904,
      "latitude": 44.7886255365273
    },
    {
      "id": "_3",
      "label": "Ustanička",
      "longitude": 20.5211262691793,
      "latitude": 44.7837068972296
    },
    {
      "id": "_4",
      "label": "Bajdina",
      "longitude": 20.525773951973,
      "latitude": 44.7793703939793
    },
    {
      "id": "_5",
      "label": "Mirijevska",
      "longitude": 20.5298996603957,
      "latitude": 44.7776288417081
    },
    {
      "id": "_6",
      "label": "OŠ Dragojlo Dudić",
      "longitude": 20.534610090852,
      "latitude": 44.7754161330401
    },
    {
      "id": "_7",
      "label": "Pirandelova",
      "longitude": 20.5404161759326,
      "latitude": 44.7771296376794
    },
    {
      "id": "_8",
      "label": "Nine Kirsanove",
      "longitude": 20.5480874884963,
      "latitude": 44.7762529223648
    },
    {
      "id": "_9",
      "label": "Novo naselje",
      "longitude": 20.5540902297077,
      "latitude": 44.7724749593316
    },
    {
      "id": "_10",
      "label": "Put za Kaluđericu",
      "longitude": 20.5604030358932,
      "latitude": 44.7676827109783
    },
    {
      "id": "_11",
      "label": "Dom zdravlja",
      "longitude": 20.5581799641879,
      "latitude": 44.7656348731446
    },
    {
      "id": "_12",
      "label": "Kopaonička",
      "longitude": 20.5543278654,
      "latitude": 44.7645292400694
    },
    {
      "id": "_13",
      "label": "Stepe Stepanovića",
      "longitude": 20.549597044686,
      "latitude": 44.7623994793297
    },
    {
      "id": "_14",
      "label": "Željka Milivojevića",
      "longitude": 20.5511759233513,
      "latitude": 44.7591334032409
    },
    {
      "id": "_15",
      "label": "Radisava Ignjatovića",
      "longitude": 20.5518519675989,
      "latitude": 44.7569617371373
    },
    {
      "id": "_16",
      "label": "Kaluđerica (centar)",
      "longitude": 20.5539437281283,
      "latitude": 44.7533160358844
    },
    {
      "id": "_17",
      "label": "Isidora Blagojevića",
      "longitude": 20.5564068359211,
      "latitude": 44.7526182047271
    },
    {
      "id": "_18",
      "label": "Kaluđerica",
      "longitude": 20.5608895768381,
      "latitude": 44.7520612529481
    }
  ],
  "direction_b": [
    {
      "id": "_1",
      "label": "Kaluđerica",
      "longitude": 20.5608895768381,
      "latitude": 44.7520612529481
    },
    {
      "id": "_2",
      "label": "Isidora Blagojevića",
      "longitude": 20.5559715548546,
      "latitude": 44.7523933323259
    },
    {
      "id": "_3",
      "label": "Kaluđerica (centar)",
      "longitude": 20.5540479517725,
      "latitude": 44.7532300442541
    },
    {
      "id": "_4",
      "label": "Radisava Ignjatovića",
      "longitude": 20.5523748558401,
      "latitude": 44.7566361902494
    },
    {
      "id": "_5",
      "label": "Željka Milivojevića",
      "longitude": 20.5512423847102,
      "latitude": 44.7593604530699
    },
    {
      "id": "_6",
      "label": "Stepe Stepanovića",
      "longitude": 20.5498126715445,
      "latitude": 44.7622851297882
    },
    {
      "id": "_7",
      "label": "Kopaonička",
      "longitude": 20.5543389755068,
      "latitude": 44.7643978890113
    },
    {
      "id": "_8",
      "label": "Dom zdravlja",
      "longitude": 20.5594444857297,
      "latitude": 44.765803522672
    },
    {
      "id": "_9",
      "label": "Put za Kaluđericu",
      "longitude": 20.5604624247003,
      "latitude": 44.7678485307922
    },
    {
      "id": "_10",
      "label": "Novo naselje",
      "longitude": 20.5534572735197,
      "latitude": 44.7729674776248
    },
    {
      "id": "_11",
      "label": "Nine Kirsanove",
      "longitude": 20.5482842677119,
      "latitude": 44.7762950945512
    },
    {
      "id": "_12",
      "label": "Pirandelova",
      "longitude": 20.5392764238933,
      "latitude": 44.7768172851161
    },
    {
      "id": "_13",
      "label": "OŠ Dragojlo Dudić",
      "longitude": 20.5335783691153,
      "latitude": 44.7761373133847
    },
    {
      "id": "_14",
      "label": "Mirijevska",
      "longitude": 20.5289299736302,
      "latitude": 44.7781666423269
    },
    {
      "id": "_15",
      "label": "Bajdina",
      "longitude": 20.5234526159313,
      "latitude": 44.7810887013782
    },
    {
      "id": "_16",
      "label": "Ustanička",
      "longitude": 20.5207501046355,
      "latitude": 44.783964515289
    },
    {
      "id": "_17",
      "label": "Koste Trifkovića",
      "longitude": 20.5159594017901,
      "latitude": 44.7893009589398
    },
    {
      "id": "_18",
      "label": "Zvezdara (pijaca)",
      "longitude": 20.5043645341171,
      "latitude": 44.7938592585572
    }
  ]
}