{
  "direction_a": [
    {
      "id": "_1",
      "label": "Put za Institut",
      "longitude": 20.5643554081088,
      "latitude": 44.7645425089661
    },
    {
      "id": "_2",
      "label": "Filipa Kljajića",
      "longitude": 20.5660517531518,
      "latitude": 44.7623620261194
    },
    {
      "id": "_3",
      "label": "Stara Kaluđerica",
      "longitude": 20.5696466787473,
      "latitude": 44.7592994837846
    },
    {
      "id": "_4",
      "label": "Vojina Jugovića",
      "longitude": 20.5720828537665,
      "latitude": 44.7562559155684
    },
    {
      "id": "_5",
      "label": "Cerska",
      "longitude": 20.5690480273616,
      "latitude": 44.7550161242273
    },
    {
      "id": "_6",
      "label": "Rifata Burdževića",
      "longitude": 20.5632106043754,
      "latitude": 44.753621636117
    },
    {
      "id": "_7",
      "label": "Dragoljuba Stojanovića",
      "longitude": 20.5612913614846,
      "latitude": 44.7535513250591
    },
    {
      "id": "_8",
      "label": "Isidora Blagojevića",
      "longitude": 20.5559715548546,
      "latitude": 44.7523933323259
    },
    {
      "id": "_9",
      "label": "Kaluđerica (centar)",
      "longitude": 20.5540479517725,
      "latitude": 44.7532300442541
    },
    {
      "id": "_10",
      "label": "Radisava Ignjatovića",
      "longitude": 20.5523748558401,
      "latitude": 44.7566361902494
    },
    {
      "id": "_11",
      "label": "Kaluđerica (Višnjićeva)",
      "longitude": 20.5532699373546,
      "latitude": 44.7553743293723
    }
  ],
  "direction_b": [
    {
      "id": "_1",
      "label": "Kaluđerica (Višnjićeva)",
      "longitude": 20.5532699373546,
      "latitude": 44.7553743293723
    },
    {
      "id": "_2",
      "label": "Kaluđerica (centar)",
      "longitude": 20.5539437281283,
      "latitude": 44.7533160358844
    },
    {
      "id": "_3",
      "label": "Isidora Blagojevića",
      "longitude": 20.5564068359211,
      "latitude": 44.7526182047271
    },
    {
      "id": "_4",
      "label": "Dragoljuba Stojanovića",
      "longitude": 20.5613928389806,
      "latitude": 44.7534932150555
    },
    {
      "id": "_5",
      "label": "Rifata Burdževića",
      "longitude": 20.5634767377215,
      "latitude": 44.7535011528956
    },
    {
      "id": "_6",
      "label": "Meše Selimovića",
      "longitude": 20.5692578155055,
      "latitude": 44.7531179918429
    },
    {
      "id": "_7",
      "label": "Cerska",
      "longitude": 20.5691287929663,
      "latitude": 44.7551964194695
    },
    {
      "id": "_8",
      "label": "Vojina Jugovića",
      "longitude": 20.5723672995845,
      "latitude": 44.7562209762192
    },
    {
      "id": "_9",
      "label": "Stara Kaluđerica",
      "longitude": 20.5690651482041,
      "latitude": 44.7597076860465
    },
    {
      "id": "_10",
      "label": "Filipa Kljajića",
      "longitude": 20.5658614548905,
      "latitude": 44.7628112872914
    },
    {
      "id": "_11",
      "label": "Kaluđerica (Put za institut)",
      "longitude": 20.564012967488,
      "latitude": 44.7654006715727
    }
  ]
}