{
  "direction_a": [
    {
      "id": "_1",
      "label": "Шумице Терминус",
      "longitude": 20.500787,
      "latitude": 44.783994
    },
    {
      "id": "_2",
      "label": "Шумице",
      "longitude": 20.502268,
      "latitude": 44.783154
    },
    {
      "id": "_3",
      "label": "Петрињска",
      "longitude": 20.50716,
      "latitude": 44.782581
    },
    {
      "id": "_4",
      "label": "Коњарник",
      "longitude": 20.511114,
      "latitude": 44.782083
    },
    {
      "id": "_5",
      "label": "ОШ Десанка Максимовић",
      "longitude": 20.517166,
      "latitude": 44.782414
    },
    {
      "id": "_6",
      "label": "Првомајска",
      "longitude": 20.519956,
      "latitude": 44.781415
    },
    {
      "id": "_7",
      "label": "Маге Магазиновић",
      "longitude": 20.519424,
      "latitude": 44.778719
    },
    {
      "id": "_8",
      "label": "Босанска",
      "longitude": 20.519647,
      "latitude": 44.776161
    },
    {
      "id": "_9",
      "label": "Коларска",
      "longitude": 20.523239,
      "latitude": 44.774064
    },
    {
      "id": "_10",
      "label": "20. Октобра",
      "longitude": 20.526141,
      "latitude": 44.774675
    },
    {
      "id": "_11",
      "label": "Мали Мокри Луг /Црква/",
      "longitude": 20.531009,
      "latitude": 44.774049
    }
  ],
  "direction_b": [
    {
      "id": "_1",
      "label": "Мали Мокри Луг /Црква/",
      "longitude": 20.531009,
      "latitude": 44.774049
    },
    {
      "id": "_2",
      "label": "Народног Фронта",
      "longitude": 20.52915,
      "latitude": 44.777219
    },
    {
      "id": "_3",
      "label": "Пијаца ММЛ",
      "longitude": 20.521611,
      "latitude": 44.782282
    },
    {
      "id": "_4",
      "label": "ОШ Десанка Максимовић",
      "longitude": 20.51675,
      "latitude": 44.782402
    },
    {
      "id": "_5",
      "label": "Коњарник",
      "longitude": 20.510946,
      "latitude": 44.782343
    },
    {
      "id": "_6",
      "label": "Петрињска",
      "longitude": 20.505783,
      "latitude": 44.782979
    },
    {
      "id": "_7",
      "label": "Шумице Терминус",
      "longitude": 20.500787,
      "latitude": 44.783994
    }
  ]
}