{
  "direction_a": [
    {
      "id": "_1",
      "label": "Ustanička",
      "longitude": 20.5173408468032,
      "latitude": 44.78486458983
    },
    {
      "id": "_2",
      "label": "Bajdina",
      "longitude": 20.525773951973,
      "latitude": 44.7793703939793
    },
    {
      "id": "_3",
      "label": "Mirijevska",
      "longitude": 20.5298996603957,
      "latitude": 44.7776288417081
    },
    {
      "id": "_4",
      "label": "OŠ Dragojlo Dudić",
      "longitude": 20.534610090852,
      "latitude": 44.7754161330401
    },
    {
      "id": "_5",
      "label": "Pirandelova",
      "longitude": 20.5404161759326,
      "latitude": 44.7771296376794
    },
    {
      "id": "_6",
      "label": "Nine Kirsanove",
      "longitude": 20.5480874884963,
      "latitude": 44.7762529223648
    },
    {
      "id": "_7",
      "label": "Novo naselje",
      "longitude": 20.5540902297077,
      "latitude": 44.7724749593316
    },
    {
      "id": "_8",
      "label": "Put za Kaluđericu",
      "longitude": 20.5604030358932,
      "latitude": 44.7676827109783
    },
    {
      "id": "_9",
      "label": "Put za Institut",
      "longitude": 20.5643554081088,
      "latitude": 44.7645425089661
    },
    {
      "id": "_10",
      "label": "Filipa Kljajića",
      "longitude": 20.5660517531518,
      "latitude": 44.7623620261194
    },
    {
      "id": "_11",
      "label": "Stara Kaluđerica",
      "longitude": 20.5696466787473,
      "latitude": 44.7592994837846
    },
    {
      "id": "_12",
      "label": "Čardak",
      "longitude": 20.5759198835739,
      "latitude": 44.7564519348523
    },
    {
      "id": "_13",
      "label": "Hotel Radmilovac",
      "longitude": 20.5807793173361,
      "latitude": 44.7537590836894
    },
    {
      "id": "_14",
      "label": "Petra Kočića",
      "longitude": 20.5839089990382,
      "latitude": 44.7509337792772
    },
    {
      "id": "_15",
      "label": "Dušana Petrovića Šaneta",
      "longitude": 20.5877762855893,
      "latitude": 44.7484116235288
    },
    {
      "id": "_16",
      "label": "Zdravstvena stanica Leštane i Vinča",
      "longitude": 20.5963566493273,
      "latitude": 44.7450870192719
    },
    {
      "id": "_17",
      "label": "Prvomajska",
      "longitude": 20.5936905559371,
      "latitude": 44.7427683187727
    },
    {
      "id": "_18",
      "label": "Privredna zona",
      "longitude": 20.5907890455882,
      "latitude": 44.7405585126546
    },
    {
      "id": "_19",
      "label": "Miodraga Pešića",
      "longitude": 20.5874055410053,
      "latitude": 44.7383307030577
    },
    {
      "id": "_20",
      "label": "OŠ Nikola Tesla",
      "longitude": 20.5810443462142,
      "latitude": 44.7344378390096
    },
    {
      "id": "_21",
      "label": "Leštane",
      "longitude": 20.57539749252,
      "latitude": 44.7303474678706
    },
    {
      "id": "_22",
      "label": "Leštane (izlaz)",
      "longitude": 20.5757805831376,
      "latitude": 44.7280125722643
    },
    {
      "id": "_23",
      "label": "Ravan (ulaz)",
      "longitude": 20.5765487775687,
      "latitude": 44.7258374884181
    },
    {
      "id": "_24",
      "label": "Kremenje",
      "longitude": 20.5783385526832,
      "latitude": 44.722733786845
    },
    {
      "id": "_25",
      "label": "Leštane (Ravan)",
      "longitude": 20.5830138620044,
      "latitude": 44.7196045646347
    }
  ],
  "direction_b": [
    {
      "id": "_1",
      "label": "Leštane (Ravan)",
      "longitude": 20.5830138620044,
      "latitude": 44.7196045646347
    },
    {
      "id": "_2",
      "label": "Kremenje",
      "longitude": 20.5784362456918,
      "latitude": 44.7228403413823
    },
    {
      "id": "_3",
      "label": "Ravan (ulaz)",
      "longitude": 20.5766537726605,
      "latitude": 44.7259818699111
    },
    {
      "id": "_4",
      "label": "Leštane (ulaz)",
      "longitude": 20.5758661804926,
      "latitude": 44.7283944737615
    },
    {
      "id": "_5",
      "label": "Leštane (centar)",
      "longitude": 20.5757236542739,
      "latitude": 44.7306348617674
    },
    {
      "id": "_6",
      "label": "OŠ Nikola Tesla",
      "longitude": 20.5807404490384,
      "latitude": 44.7342081394875
    },
    {
      "id": "_7",
      "label": "Miodraga Pešića",
      "longitude": 20.5885491419157,
      "latitude": 44.7391015728142
    },
    {
      "id": "_8",
      "label": "Privredna zona",
      "longitude": 20.5913781207391,
      "latitude": 44.7408269980215
    },
    {
      "id": "_9",
      "label": "Prvomajska",
      "longitude": 20.5943624078917,
      "latitude": 44.7431234777556
    },
    {
      "id": "_10",
      "label": "Zdravstvena stanica Leštane i Vinča",
      "longitude": 20.5972741950904,
      "latitude": 44.7460783975069
    },
    {
      "id": "_11",
      "label": "Dušana Petrovića Šaneta",
      "longitude": 20.5867063635104,
      "latitude": 44.7489819565803
    },
    {
      "id": "_12",
      "label": "Petra Kočića",
      "longitude": 20.5837554331597,
      "latitude": 44.7512158112213
    },
    {
      "id": "_13",
      "label": "Hotel Radmilovac",
      "longitude": 20.5812719621827,
      "latitude": 44.753397295478
    },
    {
      "id": "_14",
      "label": "Čardak",
      "longitude": 20.5755914667119,
      "latitude": 44.756801707084
    },
    {
      "id": "_15",
      "label": "Stara Kaluđerica",
      "longitude": 20.5690651482041,
      "latitude": 44.7597076860465
    },
    {
      "id": "_16",
      "label": "Filipa Kljajića",
      "longitude": 20.5658614548905,
      "latitude": 44.7628112872914
    },
    {
      "id": "_17",
      "label": "Put za Institut",
      "longitude": 20.5632938157039,
      "latitude": 44.7656166301699
    },
    {
      "id": "_18",
      "label": "Put za Kaluđericu",
      "longitude": 20.5604624247003,
      "latitude": 44.7678485307922
    },
    {
      "id": "_19",
      "label": "Novo naselje",
      "longitude": 20.5534572735197,
      "latitude": 44.7729674776248
    },
    {
      "id": "_20",
      "label": "Nine Kirsanove",
      "longitude": 20.5482842677119,
      "latitude": 44.7762950945512
    },
    {
      "id": "_21",
      "label": "Pirandelova",
      "longitude": 20.5392764238933,
      "latitude": 44.7768172851161
    },
    {
      "id": "_22",
      "label": "OŠ Dragojlo Dudić",
      "longitude": 20.5335783691153,
      "latitude": 44.7761373133847
    },
    {
      "id": "_23",
      "label": "Mirijevska",
      "longitude": 20.5289299736302,
      "latitude": 44.7781666423269
    },
    {
      "id": "_24",
      "label": "Bajdina",
      "longitude": 20.5234526159313,
      "latitude": 44.7810887013782
    },
    {
      "id": "_25",
      "label": "Ustanička",
      "longitude": 20.5172001841431,
      "latitude": 44.7847596034066
    }
  ]
}