{
  "direction_a": [
    {
      "id": "_1",
      "label": "Устаничка",
      "longitude": 20.517384,
      "latitude": 44.784813
    },
    {
      "id": "_2",
      "label": "Бајдина",
      "longitude": 20.525767,
      "latitude": 44.779394
    },
    {
      "id": "_3",
      "label": "Миријевска",
      "longitude": 20.529854,
      "latitude": 44.777704
    },
    {
      "id": "_4",
      "label": "ОШ Драгојло Дудић",
      "longitude": 20.534686,
      "latitude": 44.775345
    },
    {
      "id": "_5",
      "label": "Нине Кирсанове",
      "longitude": 20.547837,
      "latitude": 44.776352
    },
    {
      "id": "_6",
      "label": "Ново Насеље",
      "longitude": 20.554095,
      "latitude": 44.772432
    },
    {
      "id": "_7",
      "label": "Пут за Калуђерицу",
      "longitude": 20.560379,
      "latitude": 44.76769
    },
    {
      "id": "_8",
      "label": "Пут за Институт",
      "longitude": 20.564336,
      "latitude": 44.764531
    },
    {
      "id": "_9",
      "label": "Филипа Кљајића",
      "longitude": 20.566266,
      "latitude": 44.762054
    },
    {
      "id": "_10",
      "label": "Стара Калуђерица",
      "longitude": 20.569555,
      "latitude": 44.759323
    },
    {
      "id": "_11",
      "label": "Чардак",
      "longitude": 20.575949,
      "latitude": 44.756451
    },
    {
      "id": "_12",
      "label": "Хотел Радмиловац",
      "longitude": 20.580799,
      "latitude": 44.753694
    },
    {
      "id": "_13",
      "label": "Петра Кочића",
      "longitude": 20.583959,
      "latitude": 44.750835
    },
    {
      "id": "_14",
      "label": "Душана Петровића Шанета",
      "longitude": 20.587734,
      "latitude": 44.748383
    },
    {
      "id": "_15",
      "label": "Здравствена ст. Лештане и Винча",
      "longitude": 20.596332,
      "latitude": 44.745063
    },
    {
      "id": "_16",
      "label": "Првомајска",
      "longitude": 20.59403,
      "latitude": 44.742984
    },
    {
      "id": "_17",
      "label": "Привредна зона",
      "longitude": 20.590546,
      "latitude": 44.74034
    },
    {
      "id": "_18",
      "label": "Миодрага Пешића",
      "longitude": 20.58735,
      "latitude": 44.738229
    },
    {
      "id": "_19",
      "label": "ОШ Никола Тесла",
      "longitude": 20.580857,
      "latitude": 44.734346
    },
    {
      "id": "_20",
      "label": "Лештане",
      "longitude": 20.575387,
      "latitude": 44.730477
    },
    {
      "id": "_21",
      "label": "Лештане /Излаз/",
      "longitude": 20.575795,
      "latitude": 44.728054
    },
    {
      "id": "_22",
      "label": "Раван /Улаз/",
      "longitude": 20.576264,
      "latitude": 44.726802
    },
    {
      "id": "_23",
      "label": "Кремење",
      "longitude": 20.578581,
      "latitude": 44.722302
    },
    {
      "id": "_24",
      "label": "Лештане /Раван/",
      "longitude": 20.583073,
      "latitude": 44.719507
    }
  ],
  "direction_b": [
    {
      "id": "_1",
      "label": "Лештане /Раван/",
      "longitude": 20.583073,
      "latitude": 44.719507
    },
    {
      "id": "_2",
      "label": "Кремење",
      "longitude": 20.578659,
      "latitude": 44.722542
    },
    {
      "id": "_3",
      "label": "Раван /Улаз/",
      "longitude": 20.576293,
      "latitude": 44.727022
    },
    {
      "id": "_4",
      "label": "Лештане /Улаз/",
      "longitude": 20.57585,
      "latitude": 44.72839
    },
    {
      "id": "_5",
      "label": "Лештане",
      "longitude": 20.575756,
      "latitude": 44.730695
    },
    {
      "id": "_6",
      "label": "ОШ Никола Тесла",
      "longitude": 20.581142,
      "latitude": 44.734342
    },
    {
      "id": "_7",
      "label": "Миодрага Пешића",
      "longitude": 20.588498,
      "latitude": 44.739076
    },
    {
      "id": "_8",
      "label": "Привредна зона",
      "longitude": 20.591252,
      "latitude": 44.74074
    },
    {
      "id": "_9",
      "label": "Првомајска",
      "longitude": 20.594227,
      "latitude": 44.743004
    },
    {
      "id": "_10",
      "label": "Винча /Млин/",
      "longitude": 20.597281,
      "latitude": 44.746075
    },
    {
      "id": "_11",
      "label": "Душана Петровића Шанета",
      "longitude": 20.587041,
      "latitude": 44.748767
    },
    {
      "id": "_12",
      "label": "Петра Кочића",
      "longitude": 20.583749,
      "latitude": 44.751251
    },
    {
      "id": "_13",
      "label": "Хотел Радмиловац",
      "longitude": 20.5808,
      "latitude": 44.753876
    },
    {
      "id": "_14",
      "label": "Чардак",
      "longitude": 20.575664,
      "latitude": 44.756806
    },
    {
      "id": "_15",
      "label": "Стара Калуђерица",
      "longitude": 20.568655,
      "latitude": 44.759998
    },
    {
      "id": "_16",
      "label": "Филипа Кљајића",
      "longitude": 20.565945,
      "latitude": 44.762791
    },
    {
      "id": "_17",
      "label": "Пут за Институт",
      "longitude": 20.564262,
      "latitude": 44.764928
    },
    {
      "id": "_18",
      "label": "Пут за Калуђерицу",
      "longitude": 20.560508,
      "latitude": 44.767865
    },
    {
      "id": "_19",
      "label": "Ново Насеље",
      "longitude": 20.553489,
      "latitude": 44.773034
    },
    {
      "id": "_20",
      "label": "Нине Кирсанове",
      "longitude": 20.548267,
      "latitude": 44.776339
    },
    {
      "id": "_21",
      "label": "ОШ Драгојло Дудић",
      "longitude": 20.533626,
      "latitude": 44.77618
    },
    {
      "id": "_22",
      "label": "Миријевска",
      "longitude": 20.529104,
      "latitude": 44.778136
    },
    {
      "id": "_23",
      "label": "Бајдина",
      "longitude": 20.523552,
      "latitude": 44.781097
    },
    {
      "id": "_24",
      "label": "Устаничка",
      "longitude": 20.517387,
      "latitude": 44.784693
    },
    {
      "id": "_25",
      "label": "Устаничка",
      "longitude": 20.517384,
      "latitude": 44.784813
    }
  ]
}