{
  "direction_a": [
    {
      "id": "_1",
      "label": "Вуков Споменик",
      "longitude": 20.47948,
      "latitude": 44.804889
    },
    {
      "id": "_2",
      "label": "Далматинска",
      "longitude": 20.480195,
      "latitude": 44.806702
    },
    {
      "id": "_3",
      "label": "Ново Гробље",
      "longitude": 20.4867,
      "latitude": 44.810848
    },
    {
      "id": "_4",
      "label": "Ватрогасна Команда",
      "longitude": 20.488902,
      "latitude": 44.812648
    },
    {
      "id": "_5",
      "label": "Омладински Стадион",
      "longitude": 20.491066,
      "latitude": 44.814554
    },
    {
      "id": "_6",
      "label": "Вука Врчевића",
      "longitude": 20.495489,
      "latitude": 44.817647
    },
    {
      "id": "_7",
      "label": "Војводе Мицка Крстића",
      "longitude": 20.502792,
      "latitude": 44.81758
    },
    {
      "id": "_8",
      "label": "Диљска",
      "longitude": 20.510768,
      "latitude": 44.817341
    },
    {
      "id": "_9",
      "label": "Пут за Аду Хују",
      "longitude": 20.51428,
      "latitude": 44.81741
    },
    {
      "id": "_10",
      "label": "Миријевски булевар",
      "longitude": 20.519635,
      "latitude": 44.817408
    },
    {
      "id": "_11",
      "label": "Роспи Ћуприја",
      "longitude": 20.523596,
      "latitude": 44.818061
    },
    {
      "id": "_12",
      "label": "Марина",
      "longitude": 20.526453,
      "latitude": 44.818749
    },
    {
      "id": "_13",
      "label": "ФК Бања",
      "longitude": 20.531412,
      "latitude": 44.819901
    },
    {
      "id": "_14",
      "label": "Вишњичка Бања",
      "longitude": 20.536754,
      "latitude": 44.821487
    },
    {
      "id": "_15",
      "label": "Деспотовачка",
      "longitude": 20.541345,
      "latitude": 44.824556
    },
    {
      "id": "_16",
      "label": "Ловачка",
      "longitude": 20.543972,
      "latitude": 44.827134
    },
    {
      "id": "_17",
      "label": "Вишњица",
      "longitude": 20.548182,
      "latitude": 44.830766
    }
  ],
  "direction_b": [
    {
      "id": "_1",
      "label": "Вишњица",
      "longitude": 20.547602,
      "latitude": 44.830511
    },
    {
      "id": "_2",
      "label": "Ловачка",
      "longitude": 20.544204,
      "latitude": 44.827615
    },
    {
      "id": "_3",
      "label": "Деспотовачка",
      "longitude": 20.541156,
      "latitude": 44.824288
    },
    {
      "id": "_4",
      "label": "Вишњичка Бања",
      "longitude": 20.537292,
      "latitude": 44.821928
    },
    {
      "id": "_5",
      "label": "ФК Бања",
      "longitude": 20.530911,
      "latitude": 44.819874
    },
    {
      "id": "_6",
      "label": "Марина",
      "longitude": 20.526889,
      "latitude": 44.818901
    },
    {
      "id": "_7",
      "label": "Роспи Ћуприја",
      "longitude": 20.521879,
      "latitude": 44.817996
    },
    {
      "id": "_8",
      "label": "Миријевски булевар",
      "longitude": 20.519454,
      "latitude": 44.817722
    },
    {
      "id": "_9",
      "label": "Пут за Аду Хују",
      "longitude": 20.514094,
      "latitude": 44.817643
    },
    {
      "id": "_10",
      "label": "Диљска",
      "longitude": 20.509684,
      "latitude": 44.817686
    },
    {
      "id": "_11",
      "label": "Војводе Мицка Крстића",
      "longitude": 20.502955,
      "latitude": 44.817856
    },
    {
      "id": "_12",
      "label": "Вука Врчевића",
      "longitude": 20.496788,
      "latitude": 44.817933
    },
    {
      "id": "_13",
      "label": "СУП Палилула",
      "longitude": 20.493847,
      "latitude": 44.817223
    },
    {
      "id": "_14",
      "label": "Омладински Стадион",
      "longitude": 20.490454,
      "latitude": 44.814262
    },
    {
      "id": "_15",
      "label": "Ватрогасна Команда",
      "longitude": 20.487953,
      "latitude": 44.812082
    },
    {
      "id": "_16",
      "label": "Ново Гробље",
      "longitude": 20.484837,
      "latitude": 44.809874
    },
    {
      "id": "_17",
      "label": "Далматинска",
      "longitude": 20.480474,
      "latitude": 44.807116
    },
    {
      "id": "_18",
      "label": "Вуков Споменик",
      "longitude": 20.47948,
      "latitude": 44.804889
    }
  ]
}