{
  "direction_a": [
    {
      "id": "_1",
      "label": "Vukov spomenik",
      "longitude": 20.4795425077127,
      "latitude": 44.8048044295645
    },
    {
      "id": "_2",
      "label": "Dalmatinska",
      "longitude": 20.4802461581991,
      "latitude": 44.8066957208867
    },
    {
      "id": "_3",
      "label": "Novo groblje",
      "longitude": 20.4866497871415,
      "latitude": 44.8107779308082
    },
    {
      "id": "_4",
      "label": "Vatrogasna komanda",
      "longitude": 20.4889041974732,
      "latitude": 44.8126202954361
    },
    {
      "id": "_5",
      "label": "Omladinski stadion",
      "longitude": 20.4912152864622,
      "latitude": 44.8146482563707
    },
    {
      "id": "_6",
      "label": "Vuka Vrčevića",
      "longitude": 20.4954830533882,
      "latitude": 44.8176369359186
    },
    {
      "id": "_7",
      "label": "Vojvode Micka Krstića",
      "longitude": 20.5028801587146,
      "latitude": 44.8175972135596
    },
    {
      "id": "_8",
      "label": "Diljska",
      "longitude": 20.5109615243617,
      "latitude": 44.8173799386268
    },
    {
      "id": "_9",
      "label": "Put za Adu Huju",
      "longitude": 20.5142866250105,
      "latitude": 44.8174120537577
    },
    {
      "id": "_10",
      "label": "Mirijevski bulevar",
      "longitude": 20.5196727797822,
      "latitude": 44.8174347142419
    },
    {
      "id": "_11",
      "label": "Rospi ćuprija",
      "longitude": 20.523653021203,
      "latitude": 44.8180632636969
    },
    {
      "id": "_12",
      "label": "Marina",
      "longitude": 20.5264545037059,
      "latitude": 44.8187408160903
    },
    {
      "id": "_13",
      "label": "FK Banja",
      "longitude": 20.5314647685216,
      "latitude": 44.8199223068472
    },
    {
      "id": "_14",
      "label": "Višnjička banja",
      "longitude": 20.5368436026984,
      "latitude": 44.8215298415887
    },
    {
      "id": "_15",
      "label": "Despotovačka",
      "longitude": 20.5413630156956,
      "latitude": 44.8247212065633
    },
    {
      "id": "_16",
      "label": "Lovačka",
      "longitude": 20.5439542018543,
      "latitude": 44.8271271933727
    },
    {
      "id": "_17",
      "label": "Višnjica",
      "longitude": 20.5482909788245,
      "latitude": 44.8308179277071
    }
  ],
  "direction_b": [
    {
      "id": "_1",
      "label": "Višnjica",
      "longitude": 20.5476956999385,
      "latitude": 44.8306049967175
    },
    {
      "id": "_2",
      "label": "Lovačka",
      "longitude": 20.544155084588,
      "latitude": 44.8276355627783
    },
    {
      "id": "_3",
      "label": "Despotovačka",
      "longitude": 20.5411133209638,
      "latitude": 44.8243134314258
    },
    {
      "id": "_4",
      "label": "Višnjička banja",
      "longitude": 20.5372603213429,
      "latitude": 44.8219185004947
    },
    {
      "id": "_5",
      "label": "FK Banja",
      "longitude": 20.5306309823071,
      "latitude": 44.8198289065479
    },
    {
      "id": "_6",
      "label": "Marina",
      "longitude": 20.52680215649,
      "latitude": 44.8189042406189
    },
    {
      "id": "_7",
      "label": "Rospi ćuprija",
      "longitude": 20.5218657930662,
      "latitude": 44.8179838388451
    },
    {
      "id": "_8",
      "label": "Mirijevski bulevar",
      "longitude": 20.5193544597331,
      "latitude": 44.8177033675796
    },
    {
      "id": "_9",
      "label": "Put za Adu Huju",
      "longitude": 20.5140747872485,
      "latitude": 44.817645144763
    },
    {
      "id": "_10",
      "label": "Diljska",
      "longitude": 20.5096519067719,
      "latitude": 44.8176443378156
    },
    {
      "id": "_11",
      "label": "Vojvode Micka Krstića",
      "longitude": 20.502974019314,
      "latitude": 44.8178586059719
    },
    {
      "id": "_12",
      "label": "Vuka Vrčevića",
      "longitude": 20.4967449953722,
      "latitude": 44.8179214607077
    },
    {
      "id": "_13",
      "label": "SUP Palilula",
      "longitude": 20.4937449077625,
      "latitude": 44.8171541083316
    },
    {
      "id": "_14",
      "label": "Omladinski stadion",
      "longitude": 20.4902263510143,
      "latitude": 44.8140966974399
    },
    {
      "id": "_15",
      "label": "Vatrogasna komanda",
      "longitude": 20.4879102459397,
      "latitude": 44.8120704938242
    },
    {
      "id": "_16",
      "label": "Novo groblje",
      "longitude": 20.4848471309767,
      "latitude": 44.8099022992411
    },
    {
      "id": "_17",
      "label": "Dalmatinska",
      "longitude": 20.480615642886,
      "latitude": 44.8072229663571
    },
    {
      "id": "_18",
      "label": "Vukov spomenik",
      "longitude": 20.4795425077127,
      "latitude": 44.8048044295645
    }
  ]
}