{
  "direction_a": [
    {
      "id": "_1",
      "label": "Novi Beograd (Blok 20)",
      "longitude": 20.4380491650084,
      "latitude": 44.8112605381285
    },
    {
      "id": "_2",
      "label": "Blok 21",
      "longitude": 20.4340503176078,
      "latitude": 44.8137811800735
    },
    {
      "id": "_3",
      "label": "Brankov most",
      "longitude": 20.4526067155746,
      "latitude": 44.8149925584042
    },
    {
      "id": "_4",
      "label": "Zeleni venac",
      "longitude": 20.4568381962374,
      "latitude": 44.8143467033491
    },
    {
      "id": "_5",
      "label": "Dom omladine",
      "longitude": 20.4624699332322,
      "latitude": 44.8153973695586
    },
    {
      "id": "_6",
      "label": "Džordža Vašingtona",
      "longitude": 20.4698685349023,
      "latitude": 44.8168285139703
    },
    {
      "id": "_7",
      "label": "Cvijićeva",
      "longitude": 20.4775075852578,
      "latitude": 44.8171515332769
    },
    {
      "id": "_8",
      "label": "Centar za kulturu Vlada Divljan",
      "longitude": 20.4830256257873,
      "latitude": 44.8174105100631
    },
    {
      "id": "_9",
      "label": "Pančevački most",
      "longitude": 20.4885015962284,
      "latitude": 44.8178580225643
    },
    {
      "id": "_10",
      "label": "Vuka Vrčevića",
      "longitude": 20.4954830533882,
      "latitude": 44.8176369359186
    },
    {
      "id": "_11",
      "label": "Vojvode Micka Krstića",
      "longitude": 20.5028801587146,
      "latitude": 44.8175972135596
    },
    {
      "id": "_12",
      "label": "Diljska",
      "longitude": 20.5109615243617,
      "latitude": 44.8173799386268
    },
    {
      "id": "_13",
      "label": "Put za Adu Huju",
      "longitude": 20.5142866250105,
      "latitude": 44.8174120537577
    },
    {
      "id": "_14",
      "label": "Mirijevski bulevar",
      "longitude": 20.5196727797822,
      "latitude": 44.8174347142419
    },
    {
      "id": "_15",
      "label": "Rospi ćuprija",
      "longitude": 20.5230954184101,
      "latitude": 44.8176001737516
    },
    {
      "id": "_16",
      "label": "Trudbenička",
      "longitude": 20.5284316669652,
      "latitude": 44.8156711182624
    },
    {
      "id": "_17",
      "label": "Višnjička banja",
      "longitude": 20.5326527621815,
      "latitude": 44.8155893811077
    },
    {
      "id": "_18",
      "label": "Toplana",
      "longitude": 20.5371520280417,
      "latitude": 44.8145510604222
    },
    {
      "id": "_19",
      "label": "Novo naselje",
      "longitude": 20.5418996400027,
      "latitude": 44.8134235579533
    },
    {
      "id": "_20",
      "label": "Lešće",
      "longitude": 20.543774803355,
      "latitude": 44.8116257178208
    },
    {
      "id": "_21",
      "label": "Lešće (groblje)",
      "longitude": 20.5468381569559,
      "latitude": 44.8101619235177
    }
  ],
  "direction_b": [
    {
      "id": "_1",
      "label": "Lešće (groblje)",
      "longitude": 20.5468381569559,
      "latitude": 44.8101619235177
    },
    {
      "id": "_2",
      "label": "Lešće",
      "longitude": 20.542805277794,
      "latitude": 44.8124084207708
    },
    {
      "id": "_3",
      "label": "Novo naselje",
      "longitude": 20.5414187661415,
      "latitude": 44.8137996187271
    },
    {
      "id": "_4",
      "label": "Toplana",
      "longitude": 20.5365779282551,
      "latitude": 44.8148799274388
    },
    {
      "id": "_5",
      "label": "Višnjika banja",
      "longitude": 20.5319963250262,
      "latitude": 44.8157756974849
    },
    {
      "id": "_6",
      "label": "Trudbenička",
      "longitude": 20.5270544898722,
      "latitude": 44.8161730269356
    },
    {
      "id": "_7",
      "label": "Rospi ćuprija",
      "longitude": 20.5218657930662,
      "latitude": 44.8179838388451
    },
    {
      "id": "_8",
      "label": "Mirijevski bulevar",
      "longitude": 20.5193544597331,
      "latitude": 44.8177033675796
    },
    {
      "id": "_9",
      "label": "Put za Adu Huju",
      "longitude": 20.5140747872485,
      "latitude": 44.817645144763
    },
    {
      "id": "_10",
      "label": "Diljska",
      "longitude": 20.5096519067719,
      "latitude": 44.8176443378156
    },
    {
      "id": "_11",
      "label": "Vojvode Micka Krstića",
      "longitude": 20.502974019314,
      "latitude": 44.8178586059719
    },
    {
      "id": "_12",
      "label": "Vuka Vrčevića",
      "longitude": 20.4967449953722,
      "latitude": 44.8179214607077
    },
    {
      "id": "_13",
      "label": "Pančevački most",
      "longitude": 20.4880669667056,
      "latitude": 44.8181080712324
    },
    {
      "id": "_14",
      "label": "Centar za kulturu Vlada Divljan",
      "longitude": 20.4847907935109,
      "latitude": 44.8176884331184
    },
    {
      "id": "_15",
      "label": "Jovana Avakumovića",
      "longitude": 20.4794960488007,
      "latitude": 44.8173405594268
    },
    {
      "id": "_16",
      "label": "Cvijićeva",
      "longitude": 20.4759899695334,
      "latitude": 44.817189611341
    },
    {
      "id": "_17",
      "label": "Džordža Vašingtona",
      "longitude": 20.4700243278074,
      "latitude": 44.8169372277923
    },
    {
      "id": "_18",
      "label": "Skadarska",
      "longitude": 20.4637812526913,
      "latitude": 44.8166112403289
    },
    {
      "id": "_19",
      "label": "Zeleni venac",
      "longitude": 20.4568371536344,
      "latitude": 44.8144582924763
    },
    {
      "id": "_20",
      "label": "Brankov most",
      "longitude": 20.4522002771838,
      "latitude": 44.8151886080544
    },
    {
      "id": "_21",
      "label": "Šest kaplara",
      "longitude": 20.4349985848582,
      "latitude": 44.8153391715752
    },
    {
      "id": "_22",
      "label": "Novi Beograd (Blok 20)",
      "longitude": 20.438749165206,
      "latitude": 44.8115117131936
    }
  ]
}