{
  "direction_a": [
    {
      "id": "_1",
      "label": "Блок 20",
      "longitude": 20.437915,
      "latitude": 44.811142
    },
    {
      "id": "_2",
      "label": "Блок 21",
      "longitude": 20.433838,
      "latitude": 44.813579
    },
    {
      "id": "_3",
      "label": "Бранков мост",
      "longitude": 20.452631,
      "latitude": 44.814962
    },
    {
      "id": "_4",
      "label": "Зелени венац",
      "longitude": 20.456666,
      "latitude": 44.814357
    },
    {
      "id": "_5",
      "label": "Дом Омладине",
      "longitude": 20.462522,
      "latitude": 44.815372
    },
    {
      "id": "_6",
      "label": "Џорџа Вашингтона",
      "longitude": 20.469867,
      "latitude": 44.816793
    },
    {
      "id": "_7",
      "label": "Цвијићева",
      "longitude": 20.477542,
      "latitude": 44.817127
    },
    {
      "id": "_8",
      "label": "Центар за Културу Влада Дивљан",
      "longitude": 20.483095,
      "latitude": 44.817383
    },
    {
      "id": "_9",
      "label": "Панчевачки мост",
      "longitude": 20.488276,
      "latitude": 44.81785
    },
    {
      "id": "_10",
      "label": "Вука Врчевића",
      "longitude": 20.495489,
      "latitude": 44.817647
    },
    {
      "id": "_11",
      "label": "Војводе Мицка Крстића",
      "longitude": 20.502792,
      "latitude": 44.81758
    },
    {
      "id": "_12",
      "label": "Диљска",
      "longitude": 20.510768,
      "latitude": 44.817341
    },
    {
      "id": "_13",
      "label": "Пут за Аду Хују",
      "longitude": 20.51428,
      "latitude": 44.81741
    },
    {
      "id": "_14",
      "label": "Миријевски булевар",
      "longitude": 20.519635,
      "latitude": 44.817408
    },
    {
      "id": "_15",
      "label": "Роспи Ћуприја",
      "longitude": 20.523064,
      "latitude": 44.817622
    },
    {
      "id": "_16",
      "label": "Трудбеничка",
      "longitude": 20.528393,
      "latitude": 44.815664
    },
    {
      "id": "_17",
      "label": "Вишњичка Бања",
      "longitude": 20.532628,
      "latitude": 44.8156
    },
    {
      "id": "_18",
      "label": "Топлана",
      "longitude": 20.537285,
      "latitude": 44.814511
    },
    {
      "id": "_19",
      "label": "Ново Насеље",
      "longitude": 20.541585,
      "latitude": 44.81359
    },
    {
      "id": "_20",
      "label": "Лешће",
      "longitude": 20.543758,
      "latitude": 44.811644
    },
    {
      "id": "_21",
      "label": "Лешће /Гробље/",
      "longitude": 20.546732,
      "latitude": 44.810163
    }
  ],
  "direction_b": [
    {
      "id": "_1",
      "label": "Лешће /Гробље/",
      "longitude": 20.546732,
      "latitude": 44.810163
    },
    {
      "id": "_2",
      "label": "Лешће",
      "longitude": 20.542843,
      "latitude": 44.812315
    },
    {
      "id": "_3",
      "label": "Ново Насеље",
      "longitude": 20.541179,
      "latitude": 44.813881
    },
    {
      "id": "_4",
      "label": "Топлана",
      "longitude": 20.536616,
      "latitude": 44.814865
    },
    {
      "id": "_5",
      "label": "Вишњичка Бања",
      "longitude": 20.532033,
      "latitude": 44.815776
    },
    {
      "id": "_6",
      "label": "Трудбеничка",
      "longitude": 20.526989,
      "latitude": 44.8162
    },
    {
      "id": "_7",
      "label": "Роспи Ћуприја",
      "longitude": 20.521879,
      "latitude": 44.817996
    },
    {
      "id": "_8",
      "label": "Миријевски булевар",
      "longitude": 20.519454,
      "latitude": 44.817722
    },
    {
      "id": "_9",
      "label": "Пут за Аду Хују",
      "longitude": 20.514094,
      "latitude": 44.817643
    },
    {
      "id": "_10",
      "label": "Диљска",
      "longitude": 20.509684,
      "latitude": 44.817686
    },
    {
      "id": "_11",
      "label": "Војводе Мицка Крстића",
      "longitude": 20.502955,
      "latitude": 44.817856
    },
    {
      "id": "_12",
      "label": "Вука Врчевића",
      "longitude": 20.496788,
      "latitude": 44.817933
    },
    {
      "id": "_13",
      "label": "Панчевачки мост",
      "longitude": 20.488213,
      "latitude": 44.81811
    },
    {
      "id": "_14",
      "label": "Центар за Културу Влада Дивљан",
      "longitude": 20.484569,
      "latitude": 44.817701
    },
    {
      "id": "_15",
      "label": "Jована Авакумовића",
      "longitude": 20.479492,
      "latitude": 44.817376
    },
    {
      "id": "_16",
      "label": "Цвијићева",
      "longitude": 20.475941,
      "latitude": 44.817221
    },
    {
      "id": "_17",
      "label": "Џорџа Вашингтона",
      "longitude": 20.469985,
      "latitude": 44.816963
    },
    {
      "id": "_18",
      "label": "Скадарска",
      "longitude": 20.463735,
      "latitude": 44.816621
    },
    {
      "id": "_19",
      "label": "Зелени венац",
      "longitude": 20.457023,
      "latitude": 44.814487
    },
    {
      "id": "_20",
      "label": "Бранков мост",
      "longitude": 20.452342,
      "latitude": 44.815215
    },
    {
      "id": "_21",
      "label": "Шест Каплара",
      "longitude": 20.435174,
      "latitude": 44.815521
    },
    {
      "id": "_22",
      "label": "Блок 20",
      "longitude": 20.43852,
      "latitude": 44.811253
    },
    {
      "id": "_23",
      "label": "Блок 20",
      "longitude": 20.437915,
      "latitude": 44.811142
    }
  ]
}