{
  "direction_a": [
    {
      "id": "_1",
      "label": "Железничка станица Београд Центар",
      "longitude": 20.452828,
      "latitude": 44.793324
    },
    {
      "id": "_2",
      "label": "Ортопедски завод",
      "longitude": 20.44875,
      "latitude": 44.795071
    },
    {
      "id": "_3",
      "label": "Мостар",
      "longitude": 20.44927,
      "latitude": 44.798762
    },
    {
      "id": "_4",
      "label": "ТЦ Галериja",
      "longitude": 20.446516,
      "latitude": 44.801717
    },
    {
      "id": "_5",
      "label": "Кула Београд",
      "longitude": 20.449181,
      "latitude": 44.803316
    },
    {
      "id": "_6",
      "label": "БАС",
      "longitude": 20.45325,
      "latitude": 44.810376
    },
    {
      "id": "_7",
      "label": "Савски трг",
      "longitude": 20.457707,
      "latitude": 44.807165
    },
    {
      "id": "_8",
      "label": "Кнеза Милоша",
      "longitude": 20.460619,
      "latitude": 44.805382
    },
    {
      "id": "_9",
      "label": "Трг Славија /Немањина/",
      "longitude": 20.464392,
      "latitude": 44.803074
    },
    {
      "id": "_10",
      "label": "Трг Славија /Булевар Ослобођења/",
      "longitude": 20.466047,
      "latitude": 44.801404
    },
    {
      "id": "_11",
      "label": "Карађорђев парк",
      "longitude": 20.465237,
      "latitude": 44.797099
    },
    {
      "id": "_12",
      "label": "Франше Д'Епереа",
      "longitude": 20.466405,
      "latitude": 44.792679
    },
    {
      "id": "_13",
      "label": "Трг Ослобођења",
      "longitude": 20.463844,
      "latitude": 44.787847
    },
    {
      "id": "_14",
      "label": "Кнеза Алекстандра Карађорђевића булевар",
      "longitude": 20.455919,
      "latitude": 44.7898
    },
    {
      "id": "_15",
      "label": "Гучевска",
      "longitude": 20.45798,
      "latitude": 44.792471
    }
  ],
  "direction_b": []
}