{
  "direction_a": [
    {
      "id": "_1",
      "label": "Železnička stanica BGD centar",
      "longitude": 20.4539804454148,
      "latitude": 44.7925740557622
    },
    {
      "id": "_2",
      "label": "Gučevska",
      "longitude": 20.4580126416515,
      "latitude": 44.7925211767222
    },
    {
      "id": "_3",
      "label": "Bulevar kneza Aleksandra Karađorđevića",
      "longitude": 20.4560364486608,
      "latitude": 44.7900369467188
    },
    {
      "id": "_4",
      "label": "Dinarska",
      "longitude": 20.4630243271085,
      "latitude": 44.7876741781154
    },
    {
      "id": "_5",
      "label": "Franše D'Eperea",
      "longitude": 20.4666800433672,
      "latitude": 44.7928101762883
    },
    {
      "id": "_6",
      "label": "Karađorđev park",
      "longitude": 20.4657590648182,
      "latitude": 44.7982550256383
    },
    {
      "id": "_7",
      "label": "Trg Slavija (Bulevar oslobođenja)",
      "longitude": 20.4664336279974,
      "latitude": 44.8017635811315
    },
    {
      "id": "_8",
      "label": "Trg Slavija (Nemanjina)",
      "longitude": 20.4645643189521,
      "latitude": 44.8032487975536
    },
    {
      "id": "_9",
      "label": "Kneza Miloša",
      "longitude": 20.461314907081,
      "latitude": 44.8052350860987
    },
    {
      "id": "_10",
      "label": "Savski trg",
      "longitude": 20.4551155399825,
      "latitude": 44.8071299145412
    },
    {
      "id": "_11",
      "label": "Palata pravde",
      "longitude": 20.4528657838574,
      "latitude": 44.8043923494829
    },
    {
      "id": "_12",
      "label": "Mostar",
      "longitude": 20.4488893135074,
      "latitude": 44.7982104318979
    },
    {
      "id": "_13",
      "label": "Ortopedski zavod",
      "longitude": 20.449645218621,
      "latitude": 44.7931293143198
    },
    {
      "id": "_14",
      "label": "Železnička stanica BGD centar",
      "longitude": 20.4539804454148,
      "latitude": 44.7925740557622
    }
  ],
  "direction_b": [
    {
      "id": "_1",
      "label": "Železnička stanica BGD centar",
      "longitude": 20.4543971451321,
      "latitude": 44.7926138361431
    },
    {
      "id": "_2",
      "label": "Ortopedski zavod",
      "longitude": 20.4487869469579,
      "latitude": 44.7951410939727
    },
    {
      "id": "_3",
      "label": "Mostar",
      "longitude": 20.4492660247473,
      "latitude": 44.7987396141814
    },
    {
      "id": "_4",
      "label": "TC Galerija",
      "longitude": 20.4461890099644,
      "latitude": 44.8014426648003
    },
    {
      "id": "_5",
      "label": "Kula Beograd",
      "longitude": 20.4490089204697,
      "latitude": 44.8031967529456
    },
    {
      "id": "_6",
      "label": "Savski trg",
      "longitude": 20.4578441127691,
      "latitude": 44.8070780430471
    },
    {
      "id": "_7",
      "label": "Kneza Miloša",
      "longitude": 20.4606080823449,
      "latitude": 44.8053901574623
    },
    {
      "id": "_8",
      "label": "Trg Slavija (Nemanjina)",
      "longitude": 20.4645567418167,
      "latitude": 44.8029733763053
    },
    {
      "id": "_9",
      "label": "Trg Slavija (Bulevar oslobođenja)",
      "longitude": 20.4660196131815,
      "latitude": 44.8014232725427
    },
    {
      "id": "_10",
      "label": "Karađorđev park",
      "longitude": 20.4651954172747,
      "latitude": 44.7970276562542
    },
    {
      "id": "_11",
      "label": "Franše D'Eperea",
      "longitude": 20.466428073984,
      "latitude": 44.7927226092191
    },
    {
      "id": "_12",
      "label": "Dinarska",
      "longitude": 20.4598269282814,
      "latitude": 44.7876861693489
    },
    {
      "id": "_13",
      "label": "Bulevar kneza Aleksandra Karađorđevića",
      "longitude": 20.4559346728239,
      "latitude": 44.7898384738614
    },
    {
      "id": "_14",
      "label": "Gučevska",
      "longitude": 20.4580126416515,
      "latitude": 44.7925211767222
    },
    {
      "id": "_15",
      "label": "Železnička stanica BGD centar",
      "longitude": 20.4543971451321,
      "latitude": 44.7926138361431
    }
  ]
}