{
  "direction_a": [
    {
      "id": "_1",
      "label": "Вождовац",
      "longitude": 20.483671,
      "latitude": 44.761082
    },
    {
      "id": "_2",
      "label": "Баштованска",
      "longitude": 20.476919,
      "latitude": 44.756344
    },
    {
      "id": "_3",
      "label": "Крагујевачких Ђака",
      "longitude": 20.477445,
      "latitude": 44.754155
    },
    {
      "id": "_4",
      "label": "Бањица 2",
      "longitude": 20.479505,
      "latitude": 44.752659
    },
    {
      "id": "_5",
      "label": "Ристе Стефановића",
      "longitude": 20.479556,
      "latitude": 44.750202
    },
    {
      "id": "_6",
      "label": "Воје Радића",
      "longitude": 20.476952,
      "latitude": 44.7468
    },
    {
      "id": "_7",
      "label": "Саве Јовановића",
      "longitude": 20.483254,
      "latitude": 44.742505
    },
    {
      "id": "_8",
      "label": "Јајинци /Дом Здравља/",
      "longitude": 20.486063,
      "latitude": 44.740254
    },
    {
      "id": "_9",
      "label": "Милутина Миланковића",
      "longitude": 20.483879,
      "latitude": 44.735386
    },
    {
      "id": "_10",
      "label": "Кефалониска",
      "longitude": 20.483183,
      "latitude": 44.730499
    },
    {
      "id": "_11",
      "label": "Спомен Парк Јајинци",
      "longitude": 20.486254,
      "latitude": 44.727318
    },
    {
      "id": "_12",
      "label": "Раковица /Спомен чесма/",
      "longitude": 20.494937,
      "latitude": 44.726457
    },
    {
      "id": "_13",
      "label": "Раковица",
      "longitude": 20.498176,
      "latitude": 44.721619
    },
    {
      "id": "_14",
      "label": "Кружни пут",
      "longitude": 20.503997,
      "latitude": 44.718832
    },
    {
      "id": "_15",
      "label": "Бели Поток /Кумбара/",
      "longitude": 20.506052,
      "latitude": 44.710784
    },
    {
      "id": "_16",
      "label": "Бели Поток /Пошта/",
      "longitude": 20.504294,
      "latitude": 44.701261
    },
    {
      "id": "_17",
      "label": "Врх Авала",
      "longitude": 20.501843,
      "latitude": 44.696315
    },
    {
      "id": "_18",
      "label": "Шумарева Кућа",
      "longitude": 20.517958,
      "latitude": 44.68037
    },
    {
      "id": "_19",
      "label": "Пут за Зуце",
      "longitude": 20.533152,
      "latitude": 44.680807
    },
    {
      "id": "_20",
      "label": "Карагачка",
      "longitude": 20.536678,
      "latitude": 44.681065
    },
    {
      "id": "_21",
      "label": "Касарна /Главна улаз/",
      "longitude": 20.54475,
      "latitude": 44.683922
    },
    {
      "id": "_22",
      "label": "Зуце /Улаз/",
      "longitude": 20.547494,
      "latitude": 44.685443
    },
    {
      "id": "_23",
      "label": "Зуце /Продавница/",
      "longitude": 20.552562,
      "latitude": 44.69083
    },
    {
      "id": "_24",
      "label": "Зуце /Амбуланта/",
      "longitude": 20.552807,
      "latitude": 44.694166
    },
    {
      "id": "_25",
      "label": "Зуце /Центар/",
      "longitude": 20.556938,
      "latitude": 44.698889
    },
    {
      "id": "_26",
      "label": "Зуце /Црква/",
      "longitude": 20.552781,
      "latitude": 44.702143
    },
    {
      "id": "_27",
      "label": "Зуце /Брђани 1/",
      "longitude": 20.545195,
      "latitude": 44.7035
    },
    {
      "id": "_28",
      "label": "Зуце /Брђани 2/",
      "longitude": 20.542071,
      "latitude": 44.699541
    },
    {
      "id": "_29",
      "label": "Зуце",
      "longitude": 20.539632,
      "latitude": 44.696706
    }
  ],
  "direction_b": [
    {
      "id": "_1",
      "label": "Зуце",
      "longitude": 20.539927,
      "latitude": 44.696807
    },
    {
      "id": "_2",
      "label": "Зуце /Брђани 2/",
      "longitude": 20.541845,
      "latitude": 44.699185
    },
    {
      "id": "_3",
      "label": "Зуце /Брђани 1/",
      "longitude": 20.545224,
      "latitude": 44.703402
    },
    {
      "id": "_4",
      "label": "Зуце /Црква/",
      "longitude": 20.552789,
      "latitude": 44.70198
    },
    {
      "id": "_5",
      "label": "Зуце /Центар/",
      "longitude": 20.556732,
      "latitude": 44.69896
    },
    {
      "id": "_6",
      "label": "Зуце /Амбуланта/",
      "longitude": 20.552702,
      "latitude": 44.69401
    },
    {
      "id": "_7",
      "label": "Зуце /Продавница/",
      "longitude": 20.552266,
      "latitude": 44.690553
    },
    {
      "id": "_8",
      "label": "Зуце /Улаз/",
      "longitude": 20.54743,
      "latitude": 44.685533
    },
    {
      "id": "_9",
      "label": "Касарна /Главна улаз/",
      "longitude": 20.544376,
      "latitude": 44.683956
    },
    {
      "id": "_10",
      "label": "Карагачка",
      "longitude": 20.535687,
      "latitude": 44.680734
    },
    {
      "id": "_11",
      "label": "Пут за Зуце",
      "longitude": 20.533014,
      "latitude": 44.680894
    },
    {
      "id": "_12",
      "label": "Шумарева Кућа",
      "longitude": 20.518545,
      "latitude": 44.68037
    },
    {
      "id": "_13",
      "label": "Врх Авала",
      "longitude": 20.502041,
      "latitude": 44.696571
    },
    {
      "id": "_14",
      "label": "Бели Поток /Пошта/",
      "longitude": 20.504817,
      "latitude": 44.701636
    },
    {
      "id": "_15",
      "label": "Бели Поток /Кумбара/",
      "longitude": 20.50627,
      "latitude": 44.710732
    },
    {
      "id": "_16",
      "label": "Кружни пут",
      "longitude": 20.504136,
      "latitude": 44.719281
    },
    {
      "id": "_17",
      "label": "Раковица",
      "longitude": 20.497496,
      "latitude": 44.721935
    },
    {
      "id": "_18",
      "label": "Раковица /Спомен чесма/",
      "longitude": 20.494422,
      "latitude": 44.72645
    },
    {
      "id": "_19",
      "label": "Спомен Парк Јајинци",
      "longitude": 20.484364,
      "latitude": 44.729512
    },
    {
      "id": "_20",
      "label": "Милутина Миланковића",
      "longitude": 20.483813,
      "latitude": 44.734982
    },
    {
      "id": "_21",
      "label": "Јајинци /Дом Здравља/",
      "longitude": 20.485296,
      "latitude": 44.741233
    },
    {
      "id": "_22",
      "label": "Саве Јовановића",
      "longitude": 20.483303,
      "latitude": 44.742605
    },
    {
      "id": "_23",
      "label": "Воје Радића",
      "longitude": 20.477345,
      "latitude": 44.74627
    },
    {
      "id": "_24",
      "label": "Ристе Стефановића",
      "longitude": 20.480525,
      "latitude": 44.749952
    },
    {
      "id": "_25",
      "label": "Бањица 2",
      "longitude": 20.480558,
      "latitude": 44.751678
    },
    {
      "id": "_26",
      "label": "Крагујевачких Ђака",
      "longitude": 20.477068,
      "latitude": 44.754789
    },
    {
      "id": "_27",
      "label": "Баштованска",
      "longitude": 20.47722,
      "latitude": 44.756977
    },
    {
      "id": "_28",
      "label": "Паунова",
      "longitude": 20.476934,
      "latitude": 44.760861
    },
    {
      "id": "_29",
      "label": "Вождовац",
      "longitude": 20.483671,
      "latitude": 44.761082
    }
  ]
}