{
  "direction_a": [
    {
      "id": "_1",
      "label": "Voždovac (terminus)",
      "longitude": 20.4835420968788,
      "latitude": 44.7611749431476
    },
    {
      "id": "_2",
      "label": "Baštovanska",
      "longitude": 20.4769166183889,
      "latitude": 44.7563225830384
    },
    {
      "id": "_3",
      "label": "Kragujevačkih đaka",
      "longitude": 20.47754078793,
      "latitude": 44.7540449240459
    },
    {
      "id": "_4",
      "label": "Banjica 2",
      "longitude": 20.4801848027573,
      "latitude": 44.7518628235505
    },
    {
      "id": "_5",
      "label": "Riste Stefanovića",
      "longitude": 20.4793635447923,
      "latitude": 44.7502031706088
    },
    {
      "id": "_6",
      "label": "Voje Radića",
      "longitude": 20.4769384854576,
      "latitude": 44.7468514827878
    },
    {
      "id": "_7",
      "label": "Save Jovanovića",
      "longitude": 20.4834053629237,
      "latitude": 44.7424601556871
    },
    {
      "id": "_8",
      "label": "Jajinci (Dom zdravlja)",
      "longitude": 20.4861169214133,
      "latitude": 44.740265617896
    },
    {
      "id": "_9",
      "label": "Milutina Miljkovića",
      "longitude": 20.4837925403637,
      "latitude": 44.7352423866594
    },
    {
      "id": "_10",
      "label": "Kefalonijska",
      "longitude": 20.4831979569665,
      "latitude": 44.7305292944087
    },
    {
      "id": "_11",
      "label": "Spomen park Jajinci",
      "longitude": 20.4862998309397,
      "latitude": 44.7272439461864
    },
    {
      "id": "_12",
      "label": "Rakovica selo (spomen česma)",
      "longitude": 20.4950647856393,
      "latitude": 44.7265286685876
    },
    {
      "id": "_13",
      "label": "Rakovica selo",
      "longitude": 20.4982911274066,
      "latitude": 44.7215840013829
    },
    {
      "id": "_14",
      "label": "Kružni put",
      "longitude": 20.5039882966384,
      "latitude": 44.7187198665143
    },
    {
      "id": "_15",
      "label": "1000 ruža",
      "longitude": 20.5039537379587,
      "latitude": 44.7165715533773
    },
    {
      "id": "_16",
      "label": "Beli potok (Kumbara)",
      "longitude": 20.5060446317841,
      "latitude": 44.710800016954
    },
    {
      "id": "_17",
      "label": "Put za Beli potok",
      "longitude": 20.5086364464305,
      "latitude": 44.7063598943117
    },
    {
      "id": "_18",
      "label": "Pošta",
      "longitude": 20.5043084320204,
      "latitude": 44.7012384604296
    },
    {
      "id": "_19",
      "label": "Avala",
      "longitude": 20.5018191701087,
      "latitude": 44.6963102467437
    },
    {
      "id": "_20",
      "label": "Šumareva kuća",
      "longitude": 20.5180962401562,
      "latitude": 44.6803602265222
    },
    {
      "id": "_21",
      "label": "Put za Zuce",
      "longitude": 20.5332093467389,
      "latitude": 44.6808222493774
    },
    {
      "id": "_22",
      "label": "Karagačka",
      "longitude": 20.5368674459572,
      "latitude": 44.681144851766
    },
    {
      "id": "_23",
      "label": "Kasarna (glavni ulaz)",
      "longitude": 20.5449031253027,
      "latitude": 44.6840154911779
    },
    {
      "id": "_24",
      "label": "Zuce (ulaz)",
      "longitude": 20.5474633959695,
      "latitude": 44.6853917661688
    },
    {
      "id": "_25",
      "label": "Zuce (prodavnica)",
      "longitude": 20.5526512163115,
      "latitude": 44.6909397174942
    },
    {
      "id": "_26",
      "label": "Zuce (ambulanta)",
      "longitude": 20.5528354002187,
      "latitude": 44.6942397296049
    },
    {
      "id": "_27",
      "label": "Zuce (centar)",
      "longitude": 20.556866899736,
      "latitude": 44.6990233984592
    },
    {
      "id": "_28",
      "label": "Zuce (crkva)",
      "longitude": 20.5527850901564,
      "latitude": 44.702132274608
    },
    {
      "id": "_29",
      "label": "Zuce (Brđani 1)",
      "longitude": 20.5451325405672,
      "latitude": 44.7034881756381
    },
    {
      "id": "_30",
      "label": "Zuce (Brđani 2)",
      "longitude": 20.5419963167513,
      "latitude": 44.6995104437491
    },
    {
      "id": "_31",
      "label": "Zuce",
      "longitude": 20.5400814740229,
      "latitude": 44.6968676777296
    }
  ],
  "direction_b": [
    {
      "id": "_1",
      "label": "Zuce",
      "longitude": 20.5400814740229,
      "latitude": 44.6968676777296
    },
    {
      "id": "_2",
      "label": "Zuce (Brđani 2)",
      "longitude": 20.5423310931022,
      "latitude": 44.6996215747364
    },
    {
      "id": "_3",
      "label": "Zuce (Brđani 1)",
      "longitude": 20.5453345111277,
      "latitude": 44.7034799756894
    },
    {
      "id": "_4",
      "label": "Zuce (crkva)",
      "longitude": 20.5527735325768,
      "latitude": 44.7019936342508
    },
    {
      "id": "_5",
      "label": "Zuce (centar)",
      "longitude": 20.5568330714084,
      "latitude": 44.6988252744741
    },
    {
      "id": "_6",
      "label": "Zuce (ambulanta)",
      "longitude": 20.5526594954421,
      "latitude": 44.6941436477108
    },
    {
      "id": "_7",
      "label": "Zuce (prodavnica)",
      "longitude": 20.5521978657307,
      "latitude": 44.6905005646915
    },
    {
      "id": "_8",
      "label": "Zuce (ulaz)",
      "longitude": 20.547446962172,
      "latitude": 44.6855590962901
    },
    {
      "id": "_9",
      "label": "Kasarna (glavni ulaz)",
      "longitude": 20.5443939322687,
      "latitude": 44.6839576740068
    },
    {
      "id": "_10",
      "label": "Karagačka",
      "longitude": 20.535616782973,
      "latitude": 44.6807420129083
    },
    {
      "id": "_11",
      "label": "Put za Zuce",
      "longitude": 20.5329359529599,
      "latitude": 44.6809381342143
    },
    {
      "id": "_12",
      "label": "Šumareva kuća",
      "longitude": 20.5183758344286,
      "latitude": 44.6804135981769
    },
    {
      "id": "_13",
      "label": "Avala",
      "longitude": 20.502043577643,
      "latitude": 44.696628010097
    },
    {
      "id": "_14",
      "label": "Pošta",
      "longitude": 20.5048371509229,
      "latitude": 44.7016853273796
    },
    {
      "id": "_15",
      "label": "Put za Beli potok",
      "longitude": 20.5085820784282,
      "latitude": 44.7074216250521
    },
    {
      "id": "_16",
      "label": "Beli potok (Kumbara)",
      "longitude": 20.5062572465612,
      "latitude": 44.7107307340769
    },
    {
      "id": "_17",
      "label": "1000 ruža",
      "longitude": 20.504123244111,
      "latitude": 44.7164953146469
    },
    {
      "id": "_18",
      "label": "Kružni put",
      "longitude": 20.504162221515,
      "latitude": 44.7190482059349
    },
    {
      "id": "_19",
      "label": "Rakovica selo",
      "longitude": 20.4975661062226,
      "latitude": 44.7219300172401
    },
    {
      "id": "_20",
      "label": "Rakovica selo (spomen česma)",
      "longitude": 20.4944744021448,
      "latitude": 44.7264792717087
    },
    {
      "id": "_21",
      "label": "Spomen park Jajinci",
      "longitude": 20.4842999484184,
      "latitude": 44.7295496892026
    },
    {
      "id": "_22",
      "label": "Milutina Miljkovića",
      "longitude": 20.4839292788514,
      "latitude": 44.7351998032955
    },
    {
      "id": "_23",
      "label": "Jajinci (Dom zdravlja)",
      "longitude": 20.4852827788957,
      "latitude": 44.7412086418607
    },
    {
      "id": "_24",
      "label": "Save Jovanovića",
      "longitude": 20.4832321340049,
      "latitude": 44.7426285689467
    },
    {
      "id": "_25",
      "label": "Voje Radića",
      "longitude": 20.477276790342,
      "latitude": 44.7463040469182
    },
    {
      "id": "_26",
      "label": "Riste Stefanovića",
      "longitude": 20.4801659780458,
      "latitude": 44.7500088163803
    },
    {
      "id": "_27",
      "label": "Banjica 2",
      "longitude": 20.480517163468,
      "latitude": 44.7516987354478
    },
    {
      "id": "_28",
      "label": "Kragujevačkih đaka",
      "longitude": 20.4770363141633,
      "latitude": 44.754807593616
    },
    {
      "id": "_29",
      "label": "Baštovanska",
      "longitude": 20.4772006355453,
      "latitude": 44.7570456461003
    },
    {
      "id": "_30",
      "label": "Paunova",
      "longitude": 20.4769460779112,
      "latitude": 44.7609197174914
    },
    {
      "id": "_31",
      "label": "Voždovac (terminus)",
      "longitude": 20.4835420968788,
      "latitude": 44.7611749431476
    }
  ]
}