{
  "direction_a": [
    {
      "id": "_1",
      "label": "Glumčevo brdo",
      "longitude": 20.4550210329829,
      "latitude": 44.6150996300795
    },
    {
      "id": "_2",
      "label": "Glumčevo brdo 1",
      "longitude": 20.4611971079111,
      "latitude": 44.6176127503912
    },
    {
      "id": "_3",
      "label": "Glumčevo brdo (Gorčinac)",
      "longitude": 20.4661314558633,
      "latitude": 44.618168602965
    },
    {
      "id": "_4",
      "label": "Brđanska",
      "longitude": 20.4687702212404,
      "latitude": 44.6231469522158
    },
    {
      "id": "_5",
      "label": "Nenadovac 1",
      "longitude": 20.4652292873156,
      "latitude": 44.6247846724775
    },
    {
      "id": "_6",
      "label": "Nenadovac 2",
      "longitude": 20.454317786349,
      "latitude": 44.6229567368826
    },
    {
      "id": "_7",
      "label": "Nenadovac 3",
      "longitude": 20.4506100095196,
      "latitude": 44.6216520688547
    },
    {
      "id": "_8",
      "label": "Nenadovac 4",
      "longitude": 20.4439194699454,
      "latitude": 44.6207702537232
    },
    {
      "id": "_9",
      "label": "Nenadovac 5",
      "longitude": 20.4378938456383,
      "latitude": 44.6157549849291
    },
    {
      "id": "_10",
      "label": "Nenadovac 6",
      "longitude": 20.4339062583201,
      "latitude": 44.6122002427774
    },
    {
      "id": "_11",
      "label": "Nenadovac",
      "longitude": 20.4305162076605,
      "latitude": 44.6096941087461
    },
    {
      "id": "_12",
      "label": "Taborište",
      "longitude": 20.4305758132242,
      "latitude": 44.6009753516922
    },
    {
      "id": "_13",
      "label": "Miodraga Vukovića",
      "longitude": 20.429531997024,
      "latitude": 44.5969184296596
    },
    {
      "id": "_14",
      "label": "Srednji kraj",
      "longitude": 20.4287065141927,
      "latitude": 44.5911526076362
    },
    {
      "id": "_15",
      "label": "Karaula",
      "longitude": 20.4287029875432,
      "latitude": 44.5889314216418
    },
    {
      "id": "_16",
      "label": "Barajevo (Miodraga Vukovića)",
      "longitude": 20.4225795367102,
      "latitude": 44.5825504482293
    },
    {
      "id": "_17",
      "label": "Barajevo - centar",
      "longitude": 20.4152699431458,
      "latitude": 44.5780710763609
    },
    {
      "id": "_18",
      "label": "Barajevo AS",
      "longitude": 20.4132950378123,
      "latitude": 44.5801309664163
    },
    {
      "id": "_19",
      "label": "Barajevo - centar",
      "longitude": 20.4155777110895,
      "latitude": 44.5780186454856
    },
    {
      "id": "_20",
      "label": "Barajevo (Miodraga Vukovića)",
      "longitude": 20.4224236942093,
      "latitude": 44.5822634673635
    },
    {
      "id": "_21",
      "label": "Karaula R",
      "longitude": 20.4288297497826,
      "latitude": 44.5888474540336
    },
    {
      "id": "_22",
      "label": "Srednji kraj",
      "longitude": 20.4288502562932,
      "latitude": 44.5919111124122
    },
    {
      "id": "_23",
      "label": "Miodraga Vukovića",
      "longitude": 20.4299417821587,
      "latitude": 44.5972642613805
    },
    {
      "id": "_24",
      "label": "Taborište",
      "longitude": 20.4312143108407,
      "latitude": 44.6013817126611
    },
    {
      "id": "_25",
      "label": "Glumčevo brdo 2",
      "longitude": 20.4340455669944,
      "latitude": 44.6048282584866
    },
    {
      "id": "_26",
      "label": "Glumčevo brdo 3",
      "longitude": 20.4401853837837,
      "latitude": 44.6085537195416
    },
    {
      "id": "_27",
      "label": "Stevančevića kraj",
      "longitude": 20.4444195405892,
      "latitude": 44.6113660523157
    },
    {
      "id": "_28",
      "label": "Glumčevo brdo (Škola)",
      "longitude": 20.4475912740599,
      "latitude": 44.6141155175844
    },
    {
      "id": "_29",
      "label": "Glumčevo brdo",
      "longitude": 20.4550210329829,
      "latitude": 44.6150996300795
    }
  ],
  "direction_b": []
}