{
  "direction_a": [
    {
      "id": "_1",
      "label": "Вождовац",
      "longitude": 20.483671,
      "latitude": 44.761082
    },
    {
      "id": "_2",
      "label": "Баштованска",
      "longitude": 20.476919,
      "latitude": 44.756344
    },
    {
      "id": "_3",
      "label": "Крагујевачких Ђака",
      "longitude": 20.477445,
      "latitude": 44.754155
    },
    {
      "id": "_4",
      "label": "Бањица 2",
      "longitude": 20.479505,
      "latitude": 44.752659
    },
    {
      "id": "_5",
      "label": "Ристе Стефановића",
      "longitude": 20.479556,
      "latitude": 44.750202
    },
    {
      "id": "_6",
      "label": "Воје Радића",
      "longitude": 20.476952,
      "latitude": 44.7468
    },
    {
      "id": "_7",
      "label": "Саве Јовановића",
      "longitude": 20.483254,
      "latitude": 44.742505
    },
    {
      "id": "_8",
      "label": "Јајинци /Дом Здравља/",
      "longitude": 20.486063,
      "latitude": 44.740254
    },
    {
      "id": "_9",
      "label": "Милутина Миланковића",
      "longitude": 20.483879,
      "latitude": 44.735386
    },
    {
      "id": "_10",
      "label": "Кефалониска",
      "longitude": 20.483183,
      "latitude": 44.730499
    },
    {
      "id": "_11",
      "label": "Спомен Парк Јајинци",
      "longitude": 20.486254,
      "latitude": 44.727318
    },
    {
      "id": "_12",
      "label": "Раковица /Спомен чесма/",
      "longitude": 20.494937,
      "latitude": 44.726457
    },
    {
      "id": "_13",
      "label": "Раковица",
      "longitude": 20.498176,
      "latitude": 44.721619
    },
    {
      "id": "_14",
      "label": "Кружни пут",
      "longitude": 20.503997,
      "latitude": 44.718832
    },
    {
      "id": "_15",
      "label": "Бели Поток /Кумбара/",
      "longitude": 20.506052,
      "latitude": 44.710784
    },
    {
      "id": "_16",
      "label": "Бели Поток /Пошта/",
      "longitude": 20.504455,
      "latitude": 44.702166
    },
    {
      "id": "_17",
      "label": "1. Нова",
      "longitude": 20.500716,
      "latitude": 44.702399
    },
    {
      "id": "_18",
      "label": "6. Нова",
      "longitude": 20.495668,
      "latitude": 44.703358
    },
    {
      "id": "_19",
      "label": "Инситут Јарослав Черни",
      "longitude": 20.490749,
      "latitude": 44.704582
    }
  ],
  "direction_b": [
    {
      "id": "_1",
      "label": "Инситут Јарослав Черни",
      "longitude": 20.490749,
      "latitude": 44.704582
    },
    {
      "id": "_2",
      "label": "6. Нова",
      "longitude": 20.495699,
      "latitude": 44.703244
    },
    {
      "id": "_3",
      "label": "1. Нова",
      "longitude": 20.50074,
      "latitude": 44.702324
    },
    {
      "id": "_4",
      "label": "Бели Поток /Пошта/",
      "longitude": 20.504642,
      "latitude": 44.702075
    },
    {
      "id": "_5",
      "label": "Бели Поток /Кумбара/",
      "longitude": 20.50627,
      "latitude": 44.710732
    },
    {
      "id": "_6",
      "label": "Кружни пут",
      "longitude": 20.504136,
      "latitude": 44.719281
    },
    {
      "id": "_7",
      "label": "Раковица",
      "longitude": 20.497496,
      "latitude": 44.721935
    },
    {
      "id": "_8",
      "label": "Раковица /Спомен чесма/",
      "longitude": 20.494422,
      "latitude": 44.72645
    },
    {
      "id": "_9",
      "label": "Спомен Парк Јајинци",
      "longitude": 20.484364,
      "latitude": 44.729512
    },
    {
      "id": "_10",
      "label": "Милутина Миланковића",
      "longitude": 20.483813,
      "latitude": 44.734982
    },
    {
      "id": "_11",
      "label": "Јајинци /Дом Здравља/",
      "longitude": 20.485296,
      "latitude": 44.741233
    },
    {
      "id": "_12",
      "label": "Саве Јовановића",
      "longitude": 20.483303,
      "latitude": 44.742605
    },
    {
      "id": "_13",
      "label": "Воје Радића",
      "longitude": 20.477345,
      "latitude": 44.74627
    },
    {
      "id": "_14",
      "label": "Ристе Стефановића",
      "longitude": 20.480525,
      "latitude": 44.749952
    },
    {
      "id": "_15",
      "label": "Бањица 2",
      "longitude": 20.480558,
      "latitude": 44.751678
    },
    {
      "id": "_16",
      "label": "Крагујевачких Ђака",
      "longitude": 20.477068,
      "latitude": 44.754789
    },
    {
      "id": "_17",
      "label": "Паунова",
      "longitude": 20.476387,
      "latitude": 44.760463
    },
    {
      "id": "_18",
      "label": "Вождовац",
      "longitude": 20.483671,
      "latitude": 44.761082
    }
  ]
}