{
  "direction_a": [
    {
      "id": "_1",
      "label": "Šumice",
      "longitude": 20.5006922421326,
      "latitude": 44.7839825080494
    },
    {
      "id": "_2",
      "label": "Tranšped",
      "longitude": 20.5761749001744,
      "latitude": 44.7038573569876
    },
    {
      "id": "_3",
      "label": "Vrčin (Ivo Lola Ribar)",
      "longitude": 20.5992131251396,
      "latitude": 44.6733137066181
    },
    {
      "id": "_4",
      "label": "Vrčin (pijaca)",
      "longitude": 20.5959358215332,
      "latitude": 44.6716651916504
    },
    {
      "id": "_5",
      "label": "Save Kovačevića",
      "longitude": 20.5942421846942,
      "latitude": 44.6675693767692
    },
    {
      "id": "_6",
      "label": "Vrčin - Centar",
      "longitude": 20.5917612510199,
      "latitude": 44.6634660262375
    },
    {
      "id": "_7",
      "label": "Stadion",
      "longitude": 20.585541123976,
      "latitude": 44.6650055320993
    },
    {
      "id": "_8",
      "label": "Jaričište (pruga)",
      "longitude": 20.577526714257,
      "latitude": 44.6630596814396
    },
    {
      "id": "_9",
      "label": "Jaričište (Petra Kočića)",
      "longitude": 20.5706173746522,
      "latitude": 44.6624644670168
    },
    {
      "id": "_10",
      "label": "Feroplast",
      "longitude": 20.565049041966,
      "latitude": 44.6624988064765
    },
    {
      "id": "_11",
      "label": "Jaričište (Stepe Stepanovića)",
      "longitude": 20.5576622486115,
      "latitude": 44.6609496950558
    },
    {
      "id": "_12",
      "label": "Solinska bara",
      "longitude": 20.5508601485728,
      "latitude": 44.6618616154108
    },
    {
      "id": "_13",
      "label": "Vrčin (Avalski put)",
      "longitude": 20.5439830288618,
      "latitude": 44.6628078606989
    }
  ],
  "direction_b": [
    {
      "id": "_1",
      "label": "Vrčin (Avalski put)",
      "longitude": 20.543950788423,
      "latitude": 44.6626590570197
    },
    {
      "id": "_2",
      "label": "Solinska bara",
      "longitude": 20.55109081598,
      "latitude": 44.6616670227313
    },
    {
      "id": "_3",
      "label": "Jaričište (Stepe Stepanovića)",
      "longitude": 20.5577963231084,
      "latitude": 44.6608237802397
    },
    {
      "id": "_4",
      "label": "Feroplast",
      "longitude": 20.5651295287814,
      "latitude": 44.6623538175082
    },
    {
      "id": "_5",
      "label": "Jaričište (Petra Kočića)",
      "longitude": 20.5702095273625,
      "latitude": 44.66233092448
    },
    {
      "id": "_6",
      "label": "Jaričište (pruga)",
      "longitude": 20.5772370177065,
      "latitude": 44.6628574618404
    },
    {
      "id": "_7",
      "label": "Stadion",
      "longitude": 20.585111957693,
      "latitude": 44.6649635634605
    },
    {
      "id": "_8",
      "label": "Vrčin - Centar",
      "longitude": 20.591533132689,
      "latitude": 44.6634870111028
    },
    {
      "id": "_9",
      "label": "Save Kovačevića",
      "longitude": 20.5944729095017,
      "latitude": 44.6678631433965
    },
    {
      "id": "_10",
      "label": "Vrčin",
      "longitude": 20.5962735405151,
      "latitude": 44.6716078663008
    },
    {
      "id": "_11",
      "label": "Vrčin - Nadvožnjak",
      "longitude": 20.6020554412772,
      "latitude": 44.674142525868
    },
    {
      "id": "_12",
      "label": "Tranšped",
      "longitude": 20.5761749001744,
      "latitude": 44.7038573569876
    },
    {
      "id": "_13",
      "label": "Šumice",
      "longitude": 20.5006922421326,
      "latitude": 44.7839825080494
    }
  ]
}