{
  "direction_a": [
    {
      "id": "_1",
      "label": "Sopot AS",
      "longitude": 20.5770034790039,
      "latitude": 44.5224914550781
    },
    {
      "id": "_2",
      "label": "Pijaca",
      "longitude": 20.5839693546295,
      "latitude": 44.5262193409697
    },
    {
      "id": "_3",
      "label": "Vojska",
      "longitude": 20.5929332971573,
      "latitude": 44.5270588022565
    },
    {
      "id": "_4",
      "label": "Đurinci - Železnička stanica",
      "longitude": 20.6103139858925,
      "latitude": 44.5235478996063
    },
    {
      "id": "_5",
      "label": "Đurinci - Izlaz",
      "longitude": 20.6236713739461,
      "latitude": 44.5158790158857
    },
    {
      "id": "_6",
      "label": "Trnava",
      "longitude": 20.6455045733042,
      "latitude": 44.4995663730619
    },
    {
      "id": "_7",
      "label": "Mali Požarevac - Naplatna rampa",
      "longitude": 20.6691616902011,
      "latitude": 44.5614146999564
    },
    {
      "id": "_8",
      "label": "Franše D'Eperea",
      "longitude": 20.4682170383353,
      "latitude": 44.7908590058077
    },
    {
      "id": "_9",
      "label": "Palata pravde 1",
      "longitude": 20.451327814778,
      "latitude": 44.8034058554644
    },
    {
      "id": "_10",
      "label": "BAS",
      "longitude": 20.4543059627735,
      "latitude": 44.8101721002059
    }
  ],
  "direction_b": [
    {
      "id": "_1",
      "label": "BAS",
      "longitude": 20.4543059627735,
      "latitude": 44.8101721002059
    },
    {
      "id": "_2",
      "label": "Palata pravde 1",
      "longitude": 20.4515238525443,
      "latitude": 44.8029928139838
    },
    {
      "id": "_3",
      "label": "Autokomanda",
      "longitude": 20.467342376709,
      "latitude": 44.7908630371094
    },
    {
      "id": "_4",
      "label": "Mali Požarevac - Naplatna rampa",
      "longitude": 20.669016822665,
      "latitude": 44.5614758541819
    },
    {
      "id": "_5",
      "label": "Trnava",
      "longitude": 20.6452632515366,
      "latitude": 44.4999183825857
    },
    {
      "id": "_6",
      "label": "Đurinci - Izlaz",
      "longitude": 20.6237626486645,
      "latitude": 44.5160320209401
    },
    {
      "id": "_7",
      "label": "Đurinci - Železnička stanica",
      "longitude": 20.6110757306847,
      "latitude": 44.5234675823642
    },
    {
      "id": "_8",
      "label": "Vojska",
      "longitude": 20.5937218306539,
      "latitude": 44.5272461974296
    },
    {
      "id": "_9",
      "label": "Pijaca",
      "longitude": 20.5827650016918,
      "latitude": 44.5262040431575
    },
    {
      "id": "_10",
      "label": "Sopot AS",
      "longitude": 20.5768077628232,
      "latitude": 44.5224253604906
    }
  ]
}