{
  "direction_a": [
    {
      "id": "_1",
      "label": "Voždovac (terminus)",
      "longitude": 20.4835420968788,
      "latitude": 44.7611749431476
    },
    {
      "id": "_2",
      "label": "Baštovanska",
      "longitude": 20.4769166183889,
      "latitude": 44.7563225830384
    },
    {
      "id": "_3",
      "label": "Riste Stefanovića",
      "longitude": 20.4793635447923,
      "latitude": 44.7502031706088
    },
    {
      "id": "_4",
      "label": "Jajinci (Dom zdravlja)",
      "longitude": 20.4861169214133,
      "latitude": 44.740265617896
    },
    {
      "id": "_5",
      "label": "Kefalonijska",
      "longitude": 20.4831979569665,
      "latitude": 44.7305292944087
    },
    {
      "id": "_6",
      "label": "Rakovica selo (spomen česma)",
      "longitude": 20.4950647856393,
      "latitude": 44.7265286685876
    },
    {
      "id": "_7",
      "label": "Rakovica selo",
      "longitude": 20.4982911274066,
      "latitude": 44.7215840013829
    },
    {
      "id": "_8",
      "label": "Beli potok (Kumbara)",
      "longitude": 20.5060446317841,
      "latitude": 44.710800016954
    },
    {
      "id": "_9",
      "label": "Avala",
      "longitude": 20.5018191701087,
      "latitude": 44.6963102467437
    },
    {
      "id": "_10",
      "label": "Šumareva kuća",
      "longitude": 20.5180962401562,
      "latitude": 44.6803602265222
    },
    {
      "id": "_11",
      "label": "Put za Zuce",
      "longitude": 20.5329492080462,
      "latitude": 44.6805421999326
    },
    {
      "id": "_12",
      "label": "Đurđevdan",
      "longitude": 20.5395705359939,
      "latitude": 44.6742781225901
    },
    {
      "id": "_13",
      "label": "Kapija Šumadije",
      "longitude": 20.5418833962195,
      "latitude": 44.6701348896609
    },
    {
      "id": "_14",
      "label": "Raskrnica-Vrčin",
      "longitude": 20.5433869682786,
      "latitude": 44.6626746813631
    },
    {
      "id": "_15",
      "label": "Rasadnik",
      "longitude": 20.5500907295608,
      "latitude": 44.6551161348796
    },
    {
      "id": "_16",
      "label": "Prnjavor (ulaz)",
      "longitude": 20.5537583597234,
      "latitude": 44.6477056257911
    },
    {
      "id": "_17",
      "label": "Srednji prnjavor",
      "longitude": 20.5518285122638,
      "latitude": 44.6412452633069
    },
    {
      "id": "_18",
      "label": "Prnjavor (škola)",
      "longitude": 20.5542056498527,
      "latitude": 44.6323429110284
    },
    {
      "id": "_19",
      "label": "Trešnja",
      "longitude": 20.5552822818384,
      "latitude": 44.6206869213394
    },
    {
      "id": "_20",
      "label": "Avalski cvet",
      "longitude": 20.5563664478914,
      "latitude": 44.6149672213049
    },
    {
      "id": "_21",
      "label": "Trešnja (okretnica)",
      "longitude": 20.5559977762364,
      "latitude": 44.6084139129647
    },
    {
      "id": "_22",
      "label": "Trešnja (Koviona)",
      "longitude": 20.5676555842814,
      "latitude": 44.5969187660806
    },
    {
      "id": "_23",
      "label": "13. oktobra",
      "longitude": 20.5647944739098,
      "latitude": 44.5842595404062
    },
    {
      "id": "_24",
      "label": "Livnica",
      "longitude": 20.5654212644231,
      "latitude": 44.5771664004468
    },
    {
      "id": "_25",
      "label": "Ralja (centar)",
      "longitude": 20.558158278845,
      "latitude": 44.5738249325549
    },
    {
      "id": "_26",
      "label": "Parcani - Most",
      "longitude": 20.54128074646,
      "latitude": 44.5728378295898
    },
    {
      "id": "_27",
      "label": "Parcani - Raskrsnica",
      "longitude": 20.5328732703277,
      "latitude": 44.5693986048341
    },
    {
      "id": "_28",
      "label": "Parcani - Dom",
      "longitude": 20.5260765462636,
      "latitude": 44.5675508238779
    },
    {
      "id": "_29",
      "label": "Parcani (Braće Jovanović)",
      "longitude": 20.5212807578291,
      "latitude": 44.565531000296
    },
    {
      "id": "_30",
      "label": "Groblje (Parcani)",
      "longitude": 20.5184483656543,
      "latitude": 44.5632149005637
    },
    {
      "id": "_31",
      "label": "Parcani - Okretnica",
      "longitude": 20.5134461190331,
      "latitude": 44.5651105930031
    }
  ],
  "direction_b": [
    {
      "id": "_1",
      "label": "Parcani - Okretnica",
      "longitude": 20.5131670588662,
      "latitude": 44.5651449900775
    },
    {
      "id": "_2",
      "label": "Groblje (Parcani)",
      "longitude": 20.5183678647142,
      "latitude": 44.5630945067198
    },
    {
      "id": "_3",
      "label": "Parcani (Braće Jovanović)",
      "longitude": 20.520881174173,
      "latitude": 44.5650589973533
    },
    {
      "id": "_4",
      "label": "Parcani - Dom",
      "longitude": 20.5262884471961,
      "latitude": 44.5675584673533
    },
    {
      "id": "_5",
      "label": "Parcani - Raskrsnica",
      "longitude": 20.5328357322421,
      "latitude": 44.5692457399709
    },
    {
      "id": "_6",
      "label": "Parcani - Most",
      "longitude": 20.5416655566147,
      "latitude": 44.5727271376105
    },
    {
      "id": "_7",
      "label": "Ralja (centar)",
      "longitude": 20.5585003134765,
      "latitude": 44.5738838470156
    },
    {
      "id": "_8",
      "label": "13. oktobra",
      "longitude": 20.5655043825102,
      "latitude": 44.5860082047514
    },
    {
      "id": "_9",
      "label": "Trešnja (Koviona)",
      "longitude": 20.5680040218179,
      "latitude": 44.5964700836117
    },
    {
      "id": "_10",
      "label": "Trešnja (škola)",
      "longitude": 20.5561326082456,
      "latitude": 44.6089094255517
    },
    {
      "id": "_11",
      "label": "Avalski cvet",
      "longitude": 20.5566013046247,
      "latitude": 44.6149015293374
    },
    {
      "id": "_12",
      "label": "Trešnja",
      "longitude": 20.5555556014075,
      "latitude": 44.6208697757036
    },
    {
      "id": "_13",
      "label": "Prnjavor (škola)",
      "longitude": 20.5544229482028,
      "latitude": 44.6322753556379
    },
    {
      "id": "_14",
      "label": "Srednji prnjavor",
      "longitude": 20.5520437249662,
      "latitude": 44.6411255056078
    },
    {
      "id": "_15",
      "label": "Prnjavor (ulaz)",
      "longitude": 20.5539025065363,
      "latitude": 44.6469880029181
    },
    {
      "id": "_16",
      "label": "Rasadnik",
      "longitude": 20.5498526324036,
      "latitude": 44.65623657347
    },
    {
      "id": "_17",
      "label": "Raskrnica-Vrčin",
      "longitude": 20.5433439187103,
      "latitude": 44.6630201009772
    },
    {
      "id": "_18",
      "label": "Kapija Šumadije",
      "longitude": 20.5421001733403,
      "latitude": 44.6704759446688
    },
    {
      "id": "_19",
      "label": "Đurđevdan",
      "longitude": 20.5390251470769,
      "latitude": 44.6749833143366
    },
    {
      "id": "_20",
      "label": "Put za Zuce",
      "longitude": 20.5330315962401,
      "latitude": 44.6806505317814
    },
    {
      "id": "_21",
      "label": "Šumareva kuća",
      "longitude": 20.5183758344286,
      "latitude": 44.6804135981769
    },
    {
      "id": "_22",
      "label": "Avala",
      "longitude": 20.502043577643,
      "latitude": 44.696628010097
    },
    {
      "id": "_23",
      "label": "Beli potok (Kumbara)",
      "longitude": 20.5062572465612,
      "latitude": 44.7107307340769
    },
    {
      "id": "_24",
      "label": "Rakovica selo",
      "longitude": 20.4975661062226,
      "latitude": 44.7219300172401
    },
    {
      "id": "_25",
      "label": "Rakovica selo (spomen česma)",
      "longitude": 20.4944744021448,
      "latitude": 44.7264792717087
    },
    {
      "id": "_26",
      "label": "Spomen park Jajinci",
      "longitude": 20.4842999484184,
      "latitude": 44.7295496892026
    },
    {
      "id": "_27",
      "label": "Jajinci (Dom zdravlja)",
      "longitude": 20.4852827788957,
      "latitude": 44.7412086418607
    },
    {
      "id": "_28",
      "label": "Riste Stefanovića",
      "longitude": 20.4801659780458,
      "latitude": 44.7500088163803
    },
    {
      "id": "_29",
      "label": "Baštovanska",
      "longitude": 20.4772006355453,
      "latitude": 44.7570456461003
    },
    {
      "id": "_30",
      "label": "Trošarina",
      "longitude": 20.4829546641654,
      "latitude": 44.7613177802674
    }
  ]
}