{
  "direction_a": [
    {
      "id": "_1",
      "label": "BAS",
      "longitude": 20.4543059627735,
      "latitude": 44.8101721002059
    },
    {
      "id": "_2",
      "label": "Palata pravde 1",
      "longitude": 20.4515238525443,
      "latitude": 44.8029928139838
    },
    {
      "id": "_3",
      "label": "Trg Slavija (Nemanjina)",
      "longitude": 20.4645643189521,
      "latitude": 44.8032487975536
    },
    {
      "id": "_4",
      "label": "Autokomanda",
      "longitude": 20.467342376709,
      "latitude": 44.7908630371094
    },
    {
      "id": "_5",
      "label": "Mali Požarevac - Naplatna rampa",
      "longitude": 20.669016822665,
      "latitude": 44.5614758541819
    },
    {
      "id": "_6",
      "label": "Stanojevac",
      "longitude": 20.6573062493116,
      "latitude": 44.4911213336866
    },
    {
      "id": "_7",
      "label": "Vlaško polje - Železnička stanica",
      "longitude": 20.6604873517714,
      "latitude": 44.4812742589095
    },
    {
      "id": "_8",
      "label": "Vlaško polje (centar)",
      "longitude": 20.6653743443009,
      "latitude": 44.47439983957
    },
    {
      "id": "_9",
      "label": "Stanoja Bugarskog",
      "longitude": 20.6711533732,
      "latitude": 44.46063573
    },
    {
      "id": "_10",
      "label": "Petar Drapšin",
      "longitude": 20.6867247331957,
      "latitude": 44.4480620969228
    },
    {
      "id": "_11",
      "label": "Mladenovac AS",
      "longitude": 20.6920462792596,
      "latitude": 44.4398317489562
    }
  ],
  "direction_b": []
}