{
  "direction_a": [
    {
      "id": "_1",
      "label": "Petlovo brdo",
      "longitude": 20.4286847062703,
      "latitude": 44.7185028542114
    },
    {
      "id": "_2",
      "label": "Rasinska",
      "longitude": 20.4251124297695,
      "latitude": 44.7203083403243
    },
    {
      "id": "_3",
      "label": "Milorada Draškovića",
      "longitude": 20.4212655631949,
      "latitude": 44.722031332057
    },
    {
      "id": "_4",
      "label": "Generala Zgonjanina",
      "longitude": 20.4232374488839,
      "latitude": 44.7250795500048
    },
    {
      "id": "_5",
      "label": "Jedanaeste krajiške divizije",
      "longitude": 20.4262366618467,
      "latitude": 44.7261277516846
    },
    {
      "id": "_6",
      "label": "Dom zdravlja Labudovo brdo",
      "longitude": 20.4279193277885,
      "latitude": 44.7257545700216
    },
    {
      "id": "_7",
      "label": "Sretena Mladenovića",
      "longitude": 20.4318473568568,
      "latitude": 44.7268486509104
    },
    {
      "id": "_8",
      "label": "17. oktobra",
      "longitude": 20.4278604254983,
      "latitude": 44.7304700959918
    },
    {
      "id": "_9",
      "label": "OŠ 17. oktobar",
      "longitude": 20.4274418888894,
      "latitude": 44.733749280042
    },
    {
      "id": "_10",
      "label": "Slavka Rodića",
      "longitude": 20.4305914732892,
      "latitude": 44.7370354277007
    },
    {
      "id": "_11",
      "label": "Stojana Jankovića",
      "longitude": 20.4329446738964,
      "latitude": 44.741485705631
    },
    {
      "id": "_12",
      "label": "Stevana Lukovića",
      "longitude": 20.4367767794064,
      "latitude": 44.7440010817867
    },
    {
      "id": "_13",
      "label": "Pilota Mihaila Petrovića",
      "longitude": 20.4384605230232,
      "latitude": 44.7448733002016
    },
    {
      "id": "_14",
      "label": "Miška Kranjca",
      "longitude": 20.4421078008058,
      "latitude": 44.7429993718767
    },
    {
      "id": "_15",
      "label": "Ulica Oslobođenja",
      "longitude": 20.4385425050469,
      "latitude": 44.7389861405659
    },
    {
      "id": "_16",
      "label": "Kneževac",
      "longitude": 20.431480993017,
      "latitude": 44.7346423343423
    },
    {
      "id": "_17",
      "label": "Deponija",
      "longitude": 20.4348327832827,
      "latitude": 44.7288235227788
    },
    {
      "id": "_18",
      "label": "Kijevo",
      "longitude": 20.4379855967489,
      "latitude": 44.7252427482934
    },
    {
      "id": "_19",
      "label": "Letićeva",
      "longitude": 20.4370434024829,
      "latitude": 44.72293601507
    },
    {
      "id": "_20",
      "label": "Proleterska (ulaz)",
      "longitude": 20.4350871921707,
      "latitude": 44.7210688679569
    },
    {
      "id": "_21",
      "label": "Železnički most",
      "longitude": 20.4328304030892,
      "latitude": 44.718971609446
    },
    {
      "id": "_22",
      "label": "Stepenice",
      "longitude": 20.4320314870235,
      "latitude": 44.7177958995999
    },
    {
      "id": "_23",
      "label": "Fudbalsko igralište",
      "longitude": 20.4310271002613,
      "latitude": 44.7167253611702
    },
    {
      "id": "_24",
      "label": "Staro Kijevo",
      "longitude": 20.4282042022693,
      "latitude": 44.7152425783036
    }
  ],
  "direction_b": [
    {
      "id": "_1",
      "label": "Staro Kijevo",
      "longitude": 20.4282042022693,
      "latitude": 44.7152425783036
    },
    {
      "id": "_2",
      "label": "Fudbalsko igralište",
      "longitude": 20.430870652101,
      "latitude": 44.7164599946937
    },
    {
      "id": "_3",
      "label": "Stepenice",
      "longitude": 20.4319861191392,
      "latitude": 44.7175292846712
    },
    {
      "id": "_4",
      "label": "Železnički most",
      "longitude": 20.4331252663226,
      "latitude": 44.719023465027
    },
    {
      "id": "_5",
      "label": "Proleterska (ulaz)",
      "longitude": 20.4351537874574,
      "latitude": 44.7209701995305
    },
    {
      "id": "_6",
      "label": "Letićeva",
      "longitude": 20.4372125306137,
      "latitude": 44.7229386448104
    },
    {
      "id": "_7",
      "label": "Kijevo",
      "longitude": 20.4383790905881,
      "latitude": 44.7255434640174
    },
    {
      "id": "_8",
      "label": "Deponija",
      "longitude": 20.434898458415,
      "latitude": 44.7290812364338
    },
    {
      "id": "_9",
      "label": "Kneževac",
      "longitude": 20.4315839089465,
      "latitude": 44.7344466520491
    },
    {
      "id": "_10",
      "label": "Ulica Oslobođenja",
      "longitude": 20.4375793608356,
      "latitude": 44.7385638395998
    },
    {
      "id": "_11",
      "label": "Miška Kranjca",
      "longitude": 20.4427275651333,
      "latitude": 44.7428943883828
    },
    {
      "id": "_12",
      "label": "Pilota Mihaila Petrovića",
      "longitude": 20.4378409308132,
      "latitude": 44.7446956729623
    },
    {
      "id": "_13",
      "label": "Stevana Lukovića",
      "longitude": 20.4350536742186,
      "latitude": 44.7430260487739
    },
    {
      "id": "_14",
      "label": "Stojana Jankovića",
      "longitude": 20.4317895174397,
      "latitude": 44.7408122168528
    },
    {
      "id": "_15",
      "label": "Slavka Rodića",
      "longitude": 20.4301185808786,
      "latitude": 44.7365866971944
    },
    {
      "id": "_16",
      "label": "OŠ 17. oktobar",
      "longitude": 20.4274107571056,
      "latitude": 44.7325485715974
    },
    {
      "id": "_17",
      "label": "17. oktobra",
      "longitude": 20.427698958705,
      "latitude": 44.7301993009799
    },
    {
      "id": "_18",
      "label": "Sretena Mladenovića",
      "longitude": 20.4316971013286,
      "latitude": 44.7267219114382
    },
    {
      "id": "_19",
      "label": "Dom zdravlja Labudovo brdo",
      "longitude": 20.4274115815287,
      "latitude": 44.7260382259198
    },
    {
      "id": "_20",
      "label": "Jedanaeste krajiške divizije",
      "longitude": 20.4258494088084,
      "latitude": 44.72622481033
    },
    {
      "id": "_21",
      "label": "Generala Zgonjanina",
      "longitude": 20.4223723051648,
      "latitude": 44.7247386094468
    },
    {
      "id": "_22",
      "label": "Milorada Draškovića",
      "longitude": 20.4211436439221,
      "latitude": 44.7215969329854
    },
    {
      "id": "_23",
      "label": "Rasinska",
      "longitude": 20.4255159791221,
      "latitude": 44.7200907701323
    },
    {
      "id": "_24",
      "label": "Petlovo brdo",
      "longitude": 20.4286851618675,
      "latitude": 44.7181986675915
    }
  ]
}