{
  "direction_a": [
    {
      "id": "_1",
      "label": "Петлово Брдо",
      "longitude": 20.428657,
      "latitude": 44.718516
    },
    {
      "id": "_2",
      "label": "Расињска",
      "longitude": 20.425177,
      "latitude": 44.720275
    },
    {
      "id": "_3",
      "label": "Милорада Драшковића",
      "longitude": 20.421251,
      "latitude": 44.722325
    },
    {
      "id": "_4",
      "label": "Генерала Згоњанина",
      "longitude": 20.423219,
      "latitude": 44.725073
    },
    {
      "id": "_5",
      "label": "11 Краишке Дивизије",
      "longitude": 20.426235,
      "latitude": 44.7261
    },
    {
      "id": "_6",
      "label": "Дом здравља Лабудово Брдо",
      "longitude": 20.428648,
      "latitude": 44.725546
    },
    {
      "id": "_7",
      "label": "Сретена Младеновића",
      "longitude": 20.431849,
      "latitude": 44.726774
    },
    {
      "id": "_8",
      "label": "17. октобра",
      "longitude": 20.42789,
      "latitude": 44.730362
    },
    {
      "id": "_9",
      "label": "ОШ 14. октобар",
      "longitude": 20.427431,
      "latitude": 44.733597
    },
    {
      "id": "_10",
      "label": "Славка Родића",
      "longitude": 20.430555,
      "latitude": 44.73692
    },
    {
      "id": "_11",
      "label": "Стојана Јанковића",
      "longitude": 20.432865,
      "latitude": 44.741415
    },
    {
      "id": "_12",
      "label": "Стевана Луковића",
      "longitude": 20.435614,
      "latitude": 44.743224
    },
    {
      "id": "_13",
      "label": "Пилота Михајла Петровића",
      "longitude": 20.438447,
      "latitude": 44.744844
    },
    {
      "id": "_14",
      "label": "Мишка Крањца",
      "longitude": 20.442148,
      "latitude": 44.742989
    },
    {
      "id": "_15",
      "label": "Ослобођења",
      "longitude": 20.438615,
      "latitude": 44.739084
    },
    {
      "id": "_16",
      "label": "Кнежевац",
      "longitude": 20.431475,
      "latitude": 44.73467
    },
    {
      "id": "_17",
      "label": "Депонија",
      "longitude": 20.434859,
      "latitude": 44.728864
    },
    {
      "id": "_18",
      "label": "Кијево",
      "longitude": 20.437978,
      "latitude": 44.725173
    },
    {
      "id": "_19",
      "label": "Летићева",
      "longitude": 20.436896,
      "latitude": 44.722565
    },
    {
      "id": "_20",
      "label": "Пролетерска /Улаз/",
      "longitude": 20.435102,
      "latitude": 44.721062
    },
    {
      "id": "_21",
      "label": "Железнички мост",
      "longitude": 20.432674,
      "latitude": 44.718761
    },
    {
      "id": "_22",
      "label": "Фудбалско игралиште",
      "longitude": 20.431102,
      "latitude": 44.716721
    },
    {
      "id": "_23",
      "label": "Старо Кијево",
      "longitude": 20.428208,
      "latitude": 44.715128
    }
  ],
  "direction_b": [
    {
      "id": "_1",
      "label": "Старо Кијево",
      "longitude": 20.428208,
      "latitude": 44.715128
    },
    {
      "id": "_2",
      "label": "Фудбалско игралиште",
      "longitude": 20.430853,
      "latitude": 44.716471
    },
    {
      "id": "_3",
      "label": "Железнички мост",
      "longitude": 20.433076,
      "latitude": 44.718963
    },
    {
      "id": "_4",
      "label": "Пролетерска /Улаз/",
      "longitude": 20.435138,
      "latitude": 44.721006
    },
    {
      "id": "_5",
      "label": "Летићева",
      "longitude": 20.437043,
      "latitude": 44.722634
    },
    {
      "id": "_6",
      "label": "Кијево",
      "longitude": 20.438425,
      "latitude": 44.725452
    },
    {
      "id": "_7",
      "label": "Депонија",
      "longitude": 20.434916,
      "latitude": 44.729034
    },
    {
      "id": "_8",
      "label": "Кнежевац",
      "longitude": 20.431639,
      "latitude": 44.734622
    },
    {
      "id": "_9",
      "label": "Ослобођења",
      "longitude": 20.437452,
      "latitude": 44.738609
    },
    {
      "id": "_10",
      "label": "Мишка Крањца",
      "longitude": 20.442684,
      "latitude": 44.742862
    },
    {
      "id": "_11",
      "label": "Пилота Михајла Петровића",
      "longitude": 20.437885,
      "latitude": 44.744703
    },
    {
      "id": "_12",
      "label": "Стевана Луковића",
      "longitude": 20.43509,
      "latitude": 44.743081
    },
    {
      "id": "_13",
      "label": "Стојана Јанковића",
      "longitude": 20.431971,
      "latitude": 44.74093
    },
    {
      "id": "_14",
      "label": "Славка Родића",
      "longitude": 20.43019,
      "latitude": 44.736602
    },
    {
      "id": "_15",
      "label": "ОШ 14. октобар",
      "longitude": 20.427471,
      "latitude": 44.732482
    },
    {
      "id": "_16",
      "label": "17. октобра",
      "longitude": 20.427731,
      "latitude": 44.730161
    },
    {
      "id": "_17",
      "label": "Сретена Младеновића",
      "longitude": 20.431708,
      "latitude": 44.726796
    },
    {
      "id": "_18",
      "label": "Дом здравља Лабудово Брдо",
      "longitude": 20.428687,
      "latitude": 44.725631
    },
    {
      "id": "_19",
      "label": "11 Краишке Дивизије",
      "longitude": 20.425989,
      "latitude": 44.726205
    },
    {
      "id": "_20",
      "label": "Генерала Згоњанина",
      "longitude": 20.422419,
      "latitude": 44.724738
    },
    {
      "id": "_21",
      "label": "Милорада Драшковића",
      "longitude": 20.421157,
      "latitude": 44.721626
    },
    {
      "id": "_22",
      "label": "Расињска",
      "longitude": 20.425467,
      "latitude": 44.720092
    },
    {
      "id": "_23",
      "label": "Петлово Брдо",
      "longitude": 20.428494,
      "latitude": 44.718281
    },
    {
      "id": "_24",
      "label": "Петлово Брдо",
      "longitude": 20.428657,
      "latitude": 44.718516
    }
  ]
}