{
  "direction_a": [
    {
      "id": "_1",
      "label": "Железничка Станица Ресник",
      "longitude": 20.449657,
      "latitude": 44.704584
    },
    {
      "id": "_2",
      "label": "Ресник /Александра Војиновића/",
      "longitude": 20.45109,
      "latitude": 44.706559
    },
    {
      "id": "_3",
      "label": "Ресник /Милорада Јанковића Доце/",
      "longitude": 20.452941,
      "latitude": 44.710584
    },
    {
      "id": "_4",
      "label": "MZ Resnik",
      "longitude": 20.453618,
      "latitude": 44.712799
    },
    {
      "id": "_5",
      "label": "Vrtić",
      "longitude": 20.452341,
      "latitude": 44.71409
    },
    {
      "id": "_6",
      "label": "Braće Jeremića",
      "longitude": 20.451464,
      "latitude": 44.71521
    },
    {
      "id": "_7",
      "label": "Ресник /Јосипа Теларевића/",
      "longitude": 20.451659,
      "latitude": 44.719097
    },
    {
      "id": "_8",
      "label": "Rađevska",
      "longitude": 20.451116,
      "latitude": 44.720301
    },
    {
      "id": "_9",
      "label": "Ličkih brigada",
      "longitude": 20.450278,
      "latitude": 44.722391
    },
    {
      "id": "_10",
      "label": "Јосипа Теларевића",
      "longitude": 20.448589,
      "latitude": 44.726959
    },
    {
      "id": "_11",
      "label": "Манастир Раковица",
      "longitude": 20.447407,
      "latitude": 44.731308
    },
    {
      "id": "_12",
      "label": "Сервис ДМБ",
      "longitude": 20.445108,
      "latitude": 44.736037
    },
    {
      "id": "_13",
      "label": "Ослобођења",
      "longitude": 20.439095,
      "latitude": 44.738052
    },
    {
      "id": "_14",
      "label": "Кнежевац",
      "longitude": 20.43224,
      "latitude": 44.734358
    }
  ],
  "direction_b": [
    {
      "id": "_1",
      "label": "Кнежевац",
      "longitude": 20.43224,
      "latitude": 44.734358
    },
    {
      "id": "_2",
      "label": "Сервис ДМБ",
      "longitude": 20.444839,
      "latitude": 44.735893
    },
    {
      "id": "_3",
      "label": "Манастир Раковица",
      "longitude": 20.446908,
      "latitude": 44.732276
    },
    {
      "id": "_4",
      "label": "Јосипа Теларевића",
      "longitude": 20.44739,
      "latitude": 44.728093
    },
    {
      "id": "_5",
      "label": "Ličkih brigada",
      "longitude": 20.450199,
      "latitude": 44.722454
    },
    {
      "id": "_6",
      "label": "Rađevska",
      "longitude": 20.451018,
      "latitude": 44.720242
    },
    {
      "id": "_7",
      "label": "Ресник /Јосипа Теларевића/",
      "longitude": 20.451628,
      "latitude": 44.71871
    },
    {
      "id": "_8",
      "label": "Braće Jeremića",
      "longitude": 20.451377,
      "latitude": 44.715171
    },
    {
      "id": "_9",
      "label": "Vrtić",
      "longitude": 20.452289,
      "latitude": 44.714046
    },
    {
      "id": "_10",
      "label": "MZ Resnik",
      "longitude": 20.453546,
      "latitude": 44.712731
    },
    {
      "id": "_11",
      "label": "Ресник /Милорада Јанковића Доце/",
      "longitude": 20.452673,
      "latitude": 44.710599
    },
    {
      "id": "_12",
      "label": "Ресник /Александра Војиновића/",
      "longitude": 20.451309,
      "latitude": 44.706904
    },
    {
      "id": "_13",
      "label": "Железничка Станица Ресник",
      "longitude": 20.449657,
      "latitude": 44.704584
    }
  ]
}