{
  "direction_a": [
    {
      "id": "_1",
      "label": "Зелени венац",
      "longitude": 20.456374,
      "latitude": 44.813913
    },
    {
      "id": "_2",
      "label": "Вазнесењска Црква",
      "longitude": 20.462042,
      "latitude": 44.80796
    },
    {
      "id": "_3",
      "label": "Милоша Поцерца",
      "longitude": 20.455948,
      "latitude": 44.802316
    },
    {
      "id": "_4",
      "label": "Мостар",
      "longitude": 20.44927,
      "latitude": 44.798762
    },
    {
      "id": "_5",
      "label": "Сајам",
      "longitude": 20.441977,
      "latitude": 44.796588
    },
    {
      "id": "_6",
      "label": "Руска",
      "longitude": 20.436034,
      "latitude": 44.795118
    },
    {
      "id": "_7",
      "label": "Кнеза Вишеслава",
      "longitude": 20.421204,
      "latitude": 44.783099
    },
    {
      "id": "_8",
      "label": "Школа Jосиф Панчић",
      "longitude": 20.41738,
      "latitude": 44.781286
    },
    {
      "id": "_9",
      "label": "Дом здравља",
      "longitude": 20.414599,
      "latitude": 44.777834
    },
    {
      "id": "_10",
      "label": "Кијевска",
      "longitude": 20.41357,
      "latitude": 44.775426
    },
    {
      "id": "_11",
      "label": "Требевићка",
      "longitude": 20.414127,
      "latitude": 44.771418
    },
    {
      "id": "_12",
      "label": "Јулино Брдо",
      "longitude": 20.414025,
      "latitude": 44.762507
    },
    {
      "id": "_13",
      "label": "Жарково споменик",
      "longitude": 20.41646,
      "latitude": 44.758657
    },
    {
      "id": "_14",
      "label": "Аце Јоксимовића",
      "longitude": 20.420188,
      "latitude": 44.756602
    },
    {
      "id": "_15",
      "label": "Ратка Митровића",
      "longitude": 20.425133,
      "latitude": 44.752856
    },
    {
      "id": "_16",
      "label": "Шавничка",
      "longitude": 20.423096,
      "latitude": 44.749932
    },
    {
      "id": "_17",
      "label": "Љубице Ивошевић",
      "longitude": 20.420564,
      "latitude": 44.749003
    },
    {
      "id": "_18",
      "label": "Космајска",
      "longitude": 20.416744,
      "latitude": 44.748572
    },
    {
      "id": "_19",
      "label": "Битољска",
      "longitude": 20.41445,
      "latitude": 44.748641
    },
    {
      "id": "_20",
      "label": "Вртић Плава Птица",
      "longitude": 20.412726,
      "latitude": 44.745173
    },
    {
      "id": "_21",
      "label": "Виноградски Венац",
      "longitude": 20.412256,
      "latitude": 44.742891
    },
    {
      "id": "_22",
      "label": "Церски Венац",
      "longitude": 20.414298,
      "latitude": 44.741872
    },
    {
      "id": "_23",
      "label": "Церак Виногради",
      "longitude": 20.41916,
      "latitude": 44.743664
    }
  ],
  "direction_b": [
    {
      "id": "_1",
      "label": "Церак Виногради",
      "longitude": 20.418702,
      "latitude": 44.74366
    },
    {
      "id": "_2",
      "label": "Церски Венац",
      "longitude": 20.41359,
      "latitude": 44.742033
    },
    {
      "id": "_3",
      "label": "Виноградски Венац",
      "longitude": 20.412233,
      "latitude": 44.743303
    },
    {
      "id": "_4",
      "label": "Вртић Плава Птица",
      "longitude": 20.413251,
      "latitude": 44.745859
    },
    {
      "id": "_5",
      "label": "Битољска",
      "longitude": 20.413542,
      "latitude": 44.748645
    },
    {
      "id": "_6",
      "label": "Космајска",
      "longitude": 20.417509,
      "latitude": 44.748507
    },
    {
      "id": "_7",
      "label": "Љубице Ивошевић",
      "longitude": 20.420253,
      "latitude": 44.748834
    },
    {
      "id": "_8",
      "label": "Шавничка",
      "longitude": 20.423881,
      "latitude": 44.750229
    },
    {
      "id": "_9",
      "label": "Ратка Митровића",
      "longitude": 20.424148,
      "latitude": 44.753975
    },
    {
      "id": "_10",
      "label": "Аце Јоксимовића",
      "longitude": 20.419478,
      "latitude": 44.757106
    },
    {
      "id": "_11",
      "label": "Жарково споменик",
      "longitude": 20.415492,
      "latitude": 44.75952
    },
    {
      "id": "_12",
      "label": "Јулино Брдо",
      "longitude": 20.41394,
      "latitude": 44.763668
    },
    {
      "id": "_13",
      "label": "Требевићка",
      "longitude": 20.414341,
      "latitude": 44.771477
    },
    {
      "id": "_14",
      "label": "Кијевска",
      "longitude": 20.413824,
      "latitude": 44.775796
    },
    {
      "id": "_15",
      "label": "Дом здравља",
      "longitude": 20.415907,
      "latitude": 44.77903
    },
    {
      "id": "_16",
      "label": "Школа Jосиф Панчић",
      "longitude": 20.41776,
      "latitude": 44.78145
    },
    {
      "id": "_17",
      "label": "Кировљева",
      "longitude": 20.417994,
      "latitude": 44.784723
    },
    {
      "id": "_18",
      "label": "Ада Циганлија",
      "longitude": 20.419789,
      "latitude": 44.7884
    },
    {
      "id": "_19",
      "label": "Петља Радничка",
      "longitude": 20.426938,
      "latitude": 44.792201
    },
    {
      "id": "_20",
      "label": "Господарска Механа",
      "longitude": 20.433518,
      "latitude": 44.794439
    },
    {
      "id": "_21",
      "label": "Руска",
      "longitude": 20.438101,
      "latitude": 44.79525
    },
    {
      "id": "_22",
      "label": "Сајам",
      "longitude": 20.441902,
      "latitude": 44.796305
    },
    {
      "id": "_23",
      "label": "Дринска",
      "longitude": 20.451825,
      "latitude": 44.800848
    },
    {
      "id": "_24",
      "label": "Милоша Поцерца",
      "longitude": 20.454948,
      "latitude": 44.803463
    },
    {
      "id": "_25",
      "label": "Савски трг",
      "longitude": 20.457679,
      "latitude": 44.807477
    },
    {
      "id": "_26",
      "label": "Каменичка",
      "longitude": 20.456267,
      "latitude": 44.811776
    },
    {
      "id": "_27",
      "label": "Зелени венац",
      "longitude": 20.456374,
      "latitude": 44.813913
    }
  ]
}