{
  "direction_a": [
    {
      "id": "_1",
      "label": "Zeleni venac",
      "longitude": 20.45752636388,
      "latitude": 44.8137649900267
    },
    {
      "id": "_2",
      "label": "Vaznesenjska crkva",
      "longitude": 20.4621321298156,
      "latitude": 44.807904581549
    },
    {
      "id": "_3",
      "label": "Miloša Pocerca",
      "longitude": 20.4560783569759,
      "latitude": 44.8023161310522
    },
    {
      "id": "_4",
      "label": "Mostar",
      "longitude": 20.4492660247473,
      "latitude": 44.7987396141814
    },
    {
      "id": "_5",
      "label": "Sajam",
      "longitude": 20.4415906546322,
      "latitude": 44.7964130286058
    },
    {
      "id": "_6",
      "label": "Ruska",
      "longitude": 20.4359385437038,
      "latitude": 44.795085842923
    },
    {
      "id": "_7",
      "label": "Kneza Višeslava",
      "longitude": 20.4211209252658,
      "latitude": 44.7831002074612
    },
    {
      "id": "_8",
      "label": "Škola Josif Pančić",
      "longitude": 20.4171984049806,
      "latitude": 44.7810968392086
    },
    {
      "id": "_9",
      "label": "Dom zdravlja",
      "longitude": 20.4144724285048,
      "latitude": 44.77774411363
    },
    {
      "id": "_10",
      "label": "Kijevska",
      "longitude": 20.4135459176844,
      "latitude": 44.775395889586
    },
    {
      "id": "_11",
      "label": "Trebevićka",
      "longitude": 20.4140922912439,
      "latitude": 44.7713254696764
    },
    {
      "id": "_12",
      "label": "Julino brdo",
      "longitude": 20.4140163733096,
      "latitude": 44.7625522766069
    },
    {
      "id": "_13",
      "label": "Žarkovo",
      "longitude": 20.4165212303255,
      "latitude": 44.758652017694
    },
    {
      "id": "_14",
      "label": "Ace Joksimovića",
      "longitude": 20.4201565379576,
      "latitude": 44.7566167412008
    },
    {
      "id": "_15",
      "label": "Ratka Mitrovića",
      "longitude": 20.4251148012489,
      "latitude": 44.7528348608567
    },
    {
      "id": "_16",
      "label": "Šavnička",
      "longitude": 20.4231099925993,
      "latitude": 44.7499467176435
    },
    {
      "id": "_17",
      "label": "Ljubice Ivošević",
      "longitude": 20.4205202753437,
      "latitude": 44.7490031032251
    },
    {
      "id": "_18",
      "label": "Kosmajska",
      "longitude": 20.4167079294946,
      "latitude": 44.7485877968197
    },
    {
      "id": "_19",
      "label": "Bitoljska",
      "longitude": 20.4143531579646,
      "latitude": 44.7486603944784
    },
    {
      "id": "_20",
      "label": "Vrtić Plava ptica",
      "longitude": 20.4126761245063,
      "latitude": 44.7451437651422
    },
    {
      "id": "_21",
      "label": "Vinogradski venac",
      "longitude": 20.4122064401792,
      "latitude": 44.7428824517963
    },
    {
      "id": "_22",
      "label": "Cerski venac",
      "longitude": 20.4143432992155,
      "latitude": 44.7418530247932
    },
    {
      "id": "_23",
      "label": "Cerak vinogradi",
      "longitude": 20.4192094497631,
      "latitude": 44.7436758939459
    }
  ],
  "direction_b": [
    {
      "id": "_1",
      "label": "Cerak vinogradi",
      "longitude": 20.4186771895372,
      "latitude": 44.7436120002131
    },
    {
      "id": "_2",
      "label": "Cerski venac",
      "longitude": 20.413550864754,
      "latitude": 44.7420469678873
    },
    {
      "id": "_3",
      "label": "Vinogradski venac",
      "longitude": 20.4122022998383,
      "latitude": 44.7432928138126
    },
    {
      "id": "_4",
      "label": "Vrtić Plava ptica",
      "longitude": 20.413282283799,
      "latitude": 44.7458956364794
    },
    {
      "id": "_5",
      "label": "Bitoljska",
      "longitude": 20.4135602247608,
      "latitude": 44.7486437436635
    },
    {
      "id": "_6",
      "label": "Kosmajska",
      "longitude": 20.4174865550006,
      "latitude": 44.7485197566547
    },
    {
      "id": "_7",
      "label": "Ljubice Ivošević",
      "longitude": 20.4203071144537,
      "latitude": 44.7488490325767
    },
    {
      "id": "_8",
      "label": "Šavnička",
      "longitude": 20.4239374510437,
      "latitude": 44.7503054611489
    },
    {
      "id": "_9",
      "label": "Ratka Mitrovića",
      "longitude": 20.4241310823089,
      "latitude": 44.7539692780426
    },
    {
      "id": "_10",
      "label": "Ace Joksimovića",
      "longitude": 20.4194596900353,
      "latitude": 44.7570865960254
    },
    {
      "id": "_11",
      "label": "Žarkovo",
      "longitude": 20.4154615894523,
      "latitude": 44.7595213843687
    },
    {
      "id": "_12",
      "label": "Julino brdo",
      "longitude": 20.4139046683313,
      "latitude": 44.7636100589606
    },
    {
      "id": "_13",
      "label": "Trebevićka",
      "longitude": 20.4143679959541,
      "latitude": 44.7715482675454
    },
    {
      "id": "_14",
      "label": "Kijevska",
      "longitude": 20.4138574029671,
      "latitude": 44.7758312615877
    },
    {
      "id": "_15",
      "label": "Dom zdravlja",
      "longitude": 20.4159577149361,
      "latitude": 44.7790656243339
    },
    {
      "id": "_16",
      "label": "Škola Josif Pančić",
      "longitude": 20.4177988662816,
      "latitude": 44.7814508718708
    },
    {
      "id": "_17",
      "label": "Kirovljeva",
      "longitude": 20.4179117112584,
      "latitude": 44.7848226834066
    },
    {
      "id": "_18",
      "label": "Ada Ciganlija",
      "longitude": 20.4199404372204,
      "latitude": 44.7884471855672
    },
    {
      "id": "_19",
      "label": "Petlja Radnička",
      "longitude": 20.4269233361216,
      "latitude": 44.7922118123979
    },
    {
      "id": "_20",
      "label": "Gospodarska mehana",
      "longitude": 20.4336127623586,
      "latitude": 44.7944711917042
    },
    {
      "id": "_21",
      "label": "Ruska",
      "longitude": 20.4381751998929,
      "latitude": 44.7952763240306
    },
    {
      "id": "_22",
      "label": "Sajam",
      "longitude": 20.4420563488721,
      "latitude": 44.7963250729334
    },
    {
      "id": "_23",
      "label": "Drinska",
      "longitude": 20.4518321880527,
      "latitude": 44.8008577965623
    },
    {
      "id": "_24",
      "label": "Miloša Pocerca",
      "longitude": 20.4550125996738,
      "latitude": 44.8035458106545
    },
    {
      "id": "_25",
      "label": "Nemanjina",
      "longitude": 20.4583623579774,
      "latitude": 44.8078994480017
    },
    {
      "id": "_26",
      "label": "Kamenička",
      "longitude": 20.4562962076639,
      "latitude": 44.8117342746216
    },
    {
      "id": "_27",
      "label": "Zeleni venac",
      "longitude": 20.4558958023526,
      "latitude": 44.8139912569939
    }
  ]
}