{
  "direction_a": [
    {
      "id": "_1",
      "label": "Banovo brdo",
      "longitude": 20.4137007918389,
      "latitude": 44.768049418063
    },
    {
      "id": "_2",
      "label": "Julino brdo",
      "longitude": 20.4140163733096,
      "latitude": 44.7625522766069
    },
    {
      "id": "_3",
      "label": "Žarkovo",
      "longitude": 20.4151557283503,
      "latitude": 44.7585334682741
    },
    {
      "id": "_4",
      "label": "Braće Vučković",
      "longitude": 20.4136230290898,
      "latitude": 44.7534444620054
    },
    {
      "id": "_5",
      "label": "Jablanička",
      "longitude": 20.4118393017084,
      "latitude": 44.7479779594282
    },
    {
      "id": "_6",
      "label": "Kneževac",
      "longitude": 20.4195843210249,
      "latitude": 44.7336791921276
    },
    {
      "id": "_7",
      "label": "Naselje Petlovo brdo",
      "longitude": 20.4175269197565,
      "latitude": 44.7237165824988
    },
    {
      "id": "_8",
      "label": "Orlovača (ulaz)",
      "longitude": 20.4124006288453,
      "latitude": 44.7073419877414
    },
    {
      "id": "_9",
      "label": "Orlovača (groblje)",
      "longitude": 20.4125676242833,
      "latitude": 44.7095567660037
    }
  ],
  "direction_b": [
    {
      "id": "_1",
      "label": "Orlovača groblje",
      "longitude": 20.4116219900317,
      "latitude": 44.7094673220366
    },
    {
      "id": "_2",
      "label": "Orlovača (izlaz)",
      "longitude": 20.4122389711539,
      "latitude": 44.7071035676953
    },
    {
      "id": "_3",
      "label": "Naselje Petlovo brdo",
      "longitude": 20.4181443852907,
      "latitude": 44.7239871957598
    },
    {
      "id": "_4",
      "label": "Kneževac",
      "longitude": 20.4193354172285,
      "latitude": 44.7350908768268
    },
    {
      "id": "_5",
      "label": "Jablanička",
      "longitude": 20.4121628799153,
      "latitude": 44.7497021461355
    },
    {
      "id": "_6",
      "label": "Braće Vučković",
      "longitude": 20.4146695050241,
      "latitude": 44.754630556559
    },
    {
      "id": "_7",
      "label": "Žarkovo",
      "longitude": 20.4154615894523,
      "latitude": 44.7595213843687
    },
    {
      "id": "_8",
      "label": "Julino brdo",
      "longitude": 20.4139046683313,
      "latitude": 44.7636100589606
    },
    {
      "id": "_9",
      "label": "Banovo brdo",
      "longitude": 20.4137007918389,
      "latitude": 44.768049418063
    }
  ]
}