{
  "direction_a": [
    {
      "id": "_1",
      "label": "Barajevo AS",
      "longitude": 20.4132950378123,
      "latitude": 44.5801309664163
    },
    {
      "id": "_2",
      "label": "Barajevo IKL",
      "longitude": 20.4135042608739,
      "latitude": 44.5934965463297
    },
    {
      "id": "_3",
      "label": "Svetosavska (Beli Labud)",
      "longitude": 20.4136651882785,
      "latitude": 44.6007083208632
    },
    {
      "id": "_4",
      "label": "Vrelinska",
      "longitude": 20.41323066785,
      "latitude": 44.6073196009376
    },
    {
      "id": "_5",
      "label": "Minel - Dinamo",
      "longitude": 20.4114013961656,
      "latitude": 44.6139492220612
    },
    {
      "id": "_6",
      "label": "Guncati R",
      "longitude": 20.4096736907959,
      "latitude": 44.6178283691406
    },
    {
      "id": "_7",
      "label": "Guncati - Ulaz",
      "longitude": 20.4043471530708,
      "latitude": 44.6124408206253
    },
    {
      "id": "_8",
      "label": "Guncati - Lecina bara",
      "longitude": 20.4019868527958,
      "latitude": 44.6075831199051
    },
    {
      "id": "_9",
      "label": "Guncati dom",
      "longitude": 20.4001039035455,
      "latitude": 44.5999787805534
    },
    {
      "id": "_10",
      "label": "Guncati - Okretnica",
      "longitude": 20.4020296756876,
      "latitude": 44.5963958789532
    },
    {
      "id": "_11",
      "label": "Guncati - Reka",
      "longitude": 20.3966465142963,
      "latitude": 44.5927229845245
    },
    {
      "id": "_12",
      "label": "Baćevac - Crkva",
      "longitude": 20.3861188041069,
      "latitude": 44.5868263861903
    },
    {
      "id": "_13",
      "label": "Baćevac R",
      "longitude": 20.3825354524748,
      "latitude": 44.5849696074863
    },
    {
      "id": "_14",
      "label": "Baćevac - Dom",
      "longitude": 20.3752708435059,
      "latitude": 44.5854873657227
    },
    {
      "id": "_15",
      "label": "Baćevac - Ekonomija",
      "longitude": 20.3753364445689,
      "latitude": 44.5903067313435
    },
    {
      "id": "_16",
      "label": "Baćevac - Skojevska",
      "longitude": 20.373664855957,
      "latitude": 44.5941848754883
    },
    {
      "id": "_17",
      "label": "Baćevac - Igralište",
      "longitude": 20.3706157515664,
      "latitude": 44.5978894180931
    },
    {
      "id": "_18",
      "label": "Baćevac - Izlaz",
      "longitude": 20.3677654266357,
      "latitude": 44.6070289611816
    },
    {
      "id": "_19",
      "label": "Baćevac R Ibarska",
      "longitude": 20.3604984283447,
      "latitude": 44.6107635498047
    },
    {
      "id": "_20",
      "label": "Meljak",
      "longitude": 20.3716993485997,
      "latitude": 44.6244343931842
    },
    {
      "id": "_21",
      "label": "Velika Moštanica (r)",
      "longitude": 20.3810012160777,
      "latitude": 44.631926732053
    },
    {
      "id": "_22",
      "label": "Lipovica (policija)",
      "longitude": 20.4121497106517,
      "latitude": 44.6372519084437
    },
    {
      "id": "_23",
      "label": "Lipovica zavod",
      "longitude": 20.4166907816824,
      "latitude": 44.6462692377833
    },
    {
      "id": "_24",
      "label": "Lipovica",
      "longitude": 20.4246408517706,
      "latitude": 44.6493758363525
    },
    {
      "id": "_25",
      "label": "Naselje Petlovo brdo",
      "longitude": 20.4181229965482,
      "latitude": 44.7240081587061
    },
    {
      "id": "_26",
      "label": "Kneževac",
      "longitude": 20.4193354172285,
      "latitude": 44.7350908768268
    },
    {
      "id": "_27",
      "label": "Jablanička",
      "longitude": 20.4121628799153,
      "latitude": 44.7497021461355
    },
    {
      "id": "_28",
      "label": "Žarkovo",
      "longitude": 20.4154615894523,
      "latitude": 44.7595213843687
    },
    {
      "id": "_29",
      "label": "Banovo brdo",
      "longitude": 20.4136250154943,
      "latitude": 44.7678517247831
    }
  ],
  "direction_b": []
}