{
  "direction_a": [
    {
      "id": "_1",
      "label": "Зелени венац",
      "longitude": 20.456374,
      "latitude": 44.813913
    },
    {
      "id": "_2",
      "label": "Вазнесењска Црква",
      "longitude": 20.462042,
      "latitude": 44.80796
    },
    {
      "id": "_3",
      "label": "Милоша Поцерца",
      "longitude": 20.455948,
      "latitude": 44.802316
    },
    {
      "id": "_4",
      "label": "Мостар",
      "longitude": 20.44927,
      "latitude": 44.798762
    },
    {
      "id": "_5",
      "label": "Сајам",
      "longitude": 20.441977,
      "latitude": 44.796588
    },
    {
      "id": "_6",
      "label": "Петља Радничка",
      "longitude": 20.426785,
      "latitude": 44.792472
    },
    {
      "id": "_7",
      "label": "Чукарица",
      "longitude": 20.414505,
      "latitude": 44.78645
    },
    {
      "id": "_8",
      "label": "Светолика Лазаревића Лазе",
      "longitude": 20.412414,
      "latitude": 44.783754
    },
    {
      "id": "_9",
      "label": "Обалских Радника",
      "longitude": 20.409339,
      "latitude": 44.780605
    },
    {
      "id": "_10",
      "label": "Стругарска",
      "longitude": 20.406808,
      "latitude": 44.777324
    },
    {
      "id": "_11",
      "label": "Чукаричка Падина",
      "longitude": 20.404778,
      "latitude": 44.778032
    }
  ],
  "direction_b": [
    {
      "id": "_1",
      "label": "Чукаричка Падина",
      "longitude": 20.404778,
      "latitude": 44.778032
    },
    {
      "id": "_2",
      "label": "Обалских Радника",
      "longitude": 20.40535,
      "latitude": 44.776312
    },
    {
      "id": "_3",
      "label": "Стевана Ђурђевића",
      "longitude": 20.407555,
      "latitude": 44.776404
    },
    {
      "id": "_4",
      "label": "МЗ Чукаричка Падина",
      "longitude": 20.408281,
      "latitude": 44.777311
    },
    {
      "id": "_5",
      "label": "Обалских Радника",
      "longitude": 20.409829,
      "latitude": 44.781271
    },
    {
      "id": "_6",
      "label": "Светолика Лазаревића Лазе",
      "longitude": 20.412712,
      "latitude": 44.784295
    },
    {
      "id": "_7",
      "label": "Чукарица",
      "longitude": 20.414985,
      "latitude": 44.786371
    },
    {
      "id": "_8",
      "label": "Петља Радничка",
      "longitude": 20.426938,
      "latitude": 44.792201
    },
    {
      "id": "_9",
      "label": "Господарска Механа",
      "longitude": 20.433518,
      "latitude": 44.794439
    },
    {
      "id": "_10",
      "label": "Руска",
      "longitude": 20.438101,
      "latitude": 44.79525
    },
    {
      "id": "_11",
      "label": "Сајам",
      "longitude": 20.441902,
      "latitude": 44.796305
    },
    {
      "id": "_12",
      "label": "Дринска",
      "longitude": 20.451825,
      "latitude": 44.800848
    },
    {
      "id": "_13",
      "label": "Милоша Поцерца",
      "longitude": 20.454948,
      "latitude": 44.803463
    },
    {
      "id": "_14",
      "label": "Савски трг",
      "longitude": 20.457679,
      "latitude": 44.807477
    },
    {
      "id": "_15",
      "label": "Зелени венац",
      "longitude": 20.456374,
      "latitude": 44.813913
    }
  ]
}