{
  "direction_a": [
    {
      "id": "_1",
      "label": "Zeleni venac",
      "longitude": 20.4564703692811,
      "latitude": 44.8139309835352
    },
    {
      "id": "_2",
      "label": "Vaznesenjska crkva",
      "longitude": 20.4621321298156,
      "latitude": 44.807904581549
    },
    {
      "id": "_3",
      "label": "Miloša Pocerca",
      "longitude": 20.4560783569759,
      "latitude": 44.8023161310522
    },
    {
      "id": "_4",
      "label": "Mostar",
      "longitude": 20.4492660247473,
      "latitude": 44.7987396141814
    },
    {
      "id": "_5",
      "label": "Sajam",
      "longitude": 20.4415906546322,
      "latitude": 44.7964130286058
    },
    {
      "id": "_6",
      "label": "Čukarica",
      "longitude": 20.4145017152671,
      "latitude": 44.7863856515716
    },
    {
      "id": "_7",
      "label": "Svetolika Lazarevića Laze",
      "longitude": 20.4124687132794,
      "latitude": 44.7837257834688
    },
    {
      "id": "_8",
      "label": "Obalskih radnika",
      "longitude": 20.4093990887355,
      "latitude": 44.7806321651596
    },
    {
      "id": "_9",
      "label": "Strugarska",
      "longitude": 20.4071625466712,
      "latitude": 44.7771575898245
    },
    {
      "id": "_10",
      "label": "Čukarička padina",
      "longitude": 20.4047856105471,
      "latitude": 44.7780470368689
    }
  ],
  "direction_b": [
    {
      "id": "_1",
      "label": "Čukarička padina",
      "longitude": 20.4047856105471,
      "latitude": 44.7780470368689
    },
    {
      "id": "_2",
      "label": "Stevana Đurđevića",
      "longitude": 20.4053975044046,
      "latitude": 44.7762826934334
    },
    {
      "id": "_3",
      "label": "MZ Čukarička padina",
      "longitude": 20.4082502530515,
      "latitude": 44.7773000004035
    },
    {
      "id": "_4",
      "label": "Obalskih radnika",
      "longitude": 20.409834496281,
      "latitude": 44.7813075744098
    },
    {
      "id": "_5",
      "label": "Svetolika Lazarevića Laze",
      "longitude": 20.4126930555031,
      "latitude": 44.7842849056458
    },
    {
      "id": "_6",
      "label": "Čukarica",
      "longitude": 20.4151354377319,
      "latitude": 44.786451881637
    },
    {
      "id": "_7",
      "label": "Ada Ciganlija",
      "longitude": 20.4199404372204,
      "latitude": 44.7884471855672
    },
    {
      "id": "_8",
      "label": "Gospodarska mehana",
      "longitude": 20.4336164890262,
      "latitude": 44.7944624326348
    },
    {
      "id": "_9",
      "label": "Ruska",
      "longitude": 20.4381790000629,
      "latitude": 44.7952642285528
    },
    {
      "id": "_10",
      "label": "Sajam",
      "longitude": 20.4420563488721,
      "latitude": 44.7963250729334
    },
    {
      "id": "_11",
      "label": "Drinska",
      "longitude": 20.4518321880527,
      "latitude": 44.8008577965623
    },
    {
      "id": "_12",
      "label": "Miloša Pocerca",
      "longitude": 20.4550125996738,
      "latitude": 44.8035458106545
    },
    {
      "id": "_13",
      "label": "Nemanjina",
      "longitude": 20.4583623579774,
      "latitude": 44.8078994480017
    },
    {
      "id": "_14",
      "label": "Zeleni venac",
      "longitude": 20.4558958023526,
      "latitude": 44.8139912569939
    }
  ]
}