{
  "direction_a": [
    {
      "id": "_1",
      "label": "Железничка станица /Панчевачки мост/",
      "longitude": 20.488906,
      "latitude": 44.819423
    },
    {
      "id": "_2",
      "label": "Jована Авакумовића",
      "longitude": 20.479492,
      "latitude": 44.817376
    },
    {
      "id": "_3",
      "label": "Цвијићева",
      "longitude": 20.475941,
      "latitude": 44.817221
    },
    {
      "id": "_4",
      "label": "Џорџа Вашингтона",
      "longitude": 20.469985,
      "latitude": 44.816963
    },
    {
      "id": "_5",
      "label": "Скадарска",
      "longitude": 20.463735,
      "latitude": 44.816621
    },
    {
      "id": "_6",
      "label": "Пионирски Парк",
      "longitude": 20.465054,
      "latitude": 44.810986
    },
    {
      "id": "_7",
      "label": "Адмирала Гепрата",
      "longitude": 20.461481,
      "latitude": 44.806904
    },
    {
      "id": "_8",
      "label": "Милоша Поцерца",
      "longitude": 20.455948,
      "latitude": 44.802316
    },
    {
      "id": "_9",
      "label": "Мостар",
      "longitude": 20.44927,
      "latitude": 44.798762
    },
    {
      "id": "_10",
      "label": "Сајам",
      "longitude": 20.441977,
      "latitude": 44.796588
    },
    {
      "id": "_11",
      "label": "Руска",
      "longitude": 20.436034,
      "latitude": 44.795118
    },
    {
      "id": "_12",
      "label": "Кнеза Вишеслава",
      "longitude": 20.421204,
      "latitude": 44.783099
    },
    {
      "id": "_13",
      "label": "Школа Jосиф Панчић",
      "longitude": 20.41738,
      "latitude": 44.781286
    },
    {
      "id": "_14",
      "label": "Дом здравља",
      "longitude": 20.414599,
      "latitude": 44.777834
    },
    {
      "id": "_15",
      "label": "Кијевска",
      "longitude": 20.41357,
      "latitude": 44.775426
    },
    {
      "id": "_16",
      "label": "Требевићка",
      "longitude": 20.414127,
      "latitude": 44.771418
    },
    {
      "id": "_17",
      "label": "Јулино Брдо",
      "longitude": 20.410914,
      "latitude": 44.763197
    },
    {
      "id": "_18",
      "label": "Илије Ђуричића",
      "longitude": 20.406944,
      "latitude": 44.760023
    },
    {
      "id": "_19",
      "label": "Беле Воде",
      "longitude": 20.404384,
      "latitude": 44.755682
    },
    {
      "id": "_20",
      "label": "Железнички Тунел",
      "longitude": 20.400286,
      "latitude": 44.749474
    },
    {
      "id": "_21",
      "label": "Рупчине",
      "longitude": 20.396317,
      "latitude": 44.746367
    },
    {
      "id": "_22",
      "label": "Савска Тераса",
      "longitude": 20.392132,
      "latitude": 44.743495
    },
    {
      "id": "_23",
      "label": "Пут за ЖТП",
      "longitude": 20.389411,
      "latitude": 44.740906
    },
    {
      "id": "_24",
      "label": "Ранжирна Станица",
      "longitude": 20.385687,
      "latitude": 44.73797
    },
    {
      "id": "_25",
      "label": "Железник Улаз",
      "longitude": 20.380693,
      "latitude": 44.735518
    },
    {
      "id": "_26",
      "label": "Златановићи",
      "longitude": 20.376478,
      "latitude": 44.734325
    },
    {
      "id": "_27",
      "label": "Браће Митровића",
      "longitude": 20.369879,
      "latitude": 44.732071
    },
    {
      "id": "_28",
      "label": "Иво Лола Рибар",
      "longitude": 20.368011,
      "latitude": 44.727393
    },
    {
      "id": "_29",
      "label": "Пијаца",
      "longitude": 20.373901,
      "latitude": 44.727133
    },
    {
      "id": "_30",
      "label": "Железник Центар",
      "longitude": 20.376315,
      "latitude": 44.728545
    },
    {
      "id": "_31",
      "label": "МЗ Нови Железник",
      "longitude": 20.382981,
      "latitude": 44.729705
    },
    {
      "id": "_32",
      "label": "Нови Железник",
      "longitude": 20.379832,
      "latitude": 44.732081
    }
  ],
  "direction_b": [
    {
      "id": "_1",
      "label": "Нови Железник",
      "longitude": 20.379832,
      "latitude": 44.732081
    },
    {
      "id": "_2",
      "label": "МЗ Нови Железник",
      "longitude": 20.382857,
      "latitude": 44.729282
    },
    {
      "id": "_3",
      "label": "Железник Центар",
      "longitude": 20.375802,
      "latitude": 44.72865
    },
    {
      "id": "_4",
      "label": "Пијаца",
      "longitude": 20.37347,
      "latitude": 44.72712
    },
    {
      "id": "_5",
      "label": "Иво Лола Рибар",
      "longitude": 20.368155,
      "latitude": 44.727538
    },
    {
      "id": "_6",
      "label": "Браће Митровића",
      "longitude": 20.370707,
      "latitude": 44.732323
    },
    {
      "id": "_7",
      "label": "Златановићи",
      "longitude": 20.376104,
      "latitude": 44.734173
    },
    {
      "id": "_8",
      "label": "Железник Улаз",
      "longitude": 20.380994,
      "latitude": 44.735511
    },
    {
      "id": "_9",
      "label": "Ранжирна Станица",
      "longitude": 20.38529,
      "latitude": 44.737505
    },
    {
      "id": "_10",
      "label": "Пут за ЖТП",
      "longitude": 20.390834,
      "latitude": 44.741808
    },
    {
      "id": "_11",
      "label": "Савска Тераса",
      "longitude": 20.393283,
      "latitude": 44.744158
    },
    {
      "id": "_12",
      "label": "Рупчине",
      "longitude": 20.397009,
      "latitude": 44.746629
    },
    {
      "id": "_13",
      "label": "Железнички Тунел",
      "longitude": 20.400512,
      "latitude": 44.749454
    },
    {
      "id": "_14",
      "label": "Беле Воде",
      "longitude": 20.404534,
      "latitude": 44.755665
    },
    {
      "id": "_15",
      "label": "Илије Ђуричића",
      "longitude": 20.406768,
      "latitude": 44.759643
    },
    {
      "id": "_16",
      "label": "Јулино Брдо",
      "longitude": 20.411407,
      "latitude": 44.763423
    },
    {
      "id": "_17",
      "label": "Требевићка",
      "longitude": 20.414341,
      "latitude": 44.771477
    },
    {
      "id": "_18",
      "label": "Кијевска",
      "longitude": 20.413824,
      "latitude": 44.775796
    },
    {
      "id": "_19",
      "label": "Дом здравља",
      "longitude": 20.415907,
      "latitude": 44.77903
    },
    {
      "id": "_20",
      "label": "Школа Jосиф Панчић",
      "longitude": 20.41776,
      "latitude": 44.78145
    },
    {
      "id": "_21",
      "label": "Кировљева",
      "longitude": 20.417994,
      "latitude": 44.784723
    },
    {
      "id": "_22",
      "label": "Ада Циганлија",
      "longitude": 20.419789,
      "latitude": 44.7884
    },
    {
      "id": "_23",
      "label": "Петља Радничка",
      "longitude": 20.426938,
      "latitude": 44.792201
    },
    {
      "id": "_24",
      "label": "Господарска Механа",
      "longitude": 20.433518,
      "latitude": 44.794439
    },
    {
      "id": "_25",
      "label": "Руска",
      "longitude": 20.438101,
      "latitude": 44.79525
    },
    {
      "id": "_26",
      "label": "Сајам",
      "longitude": 20.441902,
      "latitude": 44.796305
    },
    {
      "id": "_27",
      "label": "Мостар",
      "longitude": 20.448834,
      "latitude": 44.798229
    },
    {
      "id": "_28",
      "label": "Вишеградска",
      "longitude": 20.455605,
      "latitude": 44.801665
    },
    {
      "id": "_29",
      "label": "Бирчанинова",
      "longitude": 20.459485,
      "latitude": 44.804943
    },
    {
      "id": "_30",
      "label": "Лондон",
      "longitude": 20.462966,
      "latitude": 44.807852
    },
    {
      "id": "_31",
      "label": "Пионирски Парк",
      "longitude": 20.464115,
      "latitude": 44.81209
    },
    {
      "id": "_32",
      "label": "Дом Омладине",
      "longitude": 20.462522,
      "latitude": 44.815372
    },
    {
      "id": "_33",
      "label": "Џорџа Вашингтона",
      "longitude": 20.469867,
      "latitude": 44.816793
    },
    {
      "id": "_34",
      "label": "Цвијићева",
      "longitude": 20.477542,
      "latitude": 44.817127
    },
    {
      "id": "_35",
      "label": "Железничка станица Дунав",
      "longitude": 20.481436,
      "latitude": 44.819018
    },
    {
      "id": "_36",
      "label": "Железничка станица /Панчевачки мост/",
      "longitude": 20.488906,
      "latitude": 44.819423
    }
  ]
}