{
  "direction_a": [
    {
      "id": "_1",
      "label": "Železnička stanica Pančevački most",
      "longitude": 20.48889231611,
      "latitude": 44.8194382780553
    },
    {
      "id": "_2",
      "label": "Jovana Avakumovića",
      "longitude": 20.4794960488007,
      "latitude": 44.8173405594268
    },
    {
      "id": "_3",
      "label": "Cvijićeva",
      "longitude": 20.4759899695334,
      "latitude": 44.817189611341
    },
    {
      "id": "_4",
      "label": "Džordža Vašingtona",
      "longitude": 20.4700243278074,
      "latitude": 44.8169372277923
    },
    {
      "id": "_5",
      "label": "Skadarska",
      "longitude": 20.4637812526913,
      "latitude": 44.8166112403289
    },
    {
      "id": "_6",
      "label": "Pionirski park",
      "longitude": 20.4651200189327,
      "latitude": 44.8109999868147
    },
    {
      "id": "_7",
      "label": "Admirala Geprata",
      "longitude": 20.4614722381804,
      "latitude": 44.806810743113
    },
    {
      "id": "_8",
      "label": "Miloša Pocerca",
      "longitude": 20.4560783569759,
      "latitude": 44.8023161310522
    },
    {
      "id": "_9",
      "label": "Mostar",
      "longitude": 20.4492660247473,
      "latitude": 44.7987396141814
    },
    {
      "id": "_10",
      "label": "Sajam",
      "longitude": 20.4415906546322,
      "latitude": 44.7964130286058
    },
    {
      "id": "_11",
      "label": "Ruska",
      "longitude": 20.4359385437038,
      "latitude": 44.795085842923
    },
    {
      "id": "_12",
      "label": "Kneza Višeslava",
      "longitude": 20.4211209252658,
      "latitude": 44.7831002074612
    },
    {
      "id": "_13",
      "label": "Škola Josif Pančić",
      "longitude": 20.4171984049806,
      "latitude": 44.7810968392086
    },
    {
      "id": "_14",
      "label": "Dom zdravlja",
      "longitude": 20.4144724285048,
      "latitude": 44.77774411363
    },
    {
      "id": "_15",
      "label": "Kijevska",
      "longitude": 20.4135459176844,
      "latitude": 44.775395889586
    },
    {
      "id": "_16",
      "label": "Trebevićka",
      "longitude": 20.4140922912439,
      "latitude": 44.7713254696764
    },
    {
      "id": "_17",
      "label": "Julino brdo",
      "longitude": 20.4108872520008,
      "latitude": 44.7631932185946
    },
    {
      "id": "_18",
      "label": "Ilije Đuričića",
      "longitude": 20.4069453406568,
      "latitude": 44.7600356424145
    },
    {
      "id": "_19",
      "label": "Bele vode",
      "longitude": 20.4043428348577,
      "latitude": 44.7556321465905
    },
    {
      "id": "_20",
      "label": "Železnički tunel",
      "longitude": 20.4000710949176,
      "latitude": 44.7492669509591
    },
    {
      "id": "_21",
      "label": "Rupčine",
      "longitude": 20.3962647255957,
      "latitude": 44.7463382980396
    },
    {
      "id": "_22",
      "label": "Savska terasa",
      "longitude": 20.3921323401039,
      "latitude": 44.7434671867988
    },
    {
      "id": "_23",
      "label": "Put za ŽTP",
      "longitude": 20.3893737315543,
      "latitude": 44.7408822363754
    },
    {
      "id": "_24",
      "label": "Ranžirna stanica",
      "longitude": 20.3857120650103,
      "latitude": 44.7379845967094
    },
    {
      "id": "_25",
      "label": "Železnik (ulaz)",
      "longitude": 20.3803074157722,
      "latitude": 44.7354140191758
    },
    {
      "id": "_26",
      "label": "Železnik (Zlatanovići)",
      "longitude": 20.3763444492666,
      "latitude": 44.7343179770891
    },
    {
      "id": "_27",
      "label": "Braće Mitrović",
      "longitude": 20.36990638578,
      "latitude": 44.7321120661933
    },
    {
      "id": "_28",
      "label": "Ivo Lola Ribar",
      "longitude": 20.3680511326661,
      "latitude": 44.7273932382177
    },
    {
      "id": "_29",
      "label": "Pijaca",
      "longitude": 20.3741147738254,
      "latitude": 44.7272609020472
    },
    {
      "id": "_30",
      "label": "Železnik (centar)",
      "longitude": 20.3763203456209,
      "latitude": 44.7285490703343
    },
    {
      "id": "_31",
      "label": "MZ Novi Železnik",
      "longitude": 20.3829861317183,
      "latitude": 44.7297424856469
    },
    {
      "id": "_32",
      "label": "Novi Železnik",
      "longitude": 20.3803293064228,
      "latitude": 44.7319312742437
    }
  ],
  "direction_b": [
    {
      "id": "_1",
      "label": "Novi Železnik",
      "longitude": 20.3798278387258,
      "latitude": 44.7320725577112
    },
    {
      "id": "_2",
      "label": "MZ Novi Železnik",
      "longitude": 20.3828525650017,
      "latitude": 44.7292413861969
    },
    {
      "id": "_3",
      "label": "Železnik (centar)",
      "longitude": 20.3755819153061,
      "latitude": 44.7286566474289
    },
    {
      "id": "_4",
      "label": "Pijaca",
      "longitude": 20.3732785221698,
      "latitude": 44.7270745414992
    },
    {
      "id": "_5",
      "label": "Ivo Lola Ribar",
      "longitude": 20.3681757295203,
      "latitude": 44.7275451190615
    },
    {
      "id": "_6",
      "label": "Braće Mitrović",
      "longitude": 20.3707672094831,
      "latitude": 44.7323669834501
    },
    {
      "id": "_7",
      "label": "Železnik (Zlatanovići)",
      "longitude": 20.376153992603,
      "latitude": 44.7341819464147
    },
    {
      "id": "_8",
      "label": "Železnik (ulaz)",
      "longitude": 20.381086211494,
      "latitude": 44.7355550196931
    },
    {
      "id": "_9",
      "label": "Ranžirna stanica",
      "longitude": 20.385285157052,
      "latitude": 44.7375179276797
    },
    {
      "id": "_10",
      "label": "Put za ŽTP",
      "longitude": 20.3908183025308,
      "latitude": 44.7418474801032
    },
    {
      "id": "_11",
      "label": "Savska terasa",
      "longitude": 20.3933367126285,
      "latitude": 44.7442259332722
    },
    {
      "id": "_12",
      "label": "Rupčine",
      "longitude": 20.3971497176097,
      "latitude": 44.7467299373675
    },
    {
      "id": "_13",
      "label": "Železnički tunel",
      "longitude": 20.4005808089505,
      "latitude": 44.7495612038497
    },
    {
      "id": "_14",
      "label": "Bele vode",
      "longitude": 20.4044055015384,
      "latitude": 44.7554326806298
    },
    {
      "id": "_15",
      "label": "Ilije Đuričića",
      "longitude": 20.4068423224146,
      "latitude": 44.7597327229291
    },
    {
      "id": "_16",
      "label": "Julino brdo",
      "longitude": 20.4114151730828,
      "latitude": 44.7634533174602
    },
    {
      "id": "_17",
      "label": "Trebevićka",
      "longitude": 20.4143679959541,
      "latitude": 44.7715482675454
    },
    {
      "id": "_18",
      "label": "Kijevska",
      "longitude": 20.4138574029671,
      "latitude": 44.7758312615877
    },
    {
      "id": "_19",
      "label": "Dom zdravlja",
      "longitude": 20.4159577149361,
      "latitude": 44.7790656243339
    },
    {
      "id": "_20",
      "label": "Škola Josif Pančić",
      "longitude": 20.4177988662816,
      "latitude": 44.7814508718708
    },
    {
      "id": "_21",
      "label": "Kirovljeva",
      "longitude": 20.4179117112584,
      "latitude": 44.7848226834066
    },
    {
      "id": "_22",
      "label": "Ada Ciganlija",
      "longitude": 20.4199404372204,
      "latitude": 44.7884471855672
    },
    {
      "id": "_23",
      "label": "Petlja Radnička",
      "longitude": 20.4269233361216,
      "latitude": 44.7922118123979
    },
    {
      "id": "_24",
      "label": "Gospodarska mehana",
      "longitude": 20.4336127623586,
      "latitude": 44.7944711917042
    },
    {
      "id": "_25",
      "label": "Ruska",
      "longitude": 20.4381751998929,
      "latitude": 44.7952763240306
    },
    {
      "id": "_26",
      "label": "Sajam",
      "longitude": 20.4420563488721,
      "latitude": 44.7963250729334
    },
    {
      "id": "_27",
      "label": "Mostar",
      "longitude": 20.4488893135074,
      "latitude": 44.7982104318979
    },
    {
      "id": "_28",
      "label": "Višegradska",
      "longitude": 20.4555782103808,
      "latitude": 44.8017305887954
    },
    {
      "id": "_29",
      "label": "Birčaninova",
      "longitude": 20.4595995767607,
      "latitude": 44.8050884275429
    },
    {
      "id": "_30",
      "label": "London",
      "longitude": 20.462903918343,
      "latitude": 44.8078362004198
    },
    {
      "id": "_31",
      "label": "Pionirski park",
      "longitude": 20.4641117754345,
      "latitude": 44.8120284281989
    },
    {
      "id": "_32",
      "label": "Dom omladine",
      "longitude": 20.4624699332322,
      "latitude": 44.8153973695586
    },
    {
      "id": "_33",
      "label": "Džordža Vašingtona",
      "longitude": 20.4698685349023,
      "latitude": 44.8168285139703
    },
    {
      "id": "_34",
      "label": "Cvijićeva",
      "longitude": 20.4769352633086,
      "latitude": 44.8175233060592
    },
    {
      "id": "_35",
      "label": "Železnička stanica Dunav",
      "longitude": 20.4815292839587,
      "latitude": 44.8190326722746
    },
    {
      "id": "_36",
      "label": "Železnička stanica Pančevački most",
      "longitude": 20.4893948655977,
      "latitude": 44.8192299262461
    }
  ]
}