{
  "direction_a": [
    {
      "id": "_1",
      "label": "BAS",
      "longitude": 20.4543059627735,
      "latitude": 44.8101721002059
    },
    {
      "id": "_2",
      "label": "Palata pravde 1",
      "longitude": 20.4515238525443,
      "latitude": 44.8029928139838
    },
    {
      "id": "_3",
      "label": "Žarkovo",
      "longitude": 20.4151557283503,
      "latitude": 44.7585334682741
    },
    {
      "id": "_4",
      "label": "Meljak",
      "longitude": 20.372314453125,
      "latitude": 44.6250419616699
    },
    {
      "id": "_5",
      "label": "Baćevac R Ibarska",
      "longitude": 20.3598278632504,
      "latitude": 44.6108101755115
    },
    {
      "id": "_6",
      "label": "Šiljakovac R",
      "longitude": 20.3307420554641,
      "latitude": 44.5819321564382
    },
    {
      "id": "_7",
      "label": "Stepojevac",
      "longitude": 20.2946716148953,
      "latitude": 44.5125854846983
    },
    {
      "id": "_8",
      "label": "Veliki crljeni - Dom",
      "longitude": 20.2840607998846,
      "latitude": 44.4674135894041
    },
    {
      "id": "_9",
      "label": "Vreoci - Zavod",
      "longitude": 20.2790879869391,
      "latitude": 44.4286045889612
    },
    {
      "id": "_10",
      "label": "Lazarevac - Rampa",
      "longitude": 20.2538108466146,
      "latitude": 44.3866608333294
    },
    {
      "id": "_11",
      "label": "Lazarevac (centar)",
      "longitude": 20.259395234033,
      "latitude": 44.3803848874534
    },
    {
      "id": "_12",
      "label": "Lazarevac AS",
      "longitude": 20.2643036136112,
      "latitude": 44.3794934722192
    }
  ],
  "direction_b": [
    {
      "id": "_1",
      "label": "Lazarevac AS",
      "longitude": 20.2642204355983,
      "latitude": 44.3791656580426
    },
    {
      "id": "_2",
      "label": "Lazarevac (centar)",
      "longitude": 20.2593684453285,
      "latitude": 44.3805995918902
    },
    {
      "id": "_3",
      "label": "Lazarevac - Rampa",
      "longitude": 20.2542936878954,
      "latitude": 44.3862391353889
    },
    {
      "id": "_4",
      "label": "Vreoci - Zavod",
      "longitude": 20.2795761926379,
      "latitude": 44.4301062651598
    },
    {
      "id": "_5",
      "label": "Veliki crljeni - Dom",
      "longitude": 20.2841466845037,
      "latitude": 44.4672604567474
    },
    {
      "id": "_6",
      "label": "Stepojevac",
      "longitude": 20.2943391018734,
      "latitude": 44.5143489432465
    },
    {
      "id": "_7",
      "label": "Šiljakovac R",
      "longitude": 20.3308601163189,
      "latitude": 44.5818213533369
    },
    {
      "id": "_8",
      "label": "Baćevac R Ibarska",
      "longitude": 20.3599244690012,
      "latitude": 44.6105619468303
    },
    {
      "id": "_9",
      "label": "Meljak",
      "longitude": 20.3716993485997,
      "latitude": 44.6244343931842
    },
    {
      "id": "_10",
      "label": "Žarkovo",
      "longitude": 20.4154615894523,
      "latitude": 44.7595213843687
    },
    {
      "id": "_11",
      "label": "Palata pravde 1",
      "longitude": 20.451327814778,
      "latitude": 44.8034058554644
    },
    {
      "id": "_12",
      "label": "BAS",
      "longitude": 20.4543059627735,
      "latitude": 44.8101721002059
    }
  ]
}