{
  "direction_a": [
    {
      "id": "_1",
      "label": "Banovo brdo",
      "longitude": 20.4137161014555,
      "latitude": 44.7687467281234
    },
    {
      "id": "_2",
      "label": "Žarkovo",
      "longitude": 20.4151557283503,
      "latitude": 44.7585334682741
    },
    {
      "id": "_3",
      "label": "Jablanička",
      "longitude": 20.4118393017084,
      "latitude": 44.7479779594282
    },
    {
      "id": "_4",
      "label": "Kneževac",
      "longitude": 20.4195843210249,
      "latitude": 44.7336791921276
    },
    {
      "id": "_5",
      "label": "Naselje Petlovo brdo",
      "longitude": 20.4175269197565,
      "latitude": 44.7237165824988
    },
    {
      "id": "_6",
      "label": "Lipovica",
      "longitude": 20.4239326484338,
      "latitude": 44.6492727945961
    },
    {
      "id": "_7",
      "label": "Lipovica zavod",
      "longitude": 20.4165350825851,
      "latitude": 44.6463608352076
    },
    {
      "id": "_8",
      "label": "Lipovica (policija)",
      "longitude": 20.4119476014656,
      "latitude": 44.6370678711624
    },
    {
      "id": "_9",
      "label": "Velika Moštanica (r)",
      "longitude": 20.3798427581787,
      "latitude": 44.630615234375
    },
    {
      "id": "_10",
      "label": "Baćevac R Ibarska",
      "longitude": 20.3598278632504,
      "latitude": 44.6108101755115
    },
    {
      "id": "_11",
      "label": "Šumadinka",
      "longitude": 20.3493725585797,
      "latitude": 44.5936951876996
    },
    {
      "id": "_12",
      "label": "Šiljakovac R",
      "longitude": 20.3304791938444,
      "latitude": 44.5815615383403
    },
    {
      "id": "_13",
      "label": "Šiljakovac - Selo",
      "longitude": 20.3274964952399,
      "latitude": 44.5740760754078
    },
    {
      "id": "_14",
      "label": "Žuberak",
      "longitude": 20.3295081828186,
      "latitude": 44.569111982886
    },
    {
      "id": "_15",
      "label": "Šiljakovac-Centar",
      "longitude": 20.3329520869296,
      "latitude": 44.5654469190804
    },
    {
      "id": "_16",
      "label": "Žuberak",
      "longitude": 20.3294170108252,
      "latitude": 44.5692839562244
    },
    {
      "id": "_17",
      "label": "Šiljakovac - Selo",
      "longitude": 20.3276574714389,
      "latitude": 44.5740263983668
    },
    {
      "id": "_18",
      "label": "Šiljakovac R",
      "longitude": 20.3306185942376,
      "latitude": 44.5815195093347
    },
    {
      "id": "_19",
      "label": "Šumadinka",
      "longitude": 20.350483139495,
      "latitude": 44.5946692845888
    },
    {
      "id": "_20",
      "label": "Vranić R",
      "longitude": 20.3553485870361,
      "latitude": 44.6070175170898
    },
    {
      "id": "_21",
      "label": "Jozića kraj",
      "longitude": 20.3482621831144,
      "latitude": 44.6047607314072
    },
    {
      "id": "_22",
      "label": "Male Gunjice",
      "longitude": 20.3429107666016,
      "latitude": 44.6012649536133
    },
    {
      "id": "_23",
      "label": "Velike Gunjice",
      "longitude": 20.3326034545898,
      "latitude": 44.599879470693
    },
    {
      "id": "_24",
      "label": "Dom Zdravlja",
      "longitude": 20.3246641287464,
      "latitude": 44.6005211621808
    },
    {
      "id": "_25",
      "label": "Đoinčevića kuće",
      "longitude": 20.3181785139627,
      "latitude": 44.5980804049846
    },
    {
      "id": "_26",
      "label": "Vranić centar",
      "longitude": 20.3096061970643,
      "latitude": 44.5944859264218
    },
    {
      "id": "_27",
      "label": "Rašića kraj",
      "longitude": 20.2972519320692,
      "latitude": 44.5915100952867
    }
  ],
  "direction_b": []
}