{
  "direction_a": [
    {
      "id": "_1",
      "label": "Ташмајдан /Парк/",
      "longitude": 20.468087,
      "latitude": 44.809604
    },
    {
      "id": "_2",
      "label": "Правни факултет",
      "longitude": 20.47258,
      "latitude": 44.806622
    },
    {
      "id": "_3",
      "label": "Вуков Споменик /бул.Краља Александра/",
      "longitude": 20.47869,
      "latitude": 44.804024
    },
    {
      "id": "_4",
      "label": "ГО Звездара",
      "longitude": 20.482718,
      "latitude": 44.802339
    },
    {
      "id": "_5",
      "label": "Пијаца Стари Ђерам",
      "longitude": 20.487317,
      "latitude": 44.800423
    },
    {
      "id": "_6",
      "label": "Поп Стојанова",
      "longitude": 20.491591,
      "latitude": 44.798646
    },
    {
      "id": "_7",
      "label": "Лион",
      "longitude": 20.495468,
      "latitude": 44.797003
    },
    {
      "id": "_8",
      "label": "Батутова",
      "longitude": 20.499779,
      "latitude": 44.795153
    },
    {
      "id": "_9",
      "label": "Пијаца Звездара",
      "longitude": 20.504835,
      "latitude": 44.793067
    },
    {
      "id": "_10",
      "label": "Др Велизара Косановића",
      "longitude": 20.509005,
      "latitude": 44.79249
    },
    {
      "id": "_11",
      "label": "Мите Ружића",
      "longitude": 20.513398,
      "latitude": 44.790568
    },
    {
      "id": "_12",
      "label": "Косте Трифковића",
      "longitude": 20.51623,
      "latitude": 44.788715
    },
    {
      "id": "_13",
      "label": "Устаничка",
      "longitude": 20.517904,
      "latitude": 44.784621
    }
  ],
  "direction_b": [
    {
      "id": "_1",
      "label": "Устаничка",
      "longitude": 20.517904,
      "latitude": 44.784621
    },
    {
      "id": "_2",
      "label": "Косте Трифковића",
      "longitude": 20.515961,
      "latitude": 44.789267
    },
    {
      "id": "_3",
      "label": "Мите Ружића",
      "longitude": 20.512963,
      "latitude": 44.790948
    },
    {
      "id": "_4",
      "label": "Др Велизара Косановића",
      "longitude": 20.510904,
      "latitude": 44.791944
    },
    {
      "id": "_5",
      "label": "Пијаца Звездара",
      "longitude": 20.504859,
      "latitude": 44.793244
    },
    {
      "id": "_6",
      "label": "Батутова",
      "longitude": 20.498235,
      "latitude": 44.795919
    },
    {
      "id": "_7",
      "label": "Лион",
      "longitude": 20.494649,
      "latitude": 44.797447
    },
    {
      "id": "_8",
      "label": "Поп Стојанова",
      "longitude": 20.489962,
      "latitude": 44.799425
    },
    {
      "id": "_9",
      "label": "Пијаца Стари Ђерам",
      "longitude": 20.486231,
      "latitude": 44.800976
    },
    {
      "id": "_10",
      "label": "ГО Звездара",
      "longitude": 20.482318,
      "latitude": 44.802602
    },
    {
      "id": "_11",
      "label": "Вуков Споменик /бул.Краља Александра/",
      "longitude": 20.477742,
      "latitude": 44.804487
    },
    {
      "id": "_12",
      "label": "Правни факултет",
      "longitude": 20.470926,
      "latitude": 44.807543
    },
    {
      "id": "_13",
      "label": "Ташмајдан /Парк/",
      "longitude": 20.468087,
      "latitude": 44.809604
    }
  ]
}