{
  "direction_a": [
    {
      "id": "_1",
      "label": "Tašmajdan (park)",
      "longitude": 20.4682214075284,
      "latitude": 44.8097382681872
    },
    {
      "id": "_2",
      "label": "Pravni fakultet",
      "longitude": 20.4728884168429,
      "latitude": 44.8064497728219
    },
    {
      "id": "_3",
      "label": "Vukov spomenik (Bulevar kralja Aleksandra)",
      "longitude": 20.4787003419823,
      "latitude": 44.8039870490846
    },
    {
      "id": "_4",
      "label": "GO Zvezdara",
      "longitude": 20.4826770173225,
      "latitude": 44.8023041305215
    },
    {
      "id": "_5",
      "label": "Pijaca Đeram",
      "longitude": 20.487277483137,
      "latitude": 44.8003808736458
    },
    {
      "id": "_6",
      "label": "Pop Stojanova",
      "longitude": 20.4915655364201,
      "latitude": 44.7985910404997
    },
    {
      "id": "_7",
      "label": "Lion",
      "longitude": 20.495472906767,
      "latitude": 44.7969433658914
    },
    {
      "id": "_8",
      "label": "Batutova",
      "longitude": 20.499815055926,
      "latitude": 44.7951411844009
    },
    {
      "id": "_9",
      "label": "Pijaca Zvezdara",
      "longitude": 20.5047073011366,
      "latitude": 44.7930867763058
    },
    {
      "id": "_10",
      "label": "Dr Velizara Kosanovića",
      "longitude": 20.5089844562786,
      "latitude": 44.7924607823968
    },
    {
      "id": "_11",
      "label": "Mite Ružića",
      "longitude": 20.5136194698621,
      "latitude": 44.7904394134507
    },
    {
      "id": "_12",
      "label": "Koste Trifkovića",
      "longitude": 20.5162784323904,
      "latitude": 44.7886255365273
    },
    {
      "id": "_13",
      "label": "Ustanička",
      "longitude": 20.5176234559302,
      "latitude": 44.7849197749785
    }
  ],
  "direction_b": [
    {
      "id": "_1",
      "label": "Ustanička",
      "longitude": 20.5179804503104,
      "latitude": 44.784537892735
    },
    {
      "id": "_2",
      "label": "Koste Trifkovića",
      "longitude": 20.5159594017901,
      "latitude": 44.7893009589398
    },
    {
      "id": "_3",
      "label": "Mite Ružića",
      "longitude": 20.5127317422065,
      "latitude": 44.791107016141
    },
    {
      "id": "_4",
      "label": "Dr Velizara Kosanovića",
      "longitude": 20.5109171575512,
      "latitude": 44.7919776567746
    },
    {
      "id": "_5",
      "label": "Pijaca Zvezdara",
      "longitude": 20.5047686392372,
      "latitude": 44.7933048301686
    },
    {
      "id": "_6",
      "label": "Batutova",
      "longitude": 20.4981814692508,
      "latitude": 44.7959274906804
    },
    {
      "id": "_7",
      "label": "Lion",
      "longitude": 20.4945406516858,
      "latitude": 44.7974630380806
    },
    {
      "id": "_8",
      "label": "Pop Stojanova",
      "longitude": 20.489902533483,
      "latitude": 44.7994098200475
    },
    {
      "id": "_9",
      "label": "Pijaca Đeram",
      "longitude": 20.4860837956229,
      "latitude": 44.8010037029835
    },
    {
      "id": "_10",
      "label": "GO Zvezdara",
      "longitude": 20.4822394555881,
      "latitude": 44.8026099416232
    },
    {
      "id": "_11",
      "label": "Vukov spomenik (Bulevar kralja Aleksandra)",
      "longitude": 20.4777109725931,
      "latitude": 44.804499331641
    },
    {
      "id": "_12",
      "label": "Pravni fakultet",
      "longitude": 20.4709215420853,
      "latitude": 44.8075440642306
    },
    {
      "id": "_13",
      "label": "Tašmajdan (park)",
      "longitude": 20.4682214075284,
      "latitude": 44.8097382681872
    }
  ]
}