{
  "direction_a": [
    {
      "id": "_1",
      "label": "Блок 44",
      "longitude": 20.384012,
      "latitude": 44.797035
    },
    {
      "id": "_2",
      "label": "Дом здравља",
      "longitude": 20.382696,
      "latitude": 44.799171
    },
    {
      "id": "_3",
      "label": "Црква Св.Георгија",
      "longitude": 20.37552,
      "latitude": 44.807663
    },
    {
      "id": "_4",
      "label": "Душана Вукасовића",
      "longitude": 20.370577,
      "latitude": 44.805657
    },
    {
      "id": "_5",
      "label": "Сурчинска",
      "longitude": 20.36693,
      "latitude": 44.804164
    },
    {
      "id": "_6",
      "label": "Виноградска /Улаз/",
      "longitude": 20.357954,
      "latitude": 44.800701
    },
    {
      "id": "_7",
      "label": "МЗ Ледине",
      "longitude": 20.350332,
      "latitude": 44.798135
    },
    {
      "id": "_8",
      "label": "Воденичарска",
      "longitude": 20.339913,
      "latitude": 44.796187
    },
    {
      "id": "_9",
      "label": "Сурчин /Улаз/",
      "longitude": 20.331176,
      "latitude": 44.794924
    },
    {
      "id": "_10",
      "label": "МЗ Нови Сурчин",
      "longitude": 20.324128,
      "latitude": 44.794587
    },
    {
      "id": "_11",
      "label": "Сурчин /Канал Галовица/",
      "longitude": 20.316278,
      "latitude": 44.794664
    },
    {
      "id": "_12",
      "label": "Сурчин /Силоси/",
      "longitude": 20.305773,
      "latitude": 44.793251
    },
    {
      "id": "_13",
      "label": "Сурчин Насеље /Виноградска/",
      "longitude": 20.299104,
      "latitude": 44.792805
    },
    {
      "id": "_14",
      "label": "Сурчин Насеље /Улаз/",
      "longitude": 20.293811,
      "latitude": 44.791433
    },
    {
      "id": "_15",
      "label": "Сурчин /Ритска/",
      "longitude": 20.286673,
      "latitude": 44.789682
    },
    {
      "id": "_16",
      "label": "Сурчин /Драгомира Момчиловића/",
      "longitude": 20.278303,
      "latitude": 44.789165
    },
    {
      "id": "_17",
      "label": "Сурчин /Центар/",
      "longitude": 20.269677,
      "latitude": 44.790965
    },
    {
      "id": "_18",
      "label": "Сурчин /Партизанска/",
      "longitude": 20.261782,
      "latitude": 44.789434
    },
    {
      "id": "_19",
      "label": "Сурчин /Млин/",
      "longitude": 20.256119,
      "latitude": 44.787255
    },
    {
      "id": "_20",
      "label": "Сурчин /Браће Николић/",
      "longitude": 20.253929,
      "latitude": 44.783456
    },
    {
      "id": "_21",
      "label": "Сурчин /Римски Канал/",
      "longitude": 20.250407,
      "latitude": 44.781256
    },
    {
      "id": "_22",
      "label": "Жичка",
      "longitude": 20.244194,
      "latitude": 44.783269
    },
    {
      "id": "_23",
      "label": "Дон Кихотова",
      "longitude": 20.240798,
      "latitude": 44.782807
    },
    {
      "id": "_24",
      "label": "Парк Кључ",
      "longitude": 20.235613,
      "latitude": 44.782051
    },
    {
      "id": "_25",
      "label": "Јаковичка",
      "longitude": 20.232531,
      "latitude": 44.78638
    },
    {
      "id": "_26",
      "label": "СРЦ Сурчин",
      "longitude": 20.231581,
      "latitude": 44.788034
    }
  ],
  "direction_b": [
    {
      "id": "_1",
      "label": "СРЦ Сурчин",
      "longitude": 20.231581,
      "latitude": 44.788034
    },
    {
      "id": "_2",
      "label": "Јаковичка",
      "longitude": 20.232356,
      "latitude": 44.786294
    },
    {
      "id": "_3",
      "label": "Парк Кључ",
      "longitude": 20.235656,
      "latitude": 44.781996
    },
    {
      "id": "_4",
      "label": "Дон Кихотова",
      "longitude": 20.24071,
      "latitude": 44.782719
    },
    {
      "id": "_5",
      "label": "Жичка",
      "longitude": 20.244497,
      "latitude": 44.783248
    },
    {
      "id": "_6",
      "label": "Пут за СРЦ Сурчин",
      "longitude": 20.249286,
      "latitude": 44.78131
    },
    {
      "id": "_7",
      "label": "Сурчин /Браће Николић/",
      "longitude": 20.254282,
      "latitude": 44.783804
    },
    {
      "id": "_8",
      "label": "Сурчин /Млин/",
      "longitude": 20.256218,
      "latitude": 44.787163
    },
    {
      "id": "_9",
      "label": "Сурчин /Партизанска/",
      "longitude": 20.262169,
      "latitude": 44.789417
    },
    {
      "id": "_10",
      "label": "Сурчин /Центар/",
      "longitude": 20.270199,
      "latitude": 44.790644
    },
    {
      "id": "_11",
      "label": "Сурчин /Драгомира Момчиловића/",
      "longitude": 20.279643,
      "latitude": 44.789217
    },
    {
      "id": "_12",
      "label": "Сурчин /Ритска/",
      "longitude": 20.287562,
      "latitude": 44.789617
    },
    {
      "id": "_13",
      "label": "Сурчин Насеље /Улаз/",
      "longitude": 20.294181,
      "latitude": 44.791416
    },
    {
      "id": "_14",
      "label": "Сурчин Насеље /Виноградска/",
      "longitude": 20.299565,
      "latitude": 44.792788
    },
    {
      "id": "_15",
      "label": "Сурчин /Силоси/",
      "longitude": 20.305846,
      "latitude": 44.793177
    },
    {
      "id": "_16",
      "label": "Сурчин /Канал Галовица/",
      "longitude": 20.316517,
      "latitude": 44.794617
    },
    {
      "id": "_17",
      "label": "МЗ Нови Сурчин",
      "longitude": 20.323302,
      "latitude": 44.79452
    },
    {
      "id": "_18",
      "label": "Сурчин /Улаз/",
      "longitude": 20.330384,
      "latitude": 44.794791
    },
    {
      "id": "_19",
      "label": "Воденичарска",
      "longitude": 20.339274,
      "latitude": 44.79602
    },
    {
      "id": "_20",
      "label": "МЗ Ледине",
      "longitude": 20.350574,
      "latitude": 44.7981
    },
    {
      "id": "_21",
      "label": "Виноградска /Улаз/",
      "longitude": 20.357884,
      "latitude": 44.800588
    },
    {
      "id": "_22",
      "label": "Сурчинска",
      "longitude": 20.367118,
      "latitude": 44.803938
    },
    {
      "id": "_23",
      "label": "Душана Вукасовића",
      "longitude": 20.372277,
      "latitude": 44.806038
    },
    {
      "id": "_24",
      "label": "ОШ Јован Стерија Поповић",
      "longitude": 20.376725,
      "latitude": 44.80719
    },
    {
      "id": "_25",
      "label": "Дом здравља",
      "longitude": 20.382628,
      "latitude": 44.798875
    },
    {
      "id": "_26",
      "label": "Блок 44",
      "longitude": 20.384115,
      "latitude": 44.796457
    },
    {
      "id": "_27",
      "label": "Блок 44",
      "longitude": 20.384012,
      "latitude": 44.797035
    }
  ]
}