{
  "direction_a": [
    {
      "id": "_1",
      "label": "Blok 44",
      "longitude": 20.3840096936993,
      "latitude": 44.7969732022516
    },
    {
      "id": "_2",
      "label": "Dom zdravlja Blok 44",
      "longitude": 20.3826724191373,
      "latitude": 44.7991169026448
    },
    {
      "id": "_3",
      "label": "Crkva Sv. Georgija",
      "longitude": 20.375560014463,
      "latitude": 44.8076945502935
    },
    {
      "id": "_4",
      "label": "Dušana Vukasovića",
      "longitude": 20.3705756133067,
      "latitude": 44.8056838016113
    },
    {
      "id": "_5",
      "label": "Surčinska",
      "longitude": 20.3667746038276,
      "latitude": 44.8041509518377
    },
    {
      "id": "_6",
      "label": "Vinogradska (ulaz)",
      "longitude": 20.3617811548243,
      "latitude": 44.8015171460605
    },
    {
      "id": "_7",
      "label": "Vinogradska (Plandište)",
      "longitude": 20.3561131244888,
      "latitude": 44.800041783209
    },
    {
      "id": "_8",
      "label": "MZ Ledine",
      "longitude": 20.3496285159837,
      "latitude": 44.7980252826072
    },
    {
      "id": "_9",
      "label": "Vodeničarska",
      "longitude": 20.3398306653121,
      "latitude": 44.7962017713091
    },
    {
      "id": "_10",
      "label": "GO Surčin (ulaz)",
      "longitude": 20.3312327592691,
      "latitude": 44.794936997708
    },
    {
      "id": "_11",
      "label": "MZ Novi Surčin",
      "longitude": 20.324108151439,
      "latitude": 44.7946072265736
    },
    {
      "id": "_12",
      "label": "Kanal Galovica",
      "longitude": 20.315851548827,
      "latitude": 44.7946752400342
    },
    {
      "id": "_13",
      "label": "Silosi",
      "longitude": 20.3057169108983,
      "latitude": 44.7932499701129
    },
    {
      "id": "_14",
      "label": "Vinogradska (Surčin naselje)",
      "longitude": 20.2990690905301,
      "latitude": 44.7928189287525
    },
    {
      "id": "_15",
      "label": "Surčin naselje (ulaz)",
      "longitude": 20.2936943285258,
      "latitude": 44.7914306004245
    },
    {
      "id": "_16",
      "label": "Ritska",
      "longitude": 20.2864151158825,
      "latitude": 44.7895406011675
    },
    {
      "id": "_17",
      "label": "Dragomira Momčilovića",
      "longitude": 20.2782048499077,
      "latitude": 44.7891886016318
    },
    {
      "id": "_18",
      "label": "Surčin (centar)",
      "longitude": 20.269576440419,
      "latitude": 44.7909428436165
    },
    {
      "id": "_19",
      "label": "Krušedolska",
      "longitude": 20.2618605005293,
      "latitude": 44.7894750736203
    },
    {
      "id": "_20",
      "label": "Surčin (mlin)",
      "longitude": 20.2560733648775,
      "latitude": 44.7872237587599
    },
    {
      "id": "_21",
      "label": "Braće Nikolić",
      "longitude": 20.2538782515217,
      "latitude": 44.7833846722943
    },
    {
      "id": "_22",
      "label": "Put za SRC",
      "longitude": 20.250345076553,
      "latitude": 44.7812287146776
    },
    {
      "id": "_23",
      "label": "SRC Surčin (ulaz)",
      "longitude": 20.2361042282002,
      "latitude": 44.7879563315462
    },
    {
      "id": "_24",
      "label": "SRC Surčin",
      "longitude": 20.2316678381447,
      "latitude": 44.7880022649368
    }
  ],
  "direction_b": [
    {
      "id": "_1",
      "label": "SRC Surčin",
      "longitude": 20.2316678381447,
      "latitude": 44.7880022649368
    },
    {
      "id": "_2",
      "label": "SRC Surčin (ulaz)",
      "longitude": 20.2341755833699,
      "latitude": 44.7880601864808
    },
    {
      "id": "_3",
      "label": "Jakovička SRC",
      "longitude": 20.2323753716575,
      "latitude": 44.7863888861903
    },
    {
      "id": "_4",
      "label": "Park Ključ",
      "longitude": 20.2357882434567,
      "latitude": 44.7820019126042
    },
    {
      "id": "_5",
      "label": "Don Kihotova",
      "longitude": 20.2407203034196,
      "latitude": 44.7826691705837
    },
    {
      "id": "_6",
      "label": "Žička",
      "longitude": 20.2444477813481,
      "latitude": 44.7831752864372
    },
    {
      "id": "_7",
      "label": "Put za SRC",
      "longitude": 20.2502028713941,
      "latitude": 44.7810855910504
    },
    {
      "id": "_8",
      "label": "Braće Nikolić",
      "longitude": 20.254356505014,
      "latitude": 44.7839295592062
    },
    {
      "id": "_9",
      "label": "Surčin (mlin)",
      "longitude": 20.2562724203282,
      "latitude": 44.7872718485651
    },
    {
      "id": "_10",
      "label": "Krušedolska",
      "longitude": 20.2624342595165,
      "latitude": 44.7894751680994
    },
    {
      "id": "_11",
      "label": "Surčin (centar)",
      "longitude": 20.2704291239255,
      "latitude": 44.7902697086563
    },
    {
      "id": "_12",
      "label": "Dragomira Momčilovića",
      "longitude": 20.2797310458474,
      "latitude": 44.7892252023128
    },
    {
      "id": "_13",
      "label": "Ritska",
      "longitude": 20.2875792269722,
      "latitude": 44.7896306392077
    },
    {
      "id": "_14",
      "label": "Surčin naselje (ulaz)",
      "longitude": 20.2941465059744,
      "latitude": 44.7914531850933
    },
    {
      "id": "_15",
      "label": "Vinogradska (Surčin naselje)",
      "longitude": 20.2995926596043,
      "latitude": 44.7927915309213
    },
    {
      "id": "_16",
      "label": "Silosi",
      "longitude": 20.3060433314953,
      "latitude": 44.7932213483664
    },
    {
      "id": "_17",
      "label": "Kanal Galovica",
      "longitude": 20.3164513375034,
      "latitude": 44.7946158214198
    },
    {
      "id": "_18",
      "label": "MZ Novi Surčin",
      "longitude": 20.3248225109667,
      "latitude": 44.7944764430506
    },
    {
      "id": "_19",
      "label": "GO Surčin (ulaz)",
      "longitude": 20.33098144476,
      "latitude": 44.7948095376177
    },
    {
      "id": "_20",
      "label": "Vodeničarska",
      "longitude": 20.3390974972401,
      "latitude": 44.7959869575952
    },
    {
      "id": "_21",
      "label": "MZ Ledine",
      "longitude": 20.350873491079,
      "latitude": 44.7981421326033
    },
    {
      "id": "_22",
      "label": "Vinogradska (Plandište)",
      "longitude": 20.3568697167817,
      "latitude": 44.800206221489
    },
    {
      "id": "_23",
      "label": "Vinogradska (ulaz)",
      "longitude": 20.3618611611134,
      "latitude": 44.8010032886875
    },
    {
      "id": "_24",
      "label": "Surčinska",
      "longitude": 20.367092552685,
      "latitude": 44.8039745164506
    },
    {
      "id": "_25",
      "label": "Dušana Vukasovića",
      "longitude": 20.3723030905809,
      "latitude": 44.8060910504505
    },
    {
      "id": "_26",
      "label": "OŠ Jovan Sterija Popović",
      "longitude": 20.3767059199884,
      "latitude": 44.8071716122244
    },
    {
      "id": "_27",
      "label": "Dom zdravlja Blok 44",
      "longitude": 20.3826264733544,
      "latitude": 44.7989204652257
    },
    {
      "id": "_28",
      "label": "Blok 44",
      "longitude": 20.3841961040927,
      "latitude": 44.7963190363067
    }
  ]
}