{
  "direction_a": [
    {
      "id": "_1",
      "label": "Добановци /Гробље/",
      "longitude": 20.236304,
      "latitude": 44.837335
    },
    {
      "id": "_2",
      "label": "Добановци /Партизанска/",
      "longitude": 20.232123,
      "latitude": 44.831174
    },
    {
      "id": "_3",
      "label": "Добановци /Земунска/",
      "longitude": 20.228334,
      "latitude": 44.829748
    },
    {
      "id": "_4",
      "label": "Добановци /Центар/",
      "longitude": 20.222657,
      "latitude": 44.828027
    },
    {
      "id": "_5",
      "label": "Добановци /Жарка Јелића/",
      "longitude": 20.219508,
      "latitude": 44.832075
    },
    {
      "id": "_6",
      "label": "Добановци /Словачки Дом/",
      "longitude": 20.21757,
      "latitude": 44.834555
    },
    {
      "id": "_7",
      "label": "Добановци /Фрушкогорска/",
      "longitude": 20.2154,
      "latitude": 44.837852
    },
    {
      "id": "_8",
      "label": "Добановци /Улаз/",
      "longitude": 20.213928,
      "latitude": 44.840308
    },
    {
      "id": "_9",
      "label": "Грмовац /Улаз/",
      "longitude": 20.166459,
      "latitude": 44.855643
    },
    {
      "id": "_10",
      "label": "Грмовац",
      "longitude": 20.161586,
      "latitude": 44.85562
    },
    {
      "id": "_11",
      "label": "Грмовац /Црква/",
      "longitude": 20.156777,
      "latitude": 44.855665
    },
    {
      "id": "_12",
      "label": "Грмовац /25.Нова/",
      "longitude": 20.147287,
      "latitude": 44.855407
    }
  ],
  "direction_b": [
    {
      "id": "_1",
      "label": "Грмовац /25.Нова/",
      "longitude": 20.147287,
      "latitude": 44.855407
    },
    {
      "id": "_2",
      "label": "Грмовац /Црква/",
      "longitude": 20.157128,
      "latitude": 44.855481
    },
    {
      "id": "_3",
      "label": "Грмовац",
      "longitude": 20.161972,
      "latitude": 44.855511
    },
    {
      "id": "_4",
      "label": "Грмовац /Улаз/",
      "longitude": 20.166922,
      "latitude": 44.855546
    },
    {
      "id": "_5",
      "label": "Добановци /Улаз/",
      "longitude": 20.21366,
      "latitude": 44.840467
    },
    {
      "id": "_6",
      "label": "Добановци /Фрушкогорска/",
      "longitude": 20.215192,
      "latitude": 44.837928
    },
    {
      "id": "_7",
      "label": "Добановци /Словачки Дом/",
      "longitude": 20.217412,
      "latitude": 44.834542
    },
    {
      "id": "_8",
      "label": "Добановци /Жарка Јелића/",
      "longitude": 20.219912,
      "latitude": 44.831338
    },
    {
      "id": "_9",
      "label": "Добановци /Центар/",
      "longitude": 20.223782,
      "latitude": 44.827931
    },
    {
      "id": "_10",
      "label": "Добановци /Земунска/",
      "longitude": 20.227627,
      "latitude": 44.829385
    },
    {
      "id": "_11",
      "label": "Добановци /Партизанска/",
      "longitude": 20.232738,
      "latitude": 44.831312
    },
    {
      "id": "_12",
      "label": "Добановци /Гробље/",
      "longitude": 20.236304,
      "latitude": 44.837335
    }
  ]
}