{
  "direction_a": [
    {
      "id": "_1",
      "label": "Kej oslobođenja",
      "longitude": 20.415187272676,
      "latitude": 44.8431131251542
    },
    {
      "id": "_2",
      "label": "22. oktobra",
      "longitude": 20.4112100833161,
      "latitude": 44.8378892786298
    },
    {
      "id": "_3",
      "label": "Džona Kenedija",
      "longitude": 20.4096906443783,
      "latitude": 44.8340674860514
    },
    {
      "id": "_4",
      "label": "Bulevar Maršala Tolbuhina",
      "longitude": 20.4111070310089,
      "latitude": 44.8298414053327
    },
    {
      "id": "_5",
      "label": "Arhiv",
      "longitude": 20.4120381076528,
      "latitude": 44.8270653368328
    },
    {
      "id": "_6",
      "label": "GO Novi Beograd",
      "longitude": 20.4119222276615,
      "latitude": 44.8230221655042
    },
    {
      "id": "_7",
      "label": "Bulevar Zorana Đinđića",
      "longitude": 20.409434007589,
      "latitude": 44.8202501313123
    },
    {
      "id": "_8",
      "label": "Tošin bunar",
      "longitude": 20.3999624583207,
      "latitude": 44.8220350702065
    },
    {
      "id": "_9",
      "label": "Bežanijska kosa",
      "longitude": 20.3888959117271,
      "latitude": 44.827048755914
    },
    {
      "id": "_10",
      "label": "Zmaj",
      "longitude": 20.3702737510677,
      "latitude": 44.8314351530495
    },
    {
      "id": "_11",
      "label": "Grmeč",
      "longitude": 20.3607937600953,
      "latitude": 44.8325616301457
    },
    {
      "id": "_12",
      "label": "Ikarbus",
      "longitude": 20.3471576873892,
      "latitude": 44.8338887168338
    },
    {
      "id": "_13",
      "label": "Naselje Radiofar",
      "longitude": 20.3099851711106,
      "latitude": 44.8344179520836
    },
    {
      "id": "_14",
      "label": "Put za Soko salaš",
      "longitude": 20.2867684050329,
      "latitude": 44.8336458662901
    },
    {
      "id": "_15",
      "label": "Dobanovci (ulaz)",
      "longitude": 20.2136362023358,
      "latitude": 44.8404803135294
    },
    {
      "id": "_16",
      "label": "Fruškogorska",
      "longitude": 20.2151628686123,
      "latitude": 44.8379619279548
    },
    {
      "id": "_17",
      "label": "Slovački dom",
      "longitude": 20.2170484900605,
      "latitude": 44.8350769955099
    },
    {
      "id": "_18",
      "label": "Žarka Jelića",
      "longitude": 20.2192238850183,
      "latitude": 44.8322606017945
    },
    {
      "id": "_19",
      "label": "Dobanovci (centar)",
      "longitude": 20.2237137604068,
      "latitude": 44.8279047572098
    },
    {
      "id": "_20",
      "label": "Zemunska",
      "longitude": 20.2289787824514,
      "latitude": 44.8298751999834
    },
    {
      "id": "_21",
      "label": "Partizanska",
      "longitude": 20.2337567753909,
      "latitude": 44.831977135789
    },
    {
      "id": "_22",
      "label": "Dobanovci (groblje)",
      "longitude": 20.2359949256436,
      "latitude": 44.8364252290671
    }
  ],
  "direction_b": [
    {
      "id": "_1",
      "label": "Dobanovci (groblje)",
      "longitude": 20.2362944088761,
      "latitude": 44.8373109748853
    },
    {
      "id": "_2",
      "label": "Partizanska",
      "longitude": 20.2320376582636,
      "latitude": 44.8311448727147
    },
    {
      "id": "_3",
      "label": "Zemunska",
      "longitude": 20.2283378469199,
      "latitude": 44.8297610913239
    },
    {
      "id": "_4",
      "label": "Dobanovci (centar)",
      "longitude": 20.2224490712667,
      "latitude": 44.8282867596434
    },
    {
      "id": "_5",
      "label": "Žarka Jelića",
      "longitude": 20.2195399289747,
      "latitude": 44.8320827652834
    },
    {
      "id": "_6",
      "label": "Slovački dom",
      "longitude": 20.2175322642321,
      "latitude": 44.8346555247056
    },
    {
      "id": "_7",
      "label": "Fruškogorska",
      "longitude": 20.2155911547732,
      "latitude": 44.8375310859837
    },
    {
      "id": "_8",
      "label": "Dobanovci (ulaz)",
      "longitude": 20.2138887279203,
      "latitude": 44.8403272554713
    },
    {
      "id": "_9",
      "label": "Put za Soko salaš",
      "longitude": 20.2857264565633,
      "latitude": 44.8334233895679
    },
    {
      "id": "_10",
      "label": "Naselje Radiofar",
      "longitude": 20.3110628204363,
      "latitude": 44.8341994470651
    },
    {
      "id": "_11",
      "label": "Ikarbus",
      "longitude": 20.348342772843,
      "latitude": 44.8333248912566
    },
    {
      "id": "_12",
      "label": "Grmeč",
      "longitude": 20.3622169519024,
      "latitude": 44.8321825772601
    },
    {
      "id": "_13",
      "label": "Zmaj",
      "longitude": 20.3717328868403,
      "latitude": 44.8309985821149
    },
    {
      "id": "_14",
      "label": "Bežanijska kosa",
      "longitude": 20.3886733908055,
      "latitude": 44.826563396766
    },
    {
      "id": "_15",
      "label": "Tošin bunar",
      "longitude": 20.3997072113744,
      "latitude": 44.821527962086
    },
    {
      "id": "_16",
      "label": "Bulevar Zorana Đinđića",
      "longitude": 20.4096906040503,
      "latitude": 44.8201344585727
    },
    {
      "id": "_17",
      "label": "GO Novi Beograd",
      "longitude": 20.4126291400749,
      "latitude": 44.8233929676509
    },
    {
      "id": "_18",
      "label": "Arhiv",
      "longitude": 20.4129568170485,
      "latitude": 44.8255041291896
    },
    {
      "id": "_19",
      "label": "Bulevar Maršala Tolbuhina",
      "longitude": 20.4116238752931,
      "latitude": 44.8292572905846
    },
    {
      "id": "_20",
      "label": "Džona Kenedija",
      "longitude": 20.4099547130209,
      "latitude": 44.8342182363595
    },
    {
      "id": "_21",
      "label": "Prve pruge (Retenzija)",
      "longitude": 20.4106030093984,
      "latitude": 44.836887217854
    },
    {
      "id": "_22",
      "label": "22. oktobra",
      "longitude": 20.4129324986627,
      "latitude": 44.8394208199693
    },
    {
      "id": "_23",
      "label": "Zemun (pošta)",
      "longitude": 20.4133320184886,
      "latitude": 44.8421929039194
    },
    {
      "id": "_24",
      "label": "Kej oslobođenja",
      "longitude": 20.415187272676,
      "latitude": 44.8431131251542
    }
  ]
}