{
  "direction_a": [
    {
      "id": "_1",
      "label": "Земун /Ослобођења Кеј/",
      "longitude": 20.415797,
      "latitude": 44.843491
    },
    {
      "id": "_2",
      "label": "22 октобра",
      "longitude": 20.411215,
      "latitude": 44.837909
    },
    {
      "id": "_3",
      "label": "Џона Кенедија",
      "longitude": 20.40969,
      "latitude": 44.834032
    },
    {
      "id": "_4",
      "label": "Маршала Толбухина булевар",
      "longitude": 20.411088,
      "latitude": 44.829865
    },
    {
      "id": "_5",
      "label": "Архив",
      "longitude": 20.412042,
      "latitude": 44.827043
    },
    {
      "id": "_6",
      "label": "ГО Нови Београд",
      "longitude": 20.41197,
      "latitude": 44.823102
    },
    {
      "id": "_7",
      "label": "Зорана Ђинђића булевар",
      "longitude": 20.409494,
      "latitude": 44.820368
    },
    {
      "id": "_8",
      "label": "Тошин Бунар",
      "longitude": 20.400103,
      "latitude": 44.821976
    },
    {
      "id": "_9",
      "label": "Бежанијска Коса",
      "longitude": 20.388945,
      "latitude": 44.827034
    },
    {
      "id": "_10",
      "label": "Змај",
      "longitude": 20.371554,
      "latitude": 44.831237
    },
    {
      "id": "_11",
      "label": "Грмеч",
      "longitude": 20.359192,
      "latitude": 44.832753
    },
    {
      "id": "_12",
      "label": "Икарбус",
      "longitude": 20.347298,
      "latitude": 44.833877
    },
    {
      "id": "_13",
      "label": "Насеље Радиофар",
      "longitude": 20.309989,
      "latitude": 44.834479
    },
    {
      "id": "_14",
      "label": "Пут за Соко Салаш",
      "longitude": 20.286726,
      "latitude": 44.833695
    },
    {
      "id": "_15",
      "label": "Добановци /Улаз/",
      "longitude": 20.21366,
      "latitude": 44.840467
    },
    {
      "id": "_16",
      "label": "Добановци /Фрушкогорска/",
      "longitude": 20.215192,
      "latitude": 44.837928
    },
    {
      "id": "_17",
      "label": "Добановци /Словачки Дом/",
      "longitude": 20.217412,
      "latitude": 44.834542
    },
    {
      "id": "_18",
      "label": "Добановци /Жарка Јелића/",
      "longitude": 20.219912,
      "latitude": 44.831338
    },
    {
      "id": "_19",
      "label": "Добановци /Центар/",
      "longitude": 20.223782,
      "latitude": 44.827931
    },
    {
      "id": "_20",
      "label": "Добановци /Земунска/",
      "longitude": 20.227627,
      "latitude": 44.829385
    },
    {
      "id": "_21",
      "label": "Добановци /Партизанска/",
      "longitude": 20.232738,
      "latitude": 44.831312
    },
    {
      "id": "_22",
      "label": "Добановци /Гробље/",
      "longitude": 20.236304,
      "latitude": 44.837335
    }
  ],
  "direction_b": [
    {
      "id": "_1",
      "label": "Добановци /Гробље/",
      "longitude": 20.236304,
      "latitude": 44.837335
    },
    {
      "id": "_2",
      "label": "Добановци /Партизанска/",
      "longitude": 20.232123,
      "latitude": 44.831174
    },
    {
      "id": "_3",
      "label": "Добановци /Земунска/",
      "longitude": 20.228334,
      "latitude": 44.829748
    },
    {
      "id": "_4",
      "label": "Добановци /Центар/",
      "longitude": 20.222657,
      "latitude": 44.828027
    },
    {
      "id": "_5",
      "label": "Добановци /Жарка Јелића/",
      "longitude": 20.219508,
      "latitude": 44.832075
    },
    {
      "id": "_6",
      "label": "Добановци /Словачки Дом/",
      "longitude": 20.21757,
      "latitude": 44.834555
    },
    {
      "id": "_7",
      "label": "Добановци /Фрушкогорска/",
      "longitude": 20.2154,
      "latitude": 44.837852
    },
    {
      "id": "_8",
      "label": "Добановци /Улаз/",
      "longitude": 20.213928,
      "latitude": 44.840308
    },
    {
      "id": "_9",
      "label": "Пут за Соко Салаш",
      "longitude": 20.284552,
      "latitude": 44.833343
    },
    {
      "id": "_10",
      "label": "Насеље Радиофар",
      "longitude": 20.311883,
      "latitude": 44.8342
    },
    {
      "id": "_11",
      "label": "Икарбус",
      "longitude": 20.348368,
      "latitude": 44.833355
    },
    {
      "id": "_12",
      "label": "Грмеч",
      "longitude": 20.359336,
      "latitude": 44.832476
    },
    {
      "id": "_13",
      "label": "Змај",
      "longitude": 20.371626,
      "latitude": 44.830919
    },
    {
      "id": "_14",
      "label": "Бежанијска Коса",
      "longitude": 20.388686,
      "latitude": 44.826566
    },
    {
      "id": "_15",
      "label": "Тошин Бунар",
      "longitude": 20.399688,
      "latitude": 44.821541
    },
    {
      "id": "_16",
      "label": "Зорана Ђинђића булевар",
      "longitude": 20.409686,
      "latitude": 44.82009
    },
    {
      "id": "_17",
      "label": "ГО Нови Београд",
      "longitude": 20.412692,
      "latitude": 44.823399
    },
    {
      "id": "_18",
      "label": "Архив",
      "longitude": 20.413009,
      "latitude": 44.825508
    },
    {
      "id": "_19",
      "label": "Маршала Толбухина булевар",
      "longitude": 20.411675,
      "latitude": 44.829221
    },
    {
      "id": "_20",
      "label": "Џона Кенедија",
      "longitude": 20.410005,
      "latitude": 44.834184
    },
    {
      "id": "_21",
      "label": "Прве пруге ретензија",
      "longitude": 20.410549,
      "latitude": 44.836707
    },
    {
      "id": "_22",
      "label": "Пољопривредни факултет",
      "longitude": 20.412922,
      "latitude": 44.839425
    },
    {
      "id": "_23",
      "label": "Земун /Ослобођења Кеј/",
      "longitude": 20.415797,
      "latitude": 44.843491
    }
  ]
}