{
  "direction_a": [
    {
      "id": "_1",
      "label": "Zvezdara 2",
      "longitude": 20.5096137333346,
      "latitude": 44.8068753431542
    },
    {
      "id": "_2",
      "label": "Institut Mihajlo Pupin",
      "longitude": 20.5060305623357,
      "latitude": 44.8081271149693
    },
    {
      "id": "_3",
      "label": "Volgina",
      "longitude": 20.5031378786061,
      "latitude": 44.8087427982268
    },
    {
      "id": "_4",
      "label": "Dragiše Lapčevića",
      "longitude": 20.4986082201566,
      "latitude": 44.8091820783345
    },
    {
      "id": "_5",
      "label": "Zvezdarskih jelki",
      "longitude": 20.4953929962896,
      "latitude": 44.8087810090306
    },
    {
      "id": "_6",
      "label": "Ljubice Luković",
      "longitude": 20.493681324154,
      "latitude": 44.8081921016566
    },
    {
      "id": "_7",
      "label": "Pante Srećkovića",
      "longitude": 20.4938866067247,
      "latitude": 44.8063931004817
    },
    {
      "id": "_8",
      "label": "Veljka Dugoševića",
      "longitude": 20.4924069397001,
      "latitude": 44.805303022458
    },
    {
      "id": "_9",
      "label": "Toplička",
      "longitude": 20.4901367759814,
      "latitude": 44.8058545314381
    },
    {
      "id": "_10",
      "label": "Braće Ribnikar",
      "longitude": 20.4844339566731,
      "latitude": 44.8083075271765
    },
    {
      "id": "_11",
      "label": "Dalmatinska",
      "longitude": 20.480615642886,
      "latitude": 44.8072229663571
    },
    {
      "id": "_12",
      "label": "Mašinski fakultet",
      "longitude": 20.4773121674271,
      "latitude": 44.8076651445898
    },
    {
      "id": "_13",
      "label": "Palilulska pijaca",
      "longitude": 20.4748550255486,
      "latitude": 44.8104167826562
    },
    {
      "id": "_14",
      "label": "Politika",
      "longitude": 20.4648436112707,
      "latitude": 44.8154822604605
    },
    {
      "id": "_15",
      "label": "Zeleni venac",
      "longitude": 20.4568371536344,
      "latitude": 44.8144582924763
    },
    {
      "id": "_16",
      "label": "Brankov most",
      "longitude": 20.4522002771838,
      "latitude": 44.8151886080544
    },
    {
      "id": "_17",
      "label": "Šest kaplara",
      "longitude": 20.4334922138324,
      "latitude": 44.8152633463044
    },
    {
      "id": "_18",
      "label": "Palata Srbija",
      "longitude": 20.4295837328162,
      "latitude": 44.816975485622
    },
    {
      "id": "_19",
      "label": "Španskih boraca",
      "longitude": 20.4233603118083,
      "latitude": 44.8197882167728
    },
    {
      "id": "_20",
      "label": "Blok 30",
      "longitude": 20.4165827290295,
      "latitude": 44.8228227777265
    },
    {
      "id": "_21",
      "label": "Ulaz u Pariske komune",
      "longitude": 20.4119895565675,
      "latitude": 44.8248656094871
    },
    {
      "id": "_22",
      "label": "Fontana",
      "longitude": 20.408274243995,
      "latitude": 44.8256132599792
    },
    {
      "id": "_23",
      "label": "Uprava carine",
      "longitude": 20.4054234511669,
      "latitude": 44.8224432901821
    },
    {
      "id": "_24",
      "label": "Autoput",
      "longitude": 20.4023097104183,
      "latitude": 44.8190522893598
    },
    {
      "id": "_25",
      "label": "Narodnih heroja",
      "longitude": 20.3996926961895,
      "latitude": 44.8175483016314
    },
    {
      "id": "_26",
      "label": "Železnička stanica Tošin bunar",
      "longitude": 20.3950441292173,
      "latitude": 44.8171224968428
    },
    {
      "id": "_27",
      "label": "Generala Nedeljkovića",
      "longitude": 20.3889763275072,
      "latitude": 44.8170003330754
    },
    {
      "id": "_28",
      "label": "Nikole Dobrovića",
      "longitude": 20.3846246013936,
      "latitude": 44.8188813611224
    },
    {
      "id": "_29",
      "label": "Dr Huga Klajna",
      "longitude": 20.3812427971832,
      "latitude": 44.8198981075577
    },
    {
      "id": "_30",
      "label": "Bežanijska kosa (izlaz)",
      "longitude": 20.3778592872527,
      "latitude": 44.8205907620209
    },
    {
      "id": "_31",
      "label": "Novo Bežanijsko groblje",
      "longitude": 20.3641567575132,
      "latitude": 44.8222759015632
    }
  ],
  "direction_b": [
    {
      "id": "_1",
      "label": "Novo Bežanijsko groblje",
      "longitude": 20.3641754182227,
      "latitude": 44.8219574224523
    },
    {
      "id": "_2",
      "label": "Bežanijska kosa (ulaz)",
      "longitude": 20.375949122658,
      "latitude": 44.8206667778483
    },
    {
      "id": "_3",
      "label": "Dr Huga Klajna",
      "longitude": 20.3795897282646,
      "latitude": 44.820056566852
    },
    {
      "id": "_4",
      "label": "Marka Čelebonovića",
      "longitude": 20.3828784712497,
      "latitude": 44.819233758115
    },
    {
      "id": "_5",
      "label": "Nikole Dobrovića",
      "longitude": 20.3861960216156,
      "latitude": 44.8180690271801
    },
    {
      "id": "_6",
      "label": "Generala Nedeljkovića",
      "longitude": 20.3890347208839,
      "latitude": 44.8167378582987
    },
    {
      "id": "_7",
      "label": "Železnička stanica Tošin bunar",
      "longitude": 20.3953373586664,
      "latitude": 44.8168900558092
    },
    {
      "id": "_8",
      "label": "Blok 37",
      "longitude": 20.4013267418582,
      "latitude": 44.8177512324783
    },
    {
      "id": "_9",
      "label": "Autoput",
      "longitude": 20.4030319389613,
      "latitude": 44.8196446189949
    },
    {
      "id": "_10",
      "label": "Uprava carine",
      "longitude": 20.4050404174356,
      "latitude": 44.8218149380681
    },
    {
      "id": "_11",
      "label": "Bulevar Zorana Đinđića",
      "longitude": 20.4065156564754,
      "latitude": 44.8234658913511
    },
    {
      "id": "_12",
      "label": "Fontana",
      "longitude": 20.4094089526943,
      "latitude": 44.8257001039461
    },
    {
      "id": "_13",
      "label": "GO Novi Beograd",
      "longitude": 20.4143294950621,
      "latitude": 44.8235618536657
    },
    {
      "id": "_14",
      "label": "Blok 30",
      "longitude": 20.4184323780619,
      "latitude": 44.821719831442
    },
    {
      "id": "_15",
      "label": "Španskih boraca",
      "longitude": 20.4232029819831,
      "latitude": 44.8195876365891
    },
    {
      "id": "_16",
      "label": "Palata Srbija",
      "longitude": 20.4287330074861,
      "latitude": 44.8170828462379
    },
    {
      "id": "_17",
      "label": "Šest kaplara",
      "longitude": 20.4332232174972,
      "latitude": 44.8151018261611
    },
    {
      "id": "_18",
      "label": "Brankov most",
      "longitude": 20.4526067155746,
      "latitude": 44.8149925584042
    },
    {
      "id": "_19",
      "label": "Zeleni venac",
      "longitude": 20.4568381962374,
      "latitude": 44.8143467033491
    },
    {
      "id": "_20",
      "label": "Politika",
      "longitude": 20.4652170878748,
      "latitude": 44.8152914119183
    },
    {
      "id": "_21",
      "label": "Palilulska pijaca",
      "longitude": 20.4744349063776,
      "latitude": 44.8104598570345
    },
    {
      "id": "_22",
      "label": "Mašinski fakultet",
      "longitude": 20.476835962319,
      "latitude": 44.8077619695552
    },
    {
      "id": "_23",
      "label": "Dalmatinska",
      "longitude": 20.4802461581991,
      "latitude": 44.8066957208867
    },
    {
      "id": "_24",
      "label": "Braće Ribnikar",
      "longitude": 20.4839245386133,
      "latitude": 44.8084438304238
    },
    {
      "id": "_25",
      "label": "Veljka Dugoševića",
      "longitude": 20.4912996318641,
      "latitude": 44.8052945203722
    },
    {
      "id": "_26",
      "label": "Pante Srećkovića",
      "longitude": 20.4940659145766,
      "latitude": 44.8061257048583
    },
    {
      "id": "_27",
      "label": "Ljubice Luković",
      "longitude": 20.4938603253771,
      "latitude": 44.8079607032141
    },
    {
      "id": "_28",
      "label": "Zvezdarskih jelki",
      "longitude": 20.4963208138692,
      "latitude": 44.8087940836657
    },
    {
      "id": "_29",
      "label": "Dragiše Lapčevića",
      "longitude": 20.4996674416578,
      "latitude": 44.8092046992113
    },
    {
      "id": "_30",
      "label": "Volgina",
      "longitude": 20.5026217460499,
      "latitude": 44.8087819608816
    },
    {
      "id": "_31",
      "label": "Institut Mihajlo Pupin",
      "longitude": 20.5066248462811,
      "latitude": 44.8075177024861
    },
    {
      "id": "_32",
      "label": "Zvezdara 2",
      "longitude": 20.509303867056,
      "latitude": 44.8067426258964
    }
  ]
}