{
  "direction_a": [
    {
      "id": "_1",
      "label": "Звездара 2",
      "longitude": 20.509519,
      "latitude": 44.806895
    },
    {
      "id": "_2",
      "label": "Институт Михајло Пупин",
      "longitude": 20.506075,
      "latitude": 44.808097
    },
    {
      "id": "_3",
      "label": "Волгина",
      "longitude": 20.503225,
      "latitude": 44.80872
    },
    {
      "id": "_4",
      "label": "Драгише Лапчевића",
      "longitude": 20.498744,
      "latitude": 44.809189
    },
    {
      "id": "_5",
      "label": "Љубице Луковић",
      "longitude": 20.493703,
      "latitude": 44.808217
    },
    {
      "id": "_6",
      "label": "Панте Срећковића",
      "longitude": 20.49386,
      "latitude": 44.806418
    },
    {
      "id": "_7",
      "label": "Вељка Дугошевића",
      "longitude": 20.492542,
      "latitude": 44.805333
    },
    {
      "id": "_8",
      "label": "Топличка",
      "longitude": 20.490221,
      "latitude": 44.805836
    },
    {
      "id": "_9",
      "label": "Браће Рибникар",
      "longitude": 20.484519,
      "latitude": 44.80826
    },
    {
      "id": "_10",
      "label": "Далматинска",
      "longitude": 20.480474,
      "latitude": 44.807116
    },
    {
      "id": "_11",
      "label": "Машински Факултет",
      "longitude": 20.477381,
      "latitude": 44.807561
    },
    {
      "id": "_12",
      "label": "Палилулска Пијаца",
      "longitude": 20.474696,
      "latitude": 44.810584
    },
    {
      "id": "_13",
      "label": "Македонска /Политика/",
      "longitude": 20.464989,
      "latitude": 44.815456
    },
    {
      "id": "_14",
      "label": "Зелени венац",
      "longitude": 20.457023,
      "latitude": 44.814487
    },
    {
      "id": "_15",
      "label": "Бранков мост",
      "longitude": 20.452342,
      "latitude": 44.815215
    },
    {
      "id": "_16",
      "label": "Шест Каплара",
      "longitude": 20.433531,
      "latitude": 44.81528
    },
    {
      "id": "_17",
      "label": "Палата Србија",
      "longitude": 20.429702,
      "latitude": 44.816954
    },
    {
      "id": "_18",
      "label": "Шпанских Бораца",
      "longitude": 20.423451,
      "latitude": 44.819767
    },
    {
      "id": "_19",
      "label": "Блок 30",
      "longitude": 20.416628,
      "latitude": 44.822841
    },
    {
      "id": "_20",
      "label": "Улаз у Париске Комуне",
      "longitude": 20.412174,
      "latitude": 44.824819
    },
    {
      "id": "_21",
      "label": "Фонтана",
      "longitude": 20.408282,
      "latitude": 44.825628
    },
    {
      "id": "_22",
      "label": "Управа Царине",
      "longitude": 20.405401,
      "latitude": 44.822441
    },
    {
      "id": "_23",
      "label": "Аутопут",
      "longitude": 20.402319,
      "latitude": 44.819034
    },
    {
      "id": "_24",
      "label": "Народних Хероја",
      "longitude": 20.399829,
      "latitude": 44.817504
    },
    {
      "id": "_25",
      "label": "Железничка Станица Тошин Бунар",
      "longitude": 20.395056,
      "latitude": 44.817184
    },
    {
      "id": "_26",
      "label": "Генерала Недељковића",
      "longitude": 20.389061,
      "latitude": 44.817015
    },
    {
      "id": "_27",
      "label": "Николе Добровића",
      "longitude": 20.384681,
      "latitude": 44.818887
    },
    {
      "id": "_28",
      "label": "Др Хуга Клајна",
      "longitude": 20.381233,
      "latitude": 44.819916
    },
    {
      "id": "_29",
      "label": "Бежанијска Коса /Излаз/",
      "longitude": 20.378035,
      "latitude": 44.820569
    },
    {
      "id": "_30",
      "label": "Ново Бежанијско Гробље",
      "longitude": 20.364164,
      "latitude": 44.822258
    }
  ],
  "direction_b": [
    {
      "id": "_1",
      "label": "Ново Бежанијско Гробље",
      "longitude": 20.364042,
      "latitude": 44.821954
    },
    {
      "id": "_2",
      "label": "Бежанијска Коса /Излаз/",
      "longitude": 20.376003,
      "latitude": 44.820646
    },
    {
      "id": "_3",
      "label": "Др Хуга Клајна",
      "longitude": 20.379572,
      "latitude": 44.820023
    },
    {
      "id": "_4",
      "label": "Марка Челебоновића",
      "longitude": 20.382865,
      "latitude": 44.819195
    },
    {
      "id": "_5",
      "label": "Николе Добровића",
      "longitude": 20.386197,
      "latitude": 44.818022
    },
    {
      "id": "_6",
      "label": "Генерала Недељковића",
      "longitude": 20.389008,
      "latitude": 44.81676
    },
    {
      "id": "_7",
      "label": "Железничка Станица Тошин Бунар",
      "longitude": 20.395311,
      "latitude": 44.816818
    },
    {
      "id": "_8",
      "label": "Блок 37",
      "longitude": 20.401377,
      "latitude": 44.817686
    },
    {
      "id": "_9",
      "label": "Аутопут",
      "longitude": 20.403083,
      "latitude": 44.819604
    },
    {
      "id": "_10",
      "label": "Управа Царине",
      "longitude": 20.405083,
      "latitude": 44.821812
    },
    {
      "id": "_11",
      "label": "Фонтана",
      "longitude": 20.40947,
      "latitude": 44.825671
    },
    {
      "id": "_12",
      "label": "ГО Нови Београд",
      "longitude": 20.414298,
      "latitude": 44.823536
    },
    {
      "id": "_13",
      "label": "Блок 30",
      "longitude": 20.418549,
      "latitude": 44.821665
    },
    {
      "id": "_14",
      "label": "Шпанских Бораца",
      "longitude": 20.423156,
      "latitude": 44.819593
    },
    {
      "id": "_15",
      "label": "Палата Србија",
      "longitude": 20.428727,
      "latitude": 44.817077
    },
    {
      "id": "_16",
      "label": "Шест Каплара",
      "longitude": 20.43321,
      "latitude": 44.815106
    },
    {
      "id": "_17",
      "label": "Бранков мост",
      "longitude": 20.452631,
      "latitude": 44.814962
    },
    {
      "id": "_18",
      "label": "Зелени венац",
      "longitude": 20.456666,
      "latitude": 44.814357
    },
    {
      "id": "_19",
      "label": "Македонска /Политика/",
      "longitude": 20.465155,
      "latitude": 44.815233
    },
    {
      "id": "_20",
      "label": "Палилулска Пијаца",
      "longitude": 20.474163,
      "latitude": 44.810844
    },
    {
      "id": "_21",
      "label": "Машински Факултет",
      "longitude": 20.477037,
      "latitude": 44.807615
    },
    {
      "id": "_22",
      "label": "Далматинска",
      "longitude": 20.480195,
      "latitude": 44.806702
    },
    {
      "id": "_23",
      "label": "Браће Рибникар",
      "longitude": 20.483927,
      "latitude": 44.808471
    },
    {
      "id": "_24",
      "label": "Вељка Дугошевића",
      "longitude": 20.491282,
      "latitude": 44.805319
    },
    {
      "id": "_25",
      "label": "Панте Срећковића",
      "longitude": 20.494094,
      "latitude": 44.806192
    },
    {
      "id": "_26",
      "label": "Љубице Луковић",
      "longitude": 20.493915,
      "latitude": 44.807959
    },
    {
      "id": "_27",
      "label": "Драгише Лапчевића",
      "longitude": 20.499694,
      "latitude": 44.80922
    },
    {
      "id": "_28",
      "label": "Волгина",
      "longitude": 20.502648,
      "latitude": 44.808773
    },
    {
      "id": "_29",
      "label": "Институт Михајло Пупин",
      "longitude": 20.506651,
      "latitude": 44.807546
    },
    {
      "id": "_30",
      "label": "Звездара 2",
      "longitude": 20.509328,
      "latitude": 44.806765
    },
    {
      "id": "_31",
      "label": "Звездара 2",
      "longitude": 20.509519,
      "latitude": 44.806895
    }
  ]
}