{
  "direction_a": [
    {
      "id": "_1",
      "label": "Вуков Споменик",
      "longitude": 20.47948,
      "latitude": 44.804889
    },
    {
      "id": "_2",
      "label": "ГО Звездара",
      "longitude": 20.482477,
      "latitude": 44.802328
    },
    {
      "id": "_3",
      "label": "Пијаца Стари Ђерам",
      "longitude": 20.487335,
      "latitude": 44.800308
    },
    {
      "id": "_4",
      "label": "Поп Стојанова",
      "longitude": 20.491496,
      "latitude": 44.798574
    },
    {
      "id": "_5",
      "label": "Лион",
      "longitude": 20.495341,
      "latitude": 44.796936
    },
    {
      "id": "_6",
      "label": "Батутова",
      "longitude": 20.499434,
      "latitude": 44.795155
    },
    {
      "id": "_7",
      "label": "Пијаца Звездара",
      "longitude": 20.504835,
      "latitude": 44.793067
    },
    {
      "id": "_8",
      "label": "Др Велизара Косановића",
      "longitude": 20.509005,
      "latitude": 44.79249
    },
    {
      "id": "_9",
      "label": "Мите Ружића",
      "longitude": 20.513398,
      "latitude": 44.790568
    },
    {
      "id": "_10",
      "label": "Косте Трифковића",
      "longitude": 20.51623,
      "latitude": 44.788715
    },
    {
      "id": "_11",
      "label": "Устаничка",
      "longitude": 20.517387,
      "latitude": 44.784693
    }
  ],
  "direction_b": [
    {
      "id": "_1",
      "label": "Устаничка",
      "longitude": 20.517384,
      "latitude": 44.784813
    },
    {
      "id": "_2",
      "label": "Косте Трифковића",
      "longitude": 20.515961,
      "latitude": 44.789267
    },
    {
      "id": "_3",
      "label": "Мите Ружића",
      "longitude": 20.512963,
      "latitude": 44.790948
    },
    {
      "id": "_4",
      "label": "Др Велизара Косановића",
      "longitude": 20.510904,
      "latitude": 44.791944
    },
    {
      "id": "_5",
      "label": "Пијаца Звездара",
      "longitude": 20.504859,
      "latitude": 44.793244
    },
    {
      "id": "_6",
      "label": "Батутова",
      "longitude": 20.499797,
      "latitude": 44.79536
    },
    {
      "id": "_7",
      "label": "Лион",
      "longitude": 20.494668,
      "latitude": 44.797546
    },
    {
      "id": "_8",
      "label": "Поп Стојанова",
      "longitude": 20.489963,
      "latitude": 44.799524
    },
    {
      "id": "_9",
      "label": "Пијаца Стари Ђерам",
      "longitude": 20.486242,
      "latitude": 44.801074
    },
    {
      "id": "_10",
      "label": "ГО Звездара",
      "longitude": 20.482458,
      "latitude": 44.802643
    },
    {
      "id": "_11",
      "label": "Вуков Споменик",
      "longitude": 20.47948,
      "latitude": 44.804889
    }
  ]
}