{
  "direction_a": [
    {
      "id": "_1",
      "label": "Бежанијска Коса",
      "longitude": 20.362961,
      "latitude": 44.807929
    },
    {
      "id": "_2",
      "label": "Магеланова",
      "longitude": 20.365487,
      "latitude": 44.808696
    },
    {
      "id": "_3",
      "label": "Милана Вујаклије",
      "longitude": 20.368345,
      "latitude": 44.810452
    },
    {
      "id": "_4",
      "label": "Марка Ристића",
      "longitude": 20.371318,
      "latitude": 44.8125
    },
    {
      "id": "_5",
      "label": "Љубинке Бобић",
      "longitude": 20.374658,
      "latitude": 44.81527
    },
    {
      "id": "_6",
      "label": "Пеђе Милосављевића",
      "longitude": 20.377003,
      "latitude": 44.817809
    },
    {
      "id": "_7",
      "label": "Др Хуга Клајна",
      "longitude": 20.379572,
      "latitude": 44.820023
    },
    {
      "id": "_8",
      "label": "Марка Челебоновића",
      "longitude": 20.382865,
      "latitude": 44.819195
    },
    {
      "id": "_9",
      "label": "Николе Добровића",
      "longitude": 20.386197,
      "latitude": 44.818022
    },
    {
      "id": "_10",
      "label": "Генерала Недељковића",
      "longitude": 20.389008,
      "latitude": 44.81676
    },
    {
      "id": "_11",
      "label": "Железничка Станица Тошин Бунар",
      "longitude": 20.395311,
      "latitude": 44.816818
    },
    {
      "id": "_12",
      "label": "Милутина Миланковића",
      "longitude": 20.396229,
      "latitude": 44.820269
    },
    {
      "id": "_13",
      "label": "Студентски Град",
      "longitude": 20.398985,
      "latitude": 44.826272
    },
    {
      "id": "_14",
      "label": "Народних Хероја",
      "longitude": 20.40685,
      "latitude": 44.822562
    },
    {
      "id": "_15",
      "label": "Црква Светог Димитрија",
      "longitude": 20.411475,
      "latitude": 44.820452
    },
    {
      "id": "_16",
      "label": "Уметности булевар",
      "longitude": 20.415443,
      "latitude": 44.818618
    },
    {
      "id": "_17",
      "label": "Београдска Арена",
      "longitude": 20.419275,
      "latitude": 44.814507
    },
    {
      "id": "_18",
      "label": "Београдска Арена (Антифашистичке Борбе)",
      "longitude": 20.422468,
      "latitude": 44.811108
    },
    {
      "id": "_19",
      "label": "Сава центар",
      "longitude": 20.431066,
      "latitude": 44.807169
    },
    {
      "id": "_20",
      "label": "Мостар",
      "longitude": 20.450497,
      "latitude": 44.797577
    },
    {
      "id": "_21",
      "label": "Делиградска",
      "longitude": 20.457354,
      "latitude": 44.795328
    },
    {
      "id": "_22",
      "label": "Франше Д'Епереа",
      "longitude": 20.466418,
      "latitude": 44.791518
    },
    {
      "id": "_23",
      "label": "Топлице Милана",
      "longitude": 20.498253,
      "latitude": 44.780739
    },
    {
      "id": "_24",
      "label": "Погон Космај",
      "longitude": 20.517934,
      "latitude": 44.771691
    },
    {
      "id": "_25",
      "label": "Траншпед",
      "longitude": 20.576179,
      "latitude": 44.703829
    },
    {
      "id": "_26",
      "label": "Аструд Линдгрен",
      "longitude": 20.572507,
      "latitude": 44.70359
    },
    {
      "id": "_27",
      "label": "IKEA",
      "longitude": 20.561369,
      "latitude": 44.709795
    }
  ],
  "direction_b": [
    {
      "id": "_1",
      "label": "IKEA",
      "longitude": 20.561369,
      "latitude": 44.709795
    },
    {
      "id": "_2",
      "label": "Траншпед",
      "longitude": 20.576179,
      "latitude": 44.703829
    },
    {
      "id": "_3",
      "label": "СП Ласта",
      "longitude": 20.518389,
      "latitude": 44.771802
    },
    {
      "id": "_4",
      "label": "Владимира Томановића",
      "longitude": 20.500362,
      "latitude": 44.781482
    },
    {
      "id": "_5",
      "label": "Дом Здравља Вождовац",
      "longitude": 20.473891,
      "latitude": 44.787634
    },
    {
      "id": "_6",
      "label": "Франше Д'Епереа",
      "longitude": 20.468254,
      "latitude": 44.790876
    },
    {
      "id": "_7",
      "label": "Делиградска",
      "longitude": 20.457582,
      "latitude": 44.795793
    },
    {
      "id": "_8",
      "label": "Мостар",
      "longitude": 20.450743,
      "latitude": 44.797795
    },
    {
      "id": "_9",
      "label": "Сава центар",
      "longitude": 20.431435,
      "latitude": 44.807619
    },
    {
      "id": "_10",
      "label": "Београдска Арена (Антифашистичке Борбе)",
      "longitude": 20.42257,
      "latitude": 44.811682
    },
    {
      "id": "_11",
      "label": "Београдска Арена",
      "longitude": 20.420243,
      "latitude": 44.815187
    },
    {
      "id": "_12",
      "label": "Београдска Арена",
      "longitude": 20.420471,
      "latitude": 44.816811
    },
    {
      "id": "_13",
      "label": "Уметности булевар",
      "longitude": 20.413618,
      "latitude": 44.81993
    },
    {
      "id": "_14",
      "label": "Народних Хероја",
      "longitude": 20.405556,
      "latitude": 44.823624
    },
    {
      "id": "_15",
      "label": "Студентски Град",
      "longitude": 20.397825,
      "latitude": 44.826127
    },
    {
      "id": "_16",
      "label": "СЦ Визура",
      "longitude": 20.39605,
      "latitude": 44.820912
    },
    {
      "id": "_17",
      "label": "Железничка Станица Тошин Бунар",
      "longitude": 20.395056,
      "latitude": 44.817184
    },
    {
      "id": "_18",
      "label": "Генерала Недељковића",
      "longitude": 20.389061,
      "latitude": 44.817015
    },
    {
      "id": "_19",
      "label": "Николе Добровића",
      "longitude": 20.384681,
      "latitude": 44.818887
    },
    {
      "id": "_20",
      "label": "Др Хуга Клајна",
      "longitude": 20.381233,
      "latitude": 44.819916
    },
    {
      "id": "_21",
      "label": "Пеђе Милосављевића",
      "longitude": 20.377241,
      "latitude": 44.818302
    },
    {
      "id": "_22",
      "label": "Љубинке Бобић",
      "longitude": 20.373596,
      "latitude": 44.814532
    },
    {
      "id": "_23",
      "label": "Марка Ристића",
      "longitude": 20.370513,
      "latitude": 44.812145
    },
    {
      "id": "_24",
      "label": "Милана Вујаклије",
      "longitude": 20.367604,
      "latitude": 44.810142
    },
    {
      "id": "_25",
      "label": "Магеланова",
      "longitude": 20.364791,
      "latitude": 44.808505
    },
    {
      "id": "_26",
      "label": "Бежанијска Коса",
      "longitude": 20.363143,
      "latitude": 44.808284
    },
    {
      "id": "_27",
      "label": "Бежанијска Коса",
      "longitude": 20.362961,
      "latitude": 44.807929
    }
  ]
}