{
  "direction_a": [
    {
      "id": "_1",
      "label": "Bežanijska kosa",
      "longitude": 20.3629099828965,
      "latitude": 44.807977744453
    },
    {
      "id": "_2",
      "label": "Magelanova",
      "longitude": 20.3654305309729,
      "latitude": 44.8086954849317
    },
    {
      "id": "_3",
      "label": "Milana Vujaklije",
      "longitude": 20.3683518676013,
      "latitude": 44.8104629231948
    },
    {
      "id": "_4",
      "label": "Marka Ristića",
      "longitude": 20.3713206990743,
      "latitude": 44.8125311306877
    },
    {
      "id": "_5",
      "label": "Ljubinke Bobić",
      "longitude": 20.3747217064913,
      "latitude": 44.8153449780179
    },
    {
      "id": "_6",
      "label": "Peđe Milosavljevića",
      "longitude": 20.3770113689394,
      "latitude": 44.8178287077819
    },
    {
      "id": "_7",
      "label": "Dr Huga Klajna",
      "longitude": 20.3795897282646,
      "latitude": 44.820056566852
    },
    {
      "id": "_8",
      "label": "Marka Čelebonovića",
      "longitude": 20.3828784712497,
      "latitude": 44.819233758115
    },
    {
      "id": "_9",
      "label": "Nikole Dobrovića",
      "longitude": 20.3861960216156,
      "latitude": 44.8180690271801
    },
    {
      "id": "_10",
      "label": "Generala Nedeljkovića",
      "longitude": 20.3890347208839,
      "latitude": 44.8167378582987
    },
    {
      "id": "_11",
      "label": "Železnička stanica Tošin bunar",
      "longitude": 20.3953373586664,
      "latitude": 44.8168900558092
    },
    {
      "id": "_12",
      "label": "Milutina Milankovića",
      "longitude": 20.3962247743002,
      "latitude": 44.8203145464976
    },
    {
      "id": "_13",
      "label": "Studentski grad",
      "longitude": 20.3991145103976,
      "latitude": 44.8262621981325
    },
    {
      "id": "_14",
      "label": "Narodnih heroja",
      "longitude": 20.4068354807409,
      "latitude": 44.8226089928459
    },
    {
      "id": "_15",
      "label": "Crkva Svetog Dimitrija",
      "longitude": 20.4115992131335,
      "latitude": 44.8204556487537
    },
    {
      "id": "_16",
      "label": "Bulevar umetnosti",
      "longitude": 20.4153473421191,
      "latitude": 44.8186713127311
    },
    {
      "id": "_17",
      "label": "Beogradska arena",
      "longitude": 20.4192907313359,
      "latitude": 44.8145317677931
    },
    {
      "id": "_18",
      "label": "Beogradska arena (Antifašističke borbe)",
      "longitude": 20.4225797313787,
      "latitude": 44.8110493567159
    },
    {
      "id": "_19",
      "label": "Sava centar",
      "longitude": 20.4310428058399,
      "latitude": 44.8071624502829
    },
    {
      "id": "_20",
      "label": "Mostar",
      "longitude": 20.450601984349,
      "latitude": 44.7975436797197
    },
    {
      "id": "_21",
      "label": "Deligradska",
      "longitude": 20.457407735647,
      "latitude": 44.7953153789886
    },
    {
      "id": "_22",
      "label": "Franše D'Eperea",
      "longitude": 20.4664495230787,
      "latitude": 44.7914861699274
    },
    {
      "id": "_23",
      "label": "Toplice Milana",
      "longitude": 20.4981507045294,
      "latitude": 44.7807324949586
    },
    {
      "id": "_24",
      "label": "Pogon Kosmaj",
      "longitude": 20.5178666704556,
      "latitude": 44.7717220150215
    },
    {
      "id": "_25",
      "label": "Tranšped",
      "longitude": 20.5723906411889,
      "latitude": 44.7037386762859
    },
    {
      "id": "_26",
      "label": "IKEA",
      "longitude": 20.561656194545,
      "latitude": 44.7095282191039
    }
  ],
  "direction_b": [
    {
      "id": "_1",
      "label": "IKEA",
      "longitude": 20.561656194545,
      "latitude": 44.7095282191039
    },
    {
      "id": "_2",
      "label": "Tranšped",
      "longitude": 20.5761982772002,
      "latitude": 44.7038553810673
    },
    {
      "id": "_3",
      "label": "SP Lasta",
      "longitude": 20.5184292058015,
      "latitude": 44.7718359708436
    },
    {
      "id": "_4",
      "label": "Vladimira Tomanovića",
      "longitude": 20.5005378495837,
      "latitude": 44.781444873477
    },
    {
      "id": "_5",
      "label": "Dom zdravlja Voždovac",
      "longitude": 20.4738168860646,
      "latitude": 44.7876593766134
    },
    {
      "id": "_6",
      "label": "Franše D'Eperea",
      "longitude": 20.4682170383353,
      "latitude": 44.7908590058077
    },
    {
      "id": "_7",
      "label": "Deligradska",
      "longitude": 20.4574991397711,
      "latitude": 44.795814386296
    },
    {
      "id": "_8",
      "label": "Mostar",
      "longitude": 20.4506983085648,
      "latitude": 44.7977835288804
    },
    {
      "id": "_9",
      "label": "Sava centar",
      "longitude": 20.4312350069175,
      "latitude": 44.8076745767943
    },
    {
      "id": "_10",
      "label": "Beogradska arena (Antifašističke borbe)",
      "longitude": 20.4223401252013,
      "latitude": 44.8117519132287
    },
    {
      "id": "_11",
      "label": "Beogradska arena",
      "longitude": 20.4202850873395,
      "latitude": 44.8152333603724
    },
    {
      "id": "_12",
      "label": "Bulevar umetnosti",
      "longitude": 20.4135011553039,
      "latitude": 44.8199362185566
    },
    {
      "id": "_13",
      "label": "Narodnih heroja",
      "longitude": 20.4054974244163,
      "latitude": 44.8236172093808
    },
    {
      "id": "_14",
      "label": "Studentski grad",
      "longitude": 20.3978587116193,
      "latitude": 44.8261458177772
    },
    {
      "id": "_15",
      "label": "SC Vizura",
      "longitude": 20.3960791986334,
      "latitude": 44.8209383460596
    },
    {
      "id": "_16",
      "label": "Železnička stanica Tošin bunar",
      "longitude": 20.3950441292173,
      "latitude": 44.8171224968428
    },
    {
      "id": "_17",
      "label": "Generala Nedeljkovića",
      "longitude": 20.3889763275072,
      "latitude": 44.8170003330754
    },
    {
      "id": "_18",
      "label": "Nikole Dobrovića",
      "longitude": 20.3846246013936,
      "latitude": 44.8188813611224
    },
    {
      "id": "_19",
      "label": "Dr Huga Klajna",
      "longitude": 20.3812427971832,
      "latitude": 44.8198981075577
    },
    {
      "id": "_20",
      "label": "Peđe Milosavljevića",
      "longitude": 20.377193666527,
      "latitude": 44.8182796737714
    },
    {
      "id": "_21",
      "label": "Ljubinke Bobić",
      "longitude": 20.3736175621704,
      "latitude": 44.8145577935708
    },
    {
      "id": "_22",
      "label": "Marka Ristića",
      "longitude": 20.3705913134171,
      "latitude": 44.8121707482186
    },
    {
      "id": "_23",
      "label": "Milana Vujaklije",
      "longitude": 20.3676372068389,
      "latitude": 44.8101476004795
    },
    {
      "id": "_24",
      "label": "Magelanova",
      "longitude": 20.3645464955715,
      "latitude": 44.808381005192
    },
    {
      "id": "_25",
      "label": "Bežanijska kosa",
      "longitude": 20.3629099828965,
      "latitude": 44.807977744453
    }
  ]
}