{
  "direction_a": [
    {
      "id": "_1",
      "label": "Trg republike",
      "longitude": 20.4613578847858,
      "latitude": 44.8166988848543
    },
    {
      "id": "_2",
      "label": "Zeleni venac",
      "longitude": 20.4568371536344,
      "latitude": 44.8144582924763
    },
    {
      "id": "_3",
      "label": "Brankov most",
      "longitude": 20.4522002771838,
      "latitude": 44.8151886080544
    },
    {
      "id": "_4",
      "label": "Šest kaplara",
      "longitude": 20.4334922138324,
      "latitude": 44.8152633463044
    },
    {
      "id": "_5",
      "label": "Palata Srbija",
      "longitude": 20.4295837328162,
      "latitude": 44.816975485622
    },
    {
      "id": "_6",
      "label": "Španskih boraca",
      "longitude": 20.4233603118083,
      "latitude": 44.8197882167728
    },
    {
      "id": "_7",
      "label": "Blok 30",
      "longitude": 20.4165827290295,
      "latitude": 44.8228227777265
    },
    {
      "id": "_8",
      "label": "Arhiv",
      "longitude": 20.4129568170485,
      "latitude": 44.8255041291896
    },
    {
      "id": "_9",
      "label": "Bulevar Maršala Tolbuhina",
      "longitude": 20.4116238752931,
      "latitude": 44.8292572905846
    },
    {
      "id": "_10",
      "label": "Džona Kenedija",
      "longitude": 20.4099547130209,
      "latitude": 44.8342182363595
    },
    {
      "id": "_11",
      "label": "Prve pruge (Retenzija)",
      "longitude": 20.4106030093984,
      "latitude": 44.836887217854
    },
    {
      "id": "_12",
      "label": "Poljoprivredni fakultet",
      "longitude": 20.4129324986627,
      "latitude": 44.8394208199693
    },
    {
      "id": "_13",
      "label": "Zemun (pošta)",
      "longitude": 20.4133320184886,
      "latitude": 44.8421929039194
    },
    {
      "id": "_14",
      "label": "Trg Branka Radičevića",
      "longitude": 20.4095407482245,
      "latitude": 44.8460720216037
    },
    {
      "id": "_15",
      "label": "Nade Dimić",
      "longitude": 20.4028827140265,
      "latitude": 44.8491657672126
    },
    {
      "id": "_16",
      "label": "Dunavska",
      "longitude": 20.3978588906259,
      "latitude": 44.8510077899931
    },
    {
      "id": "_17",
      "label": "Tršćanska",
      "longitude": 20.3905122701023,
      "latitude": 44.8537768135237
    },
    {
      "id": "_18",
      "label": "Filipa Višnjića",
      "longitude": 20.3867265075406,
      "latitude": 44.8552415413263
    },
    {
      "id": "_19",
      "label": "Ruska",
      "longitude": 20.3808914653133,
      "latitude": 44.8578326286961
    },
    {
      "id": "_20",
      "label": "Zemun (Gornji grad)",
      "longitude": 20.3780768215081,
      "latitude": 44.8590737214802
    },
    {
      "id": "_21",
      "label": "Geomašina",
      "longitude": 20.3639440423549,
      "latitude": 44.8652364128365
    },
    {
      "id": "_22",
      "label": "Preduzeće Galenika Magmasil",
      "longitude": 20.3587940672045,
      "latitude": 44.8674899859596
    },
    {
      "id": "_23",
      "label": "Coca-Cola",
      "longitude": 20.3537456511705,
      "latitude": 44.8696791024904
    },
    {
      "id": "_24",
      "label": "Elektronska industrija",
      "longitude": 20.3437621054869,
      "latitude": 44.8740105149142
    },
    {
      "id": "_25",
      "label": "Put za 13. maj",
      "longitude": 20.3338282734333,
      "latitude": 44.8782909433028
    },
    {
      "id": "_26",
      "label": "Ciglana",
      "longitude": 20.3167671732028,
      "latitude": 44.8857230358798
    },
    {
      "id": "_27",
      "label": "Naselje ekonomija",
      "longitude": 20.3085141093397,
      "latitude": 44.8894928933937
    },
    {
      "id": "_28",
      "label": "Belarička",
      "longitude": 20.3019250115022,
      "latitude": 44.8925127491577
    },
    {
      "id": "_29",
      "label": "Batajnica (ulaz)",
      "longitude": 20.295393945171,
      "latitude": 44.8954929825352
    },
    {
      "id": "_30",
      "label": "Maksima Brankovića",
      "longitude": 20.2916960421567,
      "latitude": 44.8972196711163
    },
    {
      "id": "_31",
      "label": "Braće Smiljanić",
      "longitude": 20.2856849801639,
      "latitude": 44.9000441699599
    },
    {
      "id": "_32",
      "label": "Majke Jugovića",
      "longitude": 20.2809119106436,
      "latitude": 44.9026511408495
    },
    {
      "id": "_33",
      "label": "Batajnica (centar)",
      "longitude": 20.2744451852882,
      "latitude": 44.9063811224187
    },
    {
      "id": "_34",
      "label": "Posavska",
      "longitude": 20.2662095552029,
      "latitude": 44.911119950862
    },
    {
      "id": "_35",
      "label": "Drage Mihajlovića",
      "longitude": 20.2647235527661,
      "latitude": 44.9124513317983
    },
    {
      "id": "_36",
      "label": "Dalmatinskih brigada",
      "longitude": 20.2672918106163,
      "latitude": 44.9136646970505
    },
    {
      "id": "_37",
      "label": "Batajnica",
      "longitude": 20.2710291462093,
      "latitude": 44.9153840114502
    }
  ],
  "direction_b": [
    {
      "id": "_1",
      "label": "Batajnica",
      "longitude": 20.2709074016199,
      "latitude": 44.9155974217827
    },
    {
      "id": "_2",
      "label": "Dalmatinskih brigada",
      "longitude": 20.267672902848,
      "latitude": 44.9139749112794
    },
    {
      "id": "_3",
      "label": "Drage Mihajlovića",
      "longitude": 20.2647646429494,
      "latitude": 44.9126063845382
    },
    {
      "id": "_4",
      "label": "Posavska",
      "longitude": 20.2671272734949,
      "latitude": 44.9104562704415
    },
    {
      "id": "_5",
      "label": "Batajnica (centar)",
      "longitude": 20.2751255461711,
      "latitude": 44.90584906497
    },
    {
      "id": "_6",
      "label": "Majke Jugovića",
      "longitude": 20.2824902787812,
      "latitude": 44.9015811073952
    },
    {
      "id": "_7",
      "label": "Braće Smiljanić",
      "longitude": 20.287021307534,
      "latitude": 44.8992857432581
    },
    {
      "id": "_8",
      "label": "Maksima Brankovića",
      "longitude": 20.2897212178661,
      "latitude": 44.8980155948193
    },
    {
      "id": "_9",
      "label": "Batajnica (ulaz)",
      "longitude": 20.2964521939137,
      "latitude": 44.894885724698
    },
    {
      "id": "_10",
      "label": "Belarička",
      "longitude": 20.3010100079371,
      "latitude": 44.8927987532117
    },
    {
      "id": "_11",
      "label": "Naselje ekonomija",
      "longitude": 20.3100609929302,
      "latitude": 44.8886544710498
    },
    {
      "id": "_12",
      "label": "Ciglana",
      "longitude": 20.3181355247295,
      "latitude": 44.8849770331854
    },
    {
      "id": "_13",
      "label": "Put za 13. maj",
      "longitude": 20.3345166004831,
      "latitude": 44.8778701684718
    },
    {
      "id": "_14",
      "label": "Elektronska industrija",
      "longitude": 20.3440687716763,
      "latitude": 44.8737530863696
    },
    {
      "id": "_15",
      "label": "Coca-Cola",
      "longitude": 20.3562573258036,
      "latitude": 44.8684639094224
    },
    {
      "id": "_16",
      "label": "Preduzeće Galenika Magmasil",
      "longitude": 20.3601357810916,
      "latitude": 44.8667757265705
    },
    {
      "id": "_17",
      "label": "Geomašina",
      "longitude": 20.3649880697733,
      "latitude": 44.8646554360307
    },
    {
      "id": "_18",
      "label": "Zemun (Gornji grad)",
      "longitude": 20.3783375530751,
      "latitude": 44.8588303502097
    },
    {
      "id": "_19",
      "label": "Ruska",
      "longitude": 20.381744584832,
      "latitude": 44.8573278623746
    },
    {
      "id": "_20",
      "label": "Filipa Višnjića",
      "longitude": 20.3876555986787,
      "latitude": 44.8547227377359
    },
    {
      "id": "_21",
      "label": "Tršćanska",
      "longitude": 20.3917837899724,
      "latitude": 44.8531734007697
    },
    {
      "id": "_22",
      "label": "Dunavska",
      "longitude": 20.3969153254232,
      "latitude": 44.8512296185574
    },
    {
      "id": "_23",
      "label": "Nade Dimić",
      "longitude": 20.4024598432292,
      "latitude": 44.8491977628024
    },
    {
      "id": "_24",
      "label": "Trg Branka Radičevića",
      "longitude": 20.408636759713,
      "latitude": 44.8463949450253
    },
    {
      "id": "_25",
      "label": "RK Beograd",
      "longitude": 20.4120435355163,
      "latitude": 44.8435182287916
    },
    {
      "id": "_26",
      "label": "Zemun (pošta)",
      "longitude": 20.4142591498469,
      "latitude": 44.8408207220637
    },
    {
      "id": "_27",
      "label": "22. oktobra",
      "longitude": 20.4112100833161,
      "latitude": 44.8378892786298
    },
    {
      "id": "_28",
      "label": "Džona Kenedija",
      "longitude": 20.4096906443783,
      "latitude": 44.8340674860514
    },
    {
      "id": "_29",
      "label": "Bulevar Maršala Tolbuhina",
      "longitude": 20.4111070310089,
      "latitude": 44.8298414053327
    },
    {
      "id": "_30",
      "label": "Arhiv",
      "longitude": 20.4120381076528,
      "latitude": 44.8270653368328
    },
    {
      "id": "_31",
      "label": "GO Novi Beograd",
      "longitude": 20.4143294950621,
      "latitude": 44.8235618536657
    },
    {
      "id": "_32",
      "label": "Blok 30",
      "longitude": 20.4184323780619,
      "latitude": 44.821719831442
    },
    {
      "id": "_33",
      "label": "Španskih boraca",
      "longitude": 20.4232029819831,
      "latitude": 44.8195876365891
    },
    {
      "id": "_34",
      "label": "Palata Srbija",
      "longitude": 20.4287330074861,
      "latitude": 44.8170828462379
    },
    {
      "id": "_35",
      "label": "Šest kaplara",
      "longitude": 20.4353431924352,
      "latitude": 44.814485913854
    },
    {
      "id": "_36",
      "label": "Brankov most",
      "longitude": 20.4526067155746,
      "latitude": 44.8149925584042
    },
    {
      "id": "_37",
      "label": "Zeleni venac",
      "longitude": 20.4568381962374,
      "latitude": 44.8143467033491
    },
    {
      "id": "_38",
      "label": "Trg republike",
      "longitude": 20.4610306188357,
      "latitude": 44.8162671711599
    }
  ]
}