{
  "direction_a": [
    {
      "id": "_1",
      "label": "Zemun (Novi grad)",
      "longitude": 20.3687279824001,
      "latitude": 44.8421630394394
    },
    {
      "id": "_2",
      "label": "TC Zmaj",
      "longitude": 20.3683729968334,
      "latitude": 44.8364248150699
    },
    {
      "id": "_3",
      "label": "Novosadski put",
      "longitude": 20.3631917467679,
      "latitude": 44.8371683123246
    },
    {
      "id": "_4",
      "label": "Kineski tržni centar",
      "longitude": 20.3596254231474,
      "latitude": 44.8378108116753
    },
    {
      "id": "_5",
      "label": "Železnička tehnička stanica 1",
      "longitude": 20.3529736523047,
      "latitude": 44.8401889278528
    },
    {
      "id": "_6",
      "label": "Crkva Sv. Atanasija velikog",
      "longitude": 20.348787382304,
      "latitude": 44.8451005390687
    },
    {
      "id": "_7",
      "label": "Milana Nedeljkovića",
      "longitude": 20.3451198387158,
      "latitude": 44.845911199544
    },
    {
      "id": "_8",
      "label": "Koste Cukića",
      "longitude": 20.342098358637,
      "latitude": 44.8479727777975
    },
    {
      "id": "_9",
      "label": "Koste Brankovića",
      "longitude": 20.336284318678,
      "latitude": 44.8519350274769
    },
    {
      "id": "_10",
      "label": "Mihajla Bandura",
      "longitude": 20.3305765233474,
      "latitude": 44.8558310028613
    },
    {
      "id": "_11",
      "label": "Atanasija Nikolića",
      "longitude": 20.3305892944336,
      "latitude": 44.8571319580078
    },
    {
      "id": "_12",
      "label": "Železnička stanica Zemun polje",
      "longitude": 20.334030419082,
      "latitude": 44.8573918262608
    }
  ],
  "direction_b": []
}