{
  "direction_a": [
    {
      "id": "_1",
      "label": "Звездара",
      "longitude": 20.506933,
      "latitude": 44.798216
    },
    {
      "id": "_2",
      "label": "Милоша Јанковића",
      "longitude": 20.503829,
      "latitude": 44.799319
    },
    {
      "id": "_3",
      "label": "Градска болница",
      "longitude": 20.49932,
      "latitude": 44.800042
    },
    {
      "id": "_4",
      "label": "Чегарска",
      "longitude": 20.495957,
      "latitude": 44.80075
    },
    {
      "id": "_5",
      "label": "Живојина Жујовића",
      "longitude": 20.492849,
      "latitude": 44.801539
    },
    {
      "id": "_6",
      "label": "Марка Орешковића",
      "longitude": 20.487022,
      "latitude": 44.804067
    },
    {
      "id": "_7",
      "label": "Подвожњак",
      "longitude": 20.4839,
      "latitude": 44.806163
    },
    {
      "id": "_8",
      "label": "27. марта",
      "longitude": 20.476544,
      "latitude": 44.810171
    },
    {
      "id": "_9",
      "label": "Палилулска Пијаца",
      "longitude": 20.474696,
      "latitude": 44.810584
    },
    {
      "id": "_10",
      "label": "Македонска /Политика/",
      "longitude": 20.464989,
      "latitude": 44.815456
    },
    {
      "id": "_11",
      "label": "Зелени венац",
      "longitude": 20.457023,
      "latitude": 44.814487
    },
    {
      "id": "_12",
      "label": "Бранков мост",
      "longitude": 20.452342,
      "latitude": 44.815215
    },
    {
      "id": "_13",
      "label": "Шест Каплара",
      "longitude": 20.433531,
      "latitude": 44.81528
    },
    {
      "id": "_14",
      "label": "Палата Србија",
      "longitude": 20.429702,
      "latitude": 44.816954
    },
    {
      "id": "_15",
      "label": "Шпанских Бораца",
      "longitude": 20.423451,
      "latitude": 44.819767
    },
    {
      "id": "_16",
      "label": "Блок 30",
      "longitude": 20.416628,
      "latitude": 44.822841
    },
    {
      "id": "_17",
      "label": "Улаз у Париске Комуне",
      "longitude": 20.412174,
      "latitude": 44.824819
    },
    {
      "id": "_18",
      "label": "Фонтана",
      "longitude": 20.407634,
      "latitude": 44.826675
    },
    {
      "id": "_19",
      "label": "Студентска",
      "longitude": 20.402402,
      "latitude": 44.826224
    },
    {
      "id": "_20",
      "label": "Студентски Град",
      "longitude": 20.396761,
      "latitude": 44.826849
    },
    {
      "id": "_21",
      "label": "Зеленгорска",
      "longitude": 20.389067,
      "latitude": 44.827635
    },
    {
      "id": "_22",
      "label": "Расадник",
      "longitude": 20.389289,
      "latitude": 44.830434
    },
    {
      "id": "_23",
      "label": "Дом Пензионера",
      "longitude": 20.390622,
      "latitude": 44.833457
    },
    {
      "id": "_24",
      "label": "КБЦ Бежанијска Коса",
      "longitude": 20.382914,
      "latitude": 44.829219
    },
    {
      "id": "_25",
      "label": "Бежанијска Коса /Болница/",
      "longitude": 20.380059,
      "latitude": 44.829872
    }
  ],
  "direction_b": [
    {
      "id": "_1",
      "label": "Бежанијска Коса /Болница/",
      "longitude": 20.380059,
      "latitude": 44.829872
    },
    {
      "id": "_2",
      "label": "КБЦ Бежанијска Коса",
      "longitude": 20.383489,
      "latitude": 44.828951
    },
    {
      "id": "_3",
      "label": "Зеленгорска",
      "longitude": 20.38938,
      "latitude": 44.827471
    },
    {
      "id": "_4",
      "label": "СЦ 11. Април",
      "longitude": 20.393915,
      "latitude": 44.827041
    },
    {
      "id": "_5",
      "label": "Студентски Град",
      "longitude": 20.398985,
      "latitude": 44.826272
    },
    {
      "id": "_6",
      "label": "Студентска",
      "longitude": 20.403212,
      "latitude": 44.826838
    },
    {
      "id": "_7",
      "label": "Фонтана",
      "longitude": 20.40947,
      "latitude": 44.825671
    },
    {
      "id": "_8",
      "label": "ГО Нови Београд",
      "longitude": 20.414298,
      "latitude": 44.823536
    },
    {
      "id": "_9",
      "label": "Блок 30",
      "longitude": 20.418549,
      "latitude": 44.821665
    },
    {
      "id": "_10",
      "label": "Шпанских Бораца",
      "longitude": 20.423156,
      "latitude": 44.819593
    },
    {
      "id": "_11",
      "label": "Палата Србија",
      "longitude": 20.428727,
      "latitude": 44.817077
    },
    {
      "id": "_12",
      "label": "Шест Каплара",
      "longitude": 20.43321,
      "latitude": 44.815106
    },
    {
      "id": "_13",
      "label": "Бранков мост",
      "longitude": 20.452631,
      "latitude": 44.814962
    },
    {
      "id": "_14",
      "label": "Зелени венац",
      "longitude": 20.456666,
      "latitude": 44.814357
    },
    {
      "id": "_15",
      "label": "Македонска /Политика/",
      "longitude": 20.465155,
      "latitude": 44.815233
    },
    {
      "id": "_16",
      "label": "Палилулска Пијаца",
      "longitude": 20.474163,
      "latitude": 44.810844
    },
    {
      "id": "_17",
      "label": "27. марта",
      "longitude": 20.475911,
      "latitude": 44.809728
    },
    {
      "id": "_18",
      "label": "Здравка Челара",
      "longitude": 20.479411,
      "latitude": 44.810926
    },
    {
      "id": "_19",
      "label": "Подвожњак",
      "longitude": 20.483502,
      "latitude": 44.806259
    },
    {
      "id": "_20",
      "label": "Марка Орешковића",
      "longitude": 20.488482,
      "latitude": 44.803145
    },
    {
      "id": "_21",
      "label": "Шабачка",
      "longitude": 20.493561,
      "latitude": 44.801132
    },
    {
      "id": "_22",
      "label": "Градска болница",
      "longitude": 20.500308,
      "latitude": 44.79966
    },
    {
      "id": "_23",
      "label": "Милоша Јанковића",
      "longitude": 20.503166,
      "latitude": 44.799275
    },
    {
      "id": "_24",
      "label": "Звездара",
      "longitude": 20.506933,
      "latitude": 44.798216
    }
  ]
}