{
  "direction_a": [
    {
      "id": "_1",
      "label": "Земун /Ослобођења Кеј/",
      "longitude": 20.415797,
      "latitude": 44.843491
    },
    {
      "id": "_2",
      "label": "22 октобра",
      "longitude": 20.411215,
      "latitude": 44.837909
    },
    {
      "id": "_3",
      "label": "Џона Кенедија",
      "longitude": 20.40969,
      "latitude": 44.834032
    },
    {
      "id": "_4",
      "label": "Маршала Толбухина булевар",
      "longitude": 20.411088,
      "latitude": 44.829865
    },
    {
      "id": "_5",
      "label": "Архив",
      "longitude": 20.412042,
      "latitude": 44.827043
    },
    {
      "id": "_6",
      "label": "Улаз у Париске Комуне",
      "longitude": 20.412174,
      "latitude": 44.824819
    },
    {
      "id": "_7",
      "label": "Фонтана",
      "longitude": 20.407634,
      "latitude": 44.826675
    },
    {
      "id": "_8",
      "label": "Студентска",
      "longitude": 20.402402,
      "latitude": 44.826224
    },
    {
      "id": "_9",
      "label": "Студентски Град",
      "longitude": 20.397825,
      "latitude": 44.826127
    },
    {
      "id": "_10",
      "label": "СЦ Визура",
      "longitude": 20.39605,
      "latitude": 44.820912
    },
    {
      "id": "_11",
      "label": "Железничка Станица Тошин Бунар",
      "longitude": 20.395056,
      "latitude": 44.817184
    },
    {
      "id": "_12",
      "label": "Генерала Недељковића",
      "longitude": 20.389061,
      "latitude": 44.817015
    },
    {
      "id": "_13",
      "label": "Николе Добровића",
      "longitude": 20.384681,
      "latitude": 44.818887
    },
    {
      "id": "_14",
      "label": "Др Хуга Клајна",
      "longitude": 20.381233,
      "latitude": 44.819916
    },
    {
      "id": "_15",
      "label": "Пеђе Милосављевића",
      "longitude": 20.377241,
      "latitude": 44.818302
    },
    {
      "id": "_16",
      "label": "Недељка Гвозденовића",
      "longitude": 20.374829,
      "latitude": 44.814496
    },
    {
      "id": "_17",
      "label": "Рашка Димитријевића",
      "longitude": 20.378141,
      "latitude": 44.8136
    },
    {
      "id": "_18",
      "label": "Пере Сегединца",
      "longitude": 20.381959,
      "latitude": 44.811202
    },
    {
      "id": "_19",
      "label": "Блок 63",
      "longitude": 20.383881,
      "latitude": 44.808585
    },
    {
      "id": "_20",
      "label": "МЗ Младост",
      "longitude": 20.385603,
      "latitude": 44.806485
    },
    {
      "id": "_21",
      "label": "Пијаца Блок 44",
      "longitude": 20.38457,
      "latitude": 44.802822
    },
    {
      "id": "_22",
      "label": "Дом здравља",
      "longitude": 20.382628,
      "latitude": 44.798875
    },
    {
      "id": "_23",
      "label": "Блок 44",
      "longitude": 20.384115,
      "latitude": 44.796457
    }
  ],
  "direction_b": [
    {
      "id": "_1",
      "label": "Блок 44",
      "longitude": 20.384012,
      "latitude": 44.797035
    },
    {
      "id": "_2",
      "label": "Дом здравља",
      "longitude": 20.382696,
      "latitude": 44.799171
    },
    {
      "id": "_3",
      "label": "Пијаца Блок 44",
      "longitude": 20.383898,
      "latitude": 44.802292
    },
    {
      "id": "_4",
      "label": "Гандијева",
      "longitude": 20.387687,
      "latitude": 44.804313
    },
    {
      "id": "_5",
      "label": "МЗ Младост",
      "longitude": 20.386274,
      "latitude": 44.806177
    },
    {
      "id": "_6",
      "label": "Блок 63",
      "longitude": 20.384322,
      "latitude": 44.808558
    },
    {
      "id": "_7",
      "label": "Пере Сегединца",
      "longitude": 20.38242,
      "latitude": 44.810854
    },
    {
      "id": "_8",
      "label": "Рашка Димитријевића",
      "longitude": 20.377096,
      "latitude": 44.814019
    },
    {
      "id": "_9",
      "label": "Љубинке Бобић",
      "longitude": 20.374658,
      "latitude": 44.81527
    },
    {
      "id": "_10",
      "label": "Пеђе Милосављевића",
      "longitude": 20.377003,
      "latitude": 44.817809
    },
    {
      "id": "_11",
      "label": "Др Хуга Клајна",
      "longitude": 20.379572,
      "latitude": 44.820023
    },
    {
      "id": "_12",
      "label": "Марка Челебоновића",
      "longitude": 20.382865,
      "latitude": 44.819195
    },
    {
      "id": "_13",
      "label": "Николе Добровића",
      "longitude": 20.386197,
      "latitude": 44.818022
    },
    {
      "id": "_14",
      "label": "Генерала Недељковића",
      "longitude": 20.389008,
      "latitude": 44.81676
    },
    {
      "id": "_15",
      "label": "Железничка Станица Тошин Бунар",
      "longitude": 20.395311,
      "latitude": 44.816818
    },
    {
      "id": "_16",
      "label": "Милутина Миланковића",
      "longitude": 20.396229,
      "latitude": 44.820269
    },
    {
      "id": "_17",
      "label": "Студентски Град",
      "longitude": 20.398985,
      "latitude": 44.826272
    },
    {
      "id": "_18",
      "label": "Студентска",
      "longitude": 20.403212,
      "latitude": 44.826838
    },
    {
      "id": "_19",
      "label": "Фонтана",
      "longitude": 20.40947,
      "latitude": 44.825671
    },
    {
      "id": "_20",
      "label": "Архив",
      "longitude": 20.413009,
      "latitude": 44.825508
    },
    {
      "id": "_21",
      "label": "Маршала Толбухина булевар",
      "longitude": 20.411675,
      "latitude": 44.829221
    },
    {
      "id": "_22",
      "label": "Џона Кенедија",
      "longitude": 20.410005,
      "latitude": 44.834184
    },
    {
      "id": "_23",
      "label": "Прве пруге ретензија",
      "longitude": 20.410549,
      "latitude": 44.836707
    },
    {
      "id": "_24",
      "label": "Пољопривредни факултет",
      "longitude": 20.412922,
      "latitude": 44.839425
    },
    {
      "id": "_25",
      "label": "Земун /Ослобођења Кеј/",
      "longitude": 20.415797,
      "latitude": 44.843491
    }
  ]
}