{
  "direction_a": [
    {
      "id": "_1",
      "label": "Баново Брдо (Предграђе)",
      "longitude": 20.413826,
      "latitude": 44.768453
    },
    {
      "id": "_2",
      "label": "Требевићка",
      "longitude": 20.414341,
      "latitude": 44.771477
    },
    {
      "id": "_3",
      "label": "Кијевска",
      "longitude": 20.413824,
      "latitude": 44.775796
    },
    {
      "id": "_4",
      "label": "Дом здравља",
      "longitude": 20.415907,
      "latitude": 44.77903
    },
    {
      "id": "_5",
      "label": "Школа Jосиф Панчић",
      "longitude": 20.41776,
      "latitude": 44.78145
    },
    {
      "id": "_6",
      "label": "Кировљева",
      "longitude": 20.417994,
      "latitude": 44.784723
    },
    {
      "id": "_7",
      "label": "Ада Циганлија",
      "longitude": 20.419789,
      "latitude": 44.7884
    },
    {
      "id": "_8",
      "label": "Блок 42",
      "longitude": 20.416233,
      "latitude": 44.804082
    },
    {
      "id": "_9",
      "label": "Марка Христића",
      "longitude": 20.413107,
      "latitude": 44.806197
    },
    {
      "id": "_10",
      "label": "Депо Сава",
      "longitude": 20.410999,
      "latitude": 44.806889
    },
    {
      "id": "_11",
      "label": "Насеље Белвил",
      "longitude": 20.40837,
      "latitude": 44.80685
    },
    {
      "id": "_12",
      "label": "Гаража Нови Београд",
      "longitude": 20.405845,
      "latitude": 44.8077
    },
    {
      "id": "_13",
      "label": "Airport City",
      "longitude": 20.402169,
      "latitude": 44.811769
    },
    {
      "id": "_14",
      "label": "Милутина Миланковића",
      "longitude": 20.406143,
      "latitude": 44.816157
    },
    {
      "id": "_15",
      "label": "Зорана Ђинђића булевар",
      "longitude": 20.409686,
      "latitude": 44.82009
    },
    {
      "id": "_16",
      "label": "ГО Нови Београд",
      "longitude": 20.412692,
      "latitude": 44.823399
    },
    {
      "id": "_17",
      "label": "Архив",
      "longitude": 20.413009,
      "latitude": 44.825508
    },
    {
      "id": "_18",
      "label": "Маршала Толбухина булевар",
      "longitude": 20.411675,
      "latitude": 44.829221
    },
    {
      "id": "_19",
      "label": "Џона Кенедија",
      "longitude": 20.410005,
      "latitude": 44.834184
    },
    {
      "id": "_20",
      "label": "Прве пруге ретензија",
      "longitude": 20.410549,
      "latitude": 44.836707
    },
    {
      "id": "_21",
      "label": "Александра Дубчека",
      "longitude": 20.410665,
      "latitude": 44.839212
    },
    {
      "id": "_22",
      "label": "КБЦ Земун",
      "longitude": 20.406449,
      "latitude": 44.84118
    },
    {
      "id": "_23",
      "label": "Новоградска",
      "longitude": 20.402002,
      "latitude": 44.845502
    },
    {
      "id": "_24",
      "label": "Угриновачка",
      "longitude": 20.399368,
      "latitude": 44.846516
    },
    {
      "id": "_25",
      "label": "Стадион Земун",
      "longitude": 20.396038,
      "latitude": 44.847749
    },
    {
      "id": "_26",
      "label": "Бранка Пешића",
      "longitude": 20.391377,
      "latitude": 44.849368
    },
    {
      "id": "_27",
      "label": "Филипа Вишњића",
      "longitude": 20.387541,
      "latitude": 44.849945
    },
    {
      "id": "_28",
      "label": "Задругарска",
      "longitude": 20.38207,
      "latitude": 44.850208
    },
    {
      "id": "_29",
      "label": "Земун /Бачка/",
      "longitude": 20.379404,
      "latitude": 44.850518
    },
    {
      "id": "_30",
      "label": "Банатска",
      "longitude": 20.377911,
      "latitude": 44.8583
    },
    {
      "id": "_31",
      "label": "Гробље Збег",
      "longitude": 20.452642,
      "latitude": 44.89949
    },
    {
      "id": "_32",
      "label": "Мали Збег",
      "longitude": 20.456399,
      "latitude": 44.893838
    },
    {
      "id": "_33",
      "label": "Преток",
      "longitude": 20.458186,
      "latitude": 44.891203
    },
    {
      "id": "_34",
      "label": "Зрењанински Пут",
      "longitude": 20.459859,
      "latitude": 44.887221
    },
    {
      "id": "_35",
      "label": "Дринске Дивизије",
      "longitude": 20.458022,
      "latitude": 44.885571
    },
    {
      "id": "_36",
      "label": "Саве Мркаља",
      "longitude": 20.454907,
      "latitude": 44.882725
    },
    {
      "id": "_37",
      "label": "Комбинатова",
      "longitude": 20.452111,
      "latitude": 44.880093
    },
    {
      "id": "_38",
      "label": "Беле Бартока",
      "longitude": 20.451539,
      "latitude": 44.877187
    },
    {
      "id": "_39",
      "label": "Борча 3",
      "longitude": 20.448304,
      "latitude": 44.874704
    }
  ],
  "direction_b": [
    {
      "id": "_1",
      "label": "Борча 3",
      "longitude": 20.448304,
      "latitude": 44.874704
    },
    {
      "id": "_2",
      "label": "Беле Бартока",
      "longitude": 20.451826,
      "latitude": 44.877627
    },
    {
      "id": "_3",
      "label": "Комбинатова",
      "longitude": 20.452808,
      "latitude": 44.880576
    },
    {
      "id": "_4",
      "label": "Саве Мркаља",
      "longitude": 20.454772,
      "latitude": 44.882439
    },
    {
      "id": "_5",
      "label": "Дринске Дивизије",
      "longitude": 20.457599,
      "latitude": 44.885009
    },
    {
      "id": "_6",
      "label": "Братства и Јединства",
      "longitude": 20.460235,
      "latitude": 44.888513
    },
    {
      "id": "_7",
      "label": "Преток",
      "longitude": 20.457784,
      "latitude": 44.892162
    },
    {
      "id": "_8",
      "label": "Мали Збег",
      "longitude": 20.455845,
      "latitude": 44.895071
    },
    {
      "id": "_9",
      "label": "Гробље Збег",
      "longitude": 20.452344,
      "latitude": 44.900445
    },
    {
      "id": "_10",
      "label": "Банатска",
      "longitude": 20.377917,
      "latitude": 44.857588
    },
    {
      "id": "_11",
      "label": "Земун /Бачка/ ",
      "longitude": 20.38026,
      "latitude": 44.849638
    },
    {
      "id": "_12",
      "label": "Задругарска",
      "longitude": 20.383138,
      "latitude": 44.85016
    },
    {
      "id": "_13",
      "label": "Филипа Вишњића",
      "longitude": 20.3868,
      "latitude": 44.84985
    },
    {
      "id": "_14",
      "label": "Бранка Пешића",
      "longitude": 20.392061,
      "latitude": 44.849022
    },
    {
      "id": "_15",
      "label": "Стадион Земун",
      "longitude": 20.396917,
      "latitude": 44.847263
    },
    {
      "id": "_16",
      "label": "Новоградска",
      "longitude": 20.401562,
      "latitude": 44.845558
    },
    {
      "id": "_17",
      "label": "КБЦ Земун",
      "longitude": 20.407075,
      "latitude": 44.840334
    },
    {
      "id": "_18",
      "label": "Александра Дубчека",
      "longitude": 20.410782,
      "latitude": 44.839011
    },
    {
      "id": "_19",
      "label": "22 октобра",
      "longitude": 20.411215,
      "latitude": 44.837909
    },
    {
      "id": "_20",
      "label": "Џона Кенедија",
      "longitude": 20.40969,
      "latitude": 44.834032
    },
    {
      "id": "_21",
      "label": "Маршала Толбухина булевар",
      "longitude": 20.411088,
      "latitude": 44.829865
    },
    {
      "id": "_22",
      "label": "Архив",
      "longitude": 20.412042,
      "latitude": 44.827043
    },
    {
      "id": "_23",
      "label": "ГО Нови Београд",
      "longitude": 20.41197,
      "latitude": 44.823102
    },
    {
      "id": "_24",
      "label": "Зорана Ђинђића булевар",
      "longitude": 20.409494,
      "latitude": 44.820368
    },
    {
      "id": "_25",
      "label": "Милутина Миланковића",
      "longitude": 20.405636,
      "latitude": 44.816096
    },
    {
      "id": "_26",
      "label": "Airport City",
      "longitude": 20.401228,
      "latitude": 44.811205
    },
    {
      "id": "_27",
      "label": "Гаража Нови Београд",
      "longitude": 20.405853,
      "latitude": 44.807314
    },
    {
      "id": "_28",
      "label": "Марка Христића",
      "longitude": 20.412836,
      "latitude": 44.805167
    },
    {
      "id": "_29",
      "label": "Блок 42",
      "longitude": 20.418545,
      "latitude": 44.803626
    },
    {
      "id": "_30",
      "label": "Петља Радничка",
      "longitude": 20.427017,
      "latitude": 44.790992
    },
    {
      "id": "_31",
      "label": "Кнеза Вишеслава",
      "longitude": 20.421204,
      "latitude": 44.783099
    },
    {
      "id": "_32",
      "label": "Школа Jосиф Панчић",
      "longitude": 20.41738,
      "latitude": 44.781286
    },
    {
      "id": "_33",
      "label": "Дом здравља",
      "longitude": 20.414599,
      "latitude": 44.777834
    },
    {
      "id": "_34",
      "label": "Кијевска",
      "longitude": 20.41357,
      "latitude": 44.775426
    },
    {
      "id": "_35",
      "label": "Требевићка",
      "longitude": 20.414127,
      "latitude": 44.771418
    },
    {
      "id": "_36",
      "label": "Баново Брдо (Предграђе)",
      "longitude": 20.413826,
      "latitude": 44.768453
    }
  ]
}