{
  "direction_a": [
    {
      "id": "_1",
      "label": "Banovo brdo",
      "longitude": 20.4138049186733,
      "latitude": 44.7684981299951
    },
    {
      "id": "_2",
      "label": "Trebevićka",
      "longitude": 20.4143679959541,
      "latitude": 44.7715482675454
    },
    {
      "id": "_3",
      "label": "Kijevska",
      "longitude": 20.4138574029671,
      "latitude": 44.7758312615877
    },
    {
      "id": "_4",
      "label": "Dom zdravlja",
      "longitude": 20.4159577149361,
      "latitude": 44.7790656243339
    },
    {
      "id": "_5",
      "label": "Škola Josif Pančić",
      "longitude": 20.4177988662816,
      "latitude": 44.7814508718708
    },
    {
      "id": "_6",
      "label": "Kirovljeva",
      "longitude": 20.4179117112584,
      "latitude": 44.7848226834066
    },
    {
      "id": "_7",
      "label": "Ada Ciganlija",
      "longitude": 20.4199404372204,
      "latitude": 44.7884471855672
    },
    {
      "id": "_8",
      "label": "Blok 42",
      "longitude": 20.4161138241365,
      "latitude": 44.8040491880885
    },
    {
      "id": "_9",
      "label": "Bulevar Crvene Armije",
      "longitude": 20.4132201265708,
      "latitude": 44.8051917615602
    },
    {
      "id": "_10",
      "label": "Depo Sava",
      "longitude": 20.4109050542309,
      "latitude": 44.8068574077947
    },
    {
      "id": "_11",
      "label": "Garaža Novi Beograd",
      "longitude": 20.4057105618059,
      "latitude": 44.8077251638974
    },
    {
      "id": "_12",
      "label": "Airport City",
      "longitude": 20.4021643034095,
      "latitude": 44.8118015189396
    },
    {
      "id": "_13",
      "label": "Milutina Milankovića",
      "longitude": 20.4061096377425,
      "latitude": 44.8161777845772
    },
    {
      "id": "_14",
      "label": "Bulevar Zorana Đinđića",
      "longitude": 20.4096906040503,
      "latitude": 44.8201344585727
    },
    {
      "id": "_15",
      "label": "GO Novi Beograd",
      "longitude": 20.4126291400749,
      "latitude": 44.8233929676509
    },
    {
      "id": "_16",
      "label": "Arhiv",
      "longitude": 20.4129568170485,
      "latitude": 44.8255041291896
    },
    {
      "id": "_17",
      "label": "Bulevar Maršala Tolbuhina",
      "longitude": 20.4116238752931,
      "latitude": 44.8292572905846
    },
    {
      "id": "_18",
      "label": "Džona Kenedija",
      "longitude": 20.4099547130209,
      "latitude": 44.8342182363595
    },
    {
      "id": "_19",
      "label": "Prve pruge (Retenzija)",
      "longitude": 20.4106030093984,
      "latitude": 44.836887217854
    },
    {
      "id": "_20",
      "label": "Aleksandra Dubčeka",
      "longitude": 20.4106325818005,
      "latitude": 44.8392074367307
    },
    {
      "id": "_21",
      "label": "KBC Zemun",
      "longitude": 20.4063517433083,
      "latitude": 44.8412354412422
    },
    {
      "id": "_22",
      "label": "Novogradska",
      "longitude": 20.4019712562394,
      "latitude": 44.8455396318512
    },
    {
      "id": "_23",
      "label": "Ugrinovačka",
      "longitude": 20.3991774761517,
      "latitude": 44.8465779681986
    },
    {
      "id": "_24",
      "label": "Stadion Zemun",
      "longitude": 20.3959444670565,
      "latitude": 44.8477525152105
    },
    {
      "id": "_25",
      "label": "Branka Pešića",
      "longitude": 20.3912080891097,
      "latitude": 44.8494391687723
    },
    {
      "id": "_26",
      "label": "Filipa Višnjića",
      "longitude": 20.3874227684031,
      "latitude": 44.8499319809851
    },
    {
      "id": "_27",
      "label": "Zadrugarska",
      "longitude": 20.3819749760604,
      "latitude": 44.8501907334264
    },
    {
      "id": "_28",
      "label": "Bačka",
      "longitude": 20.3793491284847,
      "latitude": 44.8506139254291
    },
    {
      "id": "_29",
      "label": "Banatska",
      "longitude": 20.3779253341391,
      "latitude": 44.8583331448915
    },
    {
      "id": "_30",
      "label": "Groblje Zbeg",
      "longitude": 20.4529223276776,
      "latitude": 44.8990813655596
    },
    {
      "id": "_31",
      "label": "Mali zbeg",
      "longitude": 20.4564027458025,
      "latitude": 44.8938512616383
    },
    {
      "id": "_32",
      "label": "Pretok",
      "longitude": 20.4581746603036,
      "latitude": 44.8912048199244
    },
    {
      "id": "_33",
      "label": "Zrenjaninski put",
      "longitude": 20.4598023501255,
      "latitude": 44.8871717620513
    },
    {
      "id": "_34",
      "label": "Drinske divizije",
      "longitude": 20.4578940758053,
      "latitude": 44.8854672736455
    },
    {
      "id": "_35",
      "label": "Save Mrkalja",
      "longitude": 20.454957197326,
      "latitude": 44.882775135379
    },
    {
      "id": "_36",
      "label": "Kombinatova",
      "longitude": 20.4520965351724,
      "latitude": 44.8800832843137
    },
    {
      "id": "_37",
      "label": "Bele Bartoka",
      "longitude": 20.4514405407691,
      "latitude": 44.877173336995
    },
    {
      "id": "_38",
      "label": "Borča 3",
      "longitude": 20.4484449166286,
      "latitude": 44.8746121381327
    }
  ],
  "direction_b": [
    {
      "id": "_1",
      "label": "Borča 3",
      "longitude": 20.4484449166286,
      "latitude": 44.8746121381327
    },
    {
      "id": "_2",
      "label": "Bele Bartoka",
      "longitude": 20.4518386123245,
      "latitude": 44.8776414096
    },
    {
      "id": "_3",
      "label": "Kombinatova",
      "longitude": 20.4529338648228,
      "latitude": 44.8806848411228
    },
    {
      "id": "_4",
      "label": "Save Mrkalja",
      "longitude": 20.4549161232786,
      "latitude": 44.8825661538478
    },
    {
      "id": "_5",
      "label": "Drinske divizije",
      "longitude": 20.4576773385603,
      "latitude": 44.8850900741041
    },
    {
      "id": "_6",
      "label": "Bratstva i jedinstva",
      "longitude": 20.4601084635954,
      "latitude": 44.8885573114419
    },
    {
      "id": "_7",
      "label": "Pretok",
      "longitude": 20.4576305086878,
      "latitude": 44.8922623784065
    },
    {
      "id": "_8",
      "label": "Mali zbeg",
      "longitude": 20.4557685618205,
      "latitude": 44.8950523745025
    },
    {
      "id": "_9",
      "label": "Groblje Zbeg",
      "longitude": 20.4538291957137,
      "latitude": 44.897976961232
    },
    {
      "id": "_10",
      "label": "Banatska",
      "longitude": 20.3779346366211,
      "latitude": 44.857465648138
    },
    {
      "id": "_11",
      "label": "Bačka",
      "longitude": 20.3801540593474,
      "latitude": 44.8496373375589
    },
    {
      "id": "_12",
      "label": "Zadrugarska",
      "longitude": 20.3831869838483,
      "latitude": 44.8501882595356
    },
    {
      "id": "_13",
      "label": "Filipa Višnjića",
      "longitude": 20.3869021806923,
      "latitude": 44.849871602398
    },
    {
      "id": "_14",
      "label": "Branka Pešića",
      "longitude": 20.3920623745898,
      "latitude": 44.8490441243012
    },
    {
      "id": "_15",
      "label": "Stadion Zemun",
      "longitude": 20.3970201865796,
      "latitude": 44.8472254074816
    },
    {
      "id": "_16",
      "label": "Novogradska",
      "longitude": 20.4016246423256,
      "latitude": 44.8455396238713
    },
    {
      "id": "_17",
      "label": "KBC Zemun",
      "longitude": 20.4070744215334,
      "latitude": 44.8403284321712
    },
    {
      "id": "_18",
      "label": "Aleksandra Dubčeka",
      "longitude": 20.4109439891515,
      "latitude": 44.8389336523026
    },
    {
      "id": "_19",
      "label": "Džona Kenedija",
      "longitude": 20.4096906443783,
      "latitude": 44.8340674860514
    },
    {
      "id": "_20",
      "label": "Bulevar Maršala Tolbuhina",
      "longitude": 20.4111070310089,
      "latitude": 44.8298414053327
    },
    {
      "id": "_21",
      "label": "Arhiv",
      "longitude": 20.4120381076528,
      "latitude": 44.8270653368328
    },
    {
      "id": "_22",
      "label": "GO Novi Beograd",
      "longitude": 20.4119222276615,
      "latitude": 44.8230221655042
    },
    {
      "id": "_23",
      "label": "Bulevar Zorana Đinđića",
      "longitude": 20.409434007589,
      "latitude": 44.8202501313123
    },
    {
      "id": "_24",
      "label": "Milutina Milankovića",
      "longitude": 20.4056530085192,
      "latitude": 44.8160728247077
    },
    {
      "id": "_25",
      "label": "Airport City",
      "longitude": 20.4012577009893,
      "latitude": 44.8111992211083
    },
    {
      "id": "_26",
      "label": "Garaža \"Novi Beograd\"",
      "longitude": 20.4057902913792,
      "latitude": 44.8073457967651
    },
    {
      "id": "_27",
      "label": "Bulevar Crvene Armije",
      "longitude": 20.4128613314903,
      "latitude": 44.8051701265005
    },
    {
      "id": "_28",
      "label": "Blok 42",
      "longitude": 20.4185832082903,
      "latitude": 44.8036117547834
    },
    {
      "id": "_29",
      "label": "Kneza Višeslava",
      "longitude": 20.4211209252658,
      "latitude": 44.7831002074612
    },
    {
      "id": "_30",
      "label": "Škola Josif Pančić",
      "longitude": 20.4171984049806,
      "latitude": 44.7810968392086
    },
    {
      "id": "_31",
      "label": "Dom zdravlja",
      "longitude": 20.4144724285048,
      "latitude": 44.77774411363
    },
    {
      "id": "_32",
      "label": "Kijevska",
      "longitude": 20.4135459176844,
      "latitude": 44.775395889586
    },
    {
      "id": "_33",
      "label": "Trebevićka",
      "longitude": 20.4140922912439,
      "latitude": 44.7713254696764
    },
    {
      "id": "_34",
      "label": "Banovo brdo",
      "longitude": 20.4138049186733,
      "latitude": 44.7684981299951
    }
  ]
}