{
  "direction_a": [
    {
      "id": "_1",
      "label": "Beograd na vodi",
      "longitude": 20.4442101884538,
      "latitude": 44.8007882285024
    },
    {
      "id": "_2",
      "label": "Sajam",
      "longitude": 20.4415906546322,
      "latitude": 44.7964130286058
    },
    {
      "id": "_3",
      "label": "Čukarica",
      "longitude": 20.4145017152671,
      "latitude": 44.7863856515716
    },
    {
      "id": "_4",
      "label": "Železnik R",
      "longitude": 20.3589500715381,
      "latitude": 44.7422083297655
    },
    {
      "id": "_5",
      "label": "Železnički nadvožnjak",
      "longitude": 20.3212902181307,
      "latitude": 44.7354344273393
    },
    {
      "id": "_6",
      "label": "MZ Ostružnica",
      "longitude": 20.3148088183418,
      "latitude": 44.7314990217166
    },
    {
      "id": "_7",
      "label": "Ostružnica (centar)",
      "longitude": 20.3182270094875,
      "latitude": 44.7289725017526
    },
    {
      "id": "_8",
      "label": "Crkva",
      "longitude": 20.3214769350805,
      "latitude": 44.7280774199935
    },
    {
      "id": "_9",
      "label": "Ljube Rankovića",
      "longitude": 20.3241066649811,
      "latitude": 44.7251356682985
    },
    {
      "id": "_10",
      "label": "Petrovića brdo",
      "longitude": 20.3261316062452,
      "latitude": 44.7220733053076
    },
    {
      "id": "_11",
      "label": "Okretnica (česma)",
      "longitude": 20.3322014457751,
      "latitude": 44.7180553748127
    },
    {
      "id": "_12",
      "label": "Petrovića brdo",
      "longitude": 20.3262674073443,
      "latitude": 44.7221191018365
    },
    {
      "id": "_13",
      "label": "Ljube Rankovića",
      "longitude": 20.3241594711796,
      "latitude": 44.7253717706983
    },
    {
      "id": "_14",
      "label": "Crkva",
      "longitude": 20.3212420177602,
      "latitude": 44.7283028205258
    },
    {
      "id": "_15",
      "label": "OŠ Karađorđe",
      "longitude": 20.3201828911609,
      "latitude": 44.7262410229691
    },
    {
      "id": "_16",
      "label": "Stare barake",
      "longitude": 20.3210340426242,
      "latitude": 44.7223168158671
    },
    {
      "id": "_17",
      "label": "Novo naselje (ulaz)",
      "longitude": 20.32043591393,
      "latitude": 44.718402016569
    },
    {
      "id": "_18",
      "label": "Kosmajska",
      "longitude": 20.3226532806727,
      "latitude": 44.7150690620998
    },
    {
      "id": "_19",
      "label": "Ostružnica (Novo naselje)",
      "longitude": 20.3199128151832,
      "latitude": 44.7136884854183
    }
  ],
  "direction_b": [
    {
      "id": "_1",
      "label": "Ostružnica (Novo naselje)",
      "longitude": 20.3199128151832,
      "latitude": 44.7136884854183
    },
    {
      "id": "_2",
      "label": "Kosmajska",
      "longitude": 20.3225193806773,
      "latitude": 44.7155128547384
    },
    {
      "id": "_3",
      "label": "Novo naselje (ulaz)",
      "longitude": 20.320574247195,
      "latitude": 44.7184460349736
    },
    {
      "id": "_4",
      "label": "Stare barake",
      "longitude": 20.3211718194889,
      "latitude": 44.7224094284048
    },
    {
      "id": "_5",
      "label": "OŠ Karađorđe",
      "longitude": 20.319970827911,
      "latitude": 44.7266717486637
    },
    {
      "id": "_6",
      "label": "Ostružnica (centar)",
      "longitude": 20.3178422034368,
      "latitude": 44.7294903923407
    },
    {
      "id": "_7",
      "label": "MZ Ostružnica",
      "longitude": 20.3150084950393,
      "latitude": 44.7314822158213
    },
    {
      "id": "_8",
      "label": "Železnički nadvožnjak",
      "longitude": 20.3218290499162,
      "latitude": 44.7356357058396
    },
    {
      "id": "_9",
      "label": "Železnik R",
      "longitude": 20.3612220070836,
      "latitude": 44.7427627874396
    },
    {
      "id": "_10",
      "label": "Čukarica",
      "longitude": 20.4151354377319,
      "latitude": 44.786451881637
    },
    {
      "id": "_11",
      "label": "Ada Ciganlija",
      "longitude": 20.4199404372204,
      "latitude": 44.7884471855672
    },
    {
      "id": "_12",
      "label": "Ruska",
      "longitude": 20.4381751998929,
      "latitude": 44.7952763240306
    },
    {
      "id": "_13",
      "label": "Sajam",
      "longitude": 20.4420563488721,
      "latitude": 44.7963250729334
    },
    {
      "id": "_14",
      "label": "Kula Beograd",
      "longitude": 20.4486263639051,
      "latitude": 44.8032813106928
    },
    {
      "id": "_15",
      "label": "TC Galerija",
      "longitude": 20.4456286208991,
      "latitude": 44.8013535627872
    }
  ]
}