{
  "direction_a": [
    {
      "id": "_1",
      "label": "ТЦ Галериja",
      "longitude": 20.445457,
      "latitude": 44.801256
    },
    {
      "id": "_2",
      "label": "Сајам",
      "longitude": 20.441977,
      "latitude": 44.796588
    },
    {
      "id": "_3",
      "label": "Петља Радничка",
      "longitude": 20.426785,
      "latitude": 44.792472
    },
    {
      "id": "_4",
      "label": "Чукарица",
      "longitude": 20.414505,
      "latitude": 44.78645
    },
    {
      "id": "_5",
      "label": "Железник Р",
      "longitude": 20.359007,
      "latitude": 44.742278
    },
    {
      "id": "_6",
      "label": "Железнички надвожњак",
      "longitude": 20.32139,
      "latitude": 44.735491
    },
    {
      "id": "_7",
      "label": "МЗ Остружница",
      "longitude": 20.314874,
      "latitude": 44.731568
    },
    {
      "id": "_8",
      "label": "Остружница /Центар/",
      "longitude": 20.318197,
      "latitude": 44.729028
    },
    {
      "id": "_9",
      "label": "Остружница /Црква/",
      "longitude": 20.3214,
      "latitude": 44.728157
    },
    {
      "id": "_10",
      "label": "Остружница /Љубе Ранковића/",
      "longitude": 20.32414,
      "latitude": 44.725146
    },
    {
      "id": "_11",
      "label": "Петровића Брдо",
      "longitude": 20.326222,
      "latitude": 44.722026
    },
    {
      "id": "_12",
      "label": "Окретница /Чесма/",
      "longitude": 20.332459,
      "latitude": 44.71773
    },
    {
      "id": "_13",
      "label": "Петровића Брдо",
      "longitude": 20.326192,
      "latitude": 44.722194
    },
    {
      "id": "_14",
      "label": "Остружница /Љубе Ранковића/",
      "longitude": 20.324182,
      "latitude": 44.725293
    },
    {
      "id": "_15",
      "label": "Остружница /Црква/",
      "longitude": 20.320979,
      "latitude": 44.728357
    },
    {
      "id": "_16",
      "label": "Остружница /ОШ Карађорђе/",
      "longitude": 20.320141,
      "latitude": 44.726309
    },
    {
      "id": "_17",
      "label": "Остружница /Старе Бараке/",
      "longitude": 20.321059,
      "latitude": 44.722379
    },
    {
      "id": "_18",
      "label": "Ново Насеље /Улаз/",
      "longitude": 20.320456,
      "latitude": 44.718371
    },
    {
      "id": "_19",
      "label": "Остружница /Космајска/",
      "longitude": 20.322606,
      "latitude": 44.715165
    },
    {
      "id": "_20",
      "label": "Остружница /Ново Насеље/ ",
      "longitude": 20.31997,
      "latitude": 44.713707
    }
  ],
  "direction_b": [
    {
      "id": "_1",
      "label": "Остружница /Ново Насеље/ ",
      "longitude": 20.31997,
      "latitude": 44.713707
    },
    {
      "id": "_2",
      "label": "Остружница /Космајска/",
      "longitude": 20.322789,
      "latitude": 44.715097
    },
    {
      "id": "_3",
      "label": "Ново Насеље /Улаз/",
      "longitude": 20.32057,
      "latitude": 44.718411
    },
    {
      "id": "_4",
      "label": "Остружница /Старе Бараке/",
      "longitude": 20.321187,
      "latitude": 44.722301
    },
    {
      "id": "_5",
      "label": "Остружница /ОШ Карађорђе/",
      "longitude": 20.320041,
      "latitude": 44.726582
    },
    {
      "id": "_6",
      "label": "Остружница /Центар/",
      "longitude": 20.318374,
      "latitude": 44.729034
    },
    {
      "id": "_7",
      "label": "МЗ Остружница",
      "longitude": 20.315305,
      "latitude": 44.731632
    },
    {
      "id": "_8",
      "label": "Железнички надвожњак",
      "longitude": 20.321337,
      "latitude": 44.73524
    },
    {
      "id": "_9",
      "label": "Железник Р",
      "longitude": 20.361192,
      "latitude": 44.742738
    },
    {
      "id": "_10",
      "label": "Чукарица",
      "longitude": 20.414985,
      "latitude": 44.786371
    },
    {
      "id": "_11",
      "label": "Петља Радничка",
      "longitude": 20.426938,
      "latitude": 44.792201
    },
    {
      "id": "_12",
      "label": "Господарска Механа",
      "longitude": 20.433518,
      "latitude": 44.794439
    },
    {
      "id": "_13",
      "label": "Руска",
      "longitude": 20.438101,
      "latitude": 44.79525
    },
    {
      "id": "_14",
      "label": "Сајам",
      "longitude": 20.441902,
      "latitude": 44.796305
    },
    {
      "id": "_15",
      "label": "Дурмиторска",
      "longitude": 20.451504,
      "latitude": 44.80211
    },
    {
      "id": "_16",
      "label": "Палата Правде 1",
      "longitude": 20.451548,
      "latitude": 44.803288
    },
    {
      "id": "_17",
      "label": "Кула Београд",
      "longitude": 20.448054,
      "latitude": 44.80299
    },
    {
      "id": "_18",
      "label": "ТЦ Галериja",
      "longitude": 20.445457,
      "latitude": 44.801256
    }
  ]
}