{
  "direction_a": [
    {
      "id": "_1",
      "label": "ТЦ Галериja",
      "longitude": 20.445457,
      "latitude": 44.801256
    },
    {
      "id": "_2",
      "label": "Сајам",
      "longitude": 20.441977,
      "latitude": 44.796588
    },
    {
      "id": "_3",
      "label": "Петља Радничка",
      "longitude": 20.426785,
      "latitude": 44.792472
    },
    {
      "id": "_4",
      "label": "Чукарица",
      "longitude": 20.414505,
      "latitude": 44.78645
    },
    {
      "id": "_5",
      "label": "СРЦ Макиш",
      "longitude": 20.405798,
      "latitude": 44.785015
    },
    {
      "id": "_6",
      "label": "Макишка",
      "longitude": 20.394273,
      "latitude": 44.783155
    },
    {
      "id": "_7",
      "label": "Рени Бунар",
      "longitude": 20.381683,
      "latitude": 44.778624
    },
    {
      "id": "_8",
      "label": "Таложник",
      "longitude": 20.374462,
      "latitude": 44.775272
    },
    {
      "id": "_9",
      "label": "Водовод",
      "longitude": 20.369567,
      "latitude": 44.773411
    },
    {
      "id": "_10",
      "label": "МЗ Макиш",
      "longitude": 20.362033,
      "latitude": 44.770854
    },
    {
      "id": "_11",
      "label": "Неопланта",
      "longitude": 20.357359,
      "latitude": 44.768158
    },
    {
      "id": "_12",
      "label": "ББП Макиш",
      "longitude": 20.353273,
      "latitude": 44.76479
    },
    {
      "id": "_13",
      "label": "Бродотехника",
      "longitude": 20.350905,
      "latitude": 44.762508
    },
    {
      "id": "_14",
      "label": "Рибокомбинат",
      "longitude": 20.346428,
      "latitude": 44.757886
    },
    {
      "id": "_15",
      "label": "Мике Аласа",
      "longitude": 20.342605,
      "latitude": 44.753299
    },
    {
      "id": "_16",
      "label": "Мостоградња",
      "longitude": 20.338732,
      "latitude": 44.747112
    },
    {
      "id": "_17",
      "label": "Надвожњак",
      "longitude": 20.326126,
      "latitude": 44.738423
    },
    {
      "id": "_18",
      "label": "Железнички надвожњак",
      "longitude": 20.32139,
      "latitude": 44.735491
    },
    {
      "id": "_19",
      "label": "МЗ Остружница",
      "longitude": 20.314874,
      "latitude": 44.731568
    },
    {
      "id": "_20",
      "label": "Остружница /Савска/",
      "longitude": 20.31158,
      "latitude": 44.726753
    },
    {
      "id": "_21",
      "label": "Остружница /Лоле Рибара/",
      "longitude": 20.311323,
      "latitude": 44.722999
    },
    {
      "id": "_22",
      "label": "Остружница /Караула/",
      "longitude": 20.309738,
      "latitude": 44.718106
    }
  ],
  "direction_b": [
    {
      "id": "_1",
      "label": "Остружница /Караула/",
      "longitude": 20.309738,
      "latitude": 44.718106
    },
    {
      "id": "_2",
      "label": "Остружница /Лоле Рибара/",
      "longitude": 20.311355,
      "latitude": 44.722816
    },
    {
      "id": "_3",
      "label": "Остружница /Савска/",
      "longitude": 20.311667,
      "latitude": 44.727069
    },
    {
      "id": "_4",
      "label": "МЗ Остружница",
      "longitude": 20.315305,
      "latitude": 44.731632
    },
    {
      "id": "_5",
      "label": "Железнички надвожњак",
      "longitude": 20.321337,
      "latitude": 44.73524
    },
    {
      "id": "_6",
      "label": "Надвожњак",
      "longitude": 20.326544,
      "latitude": 44.738555
    },
    {
      "id": "_7",
      "label": "Мостоградња",
      "longitude": 20.338218,
      "latitude": 44.746484
    },
    {
      "id": "_8",
      "label": "Мике Аласа",
      "longitude": 20.342874,
      "latitude": 44.753493
    },
    {
      "id": "_9",
      "label": "Рибокомбинат",
      "longitude": 20.346613,
      "latitude": 44.757931
    },
    {
      "id": "_10",
      "label": "Бродотехника",
      "longitude": 20.350321,
      "latitude": 44.761703
    },
    {
      "id": "_11",
      "label": "ББП Макиш",
      "longitude": 20.353568,
      "latitude": 44.764916
    },
    {
      "id": "_12",
      "label": "Неопланта",
      "longitude": 20.358062,
      "latitude": 44.76861
    },
    {
      "id": "_13",
      "label": "МЗ Макиш",
      "longitude": 20.362312,
      "latitude": 44.770859
    },
    {
      "id": "_14",
      "label": "Водовод",
      "longitude": 20.370047,
      "latitude": 44.773399
    },
    {
      "id": "_15",
      "label": "Таложник",
      "longitude": 20.374552,
      "latitude": 44.775178
    },
    {
      "id": "_16",
      "label": "Рени Бунар",
      "longitude": 20.382273,
      "latitude": 44.778792
    },
    {
      "id": "_17",
      "label": "Макишка",
      "longitude": 20.394858,
      "latitude": 44.783219
    },
    {
      "id": "_18",
      "label": "СРЦ Макиш",
      "longitude": 20.406127,
      "latitude": 44.784916
    },
    {
      "id": "_19",
      "label": "Чукарица",
      "longitude": 20.414985,
      "latitude": 44.786371
    },
    {
      "id": "_20",
      "label": "Петља Радничка",
      "longitude": 20.426938,
      "latitude": 44.792201
    },
    {
      "id": "_21",
      "label": "Господарска Механа",
      "longitude": 20.433518,
      "latitude": 44.794439
    },
    {
      "id": "_22",
      "label": "Руска",
      "longitude": 20.438101,
      "latitude": 44.79525
    },
    {
      "id": "_23",
      "label": "Сајам",
      "longitude": 20.441902,
      "latitude": 44.796305
    },
    {
      "id": "_24",
      "label": "Дурмиторска",
      "longitude": 20.451504,
      "latitude": 44.80211
    },
    {
      "id": "_25",
      "label": "Палата Правде 1",
      "longitude": 20.451548,
      "latitude": 44.803288
    },
    {
      "id": "_26",
      "label": "Кула Београд",
      "longitude": 20.448054,
      "latitude": 44.80299
    },
    {
      "id": "_27",
      "label": "ТЦ Галериja",
      "longitude": 20.445457,
      "latitude": 44.801256
    }
  ]
}