{
  "direction_a": [
    {
      "id": "_1",
      "label": "TC Galerija",
      "longitude": 20.4456286208991,
      "latitude": 44.8013535627872
    },
    {
      "id": "_2",
      "label": "Sajam",
      "longitude": 20.4415906546322,
      "latitude": 44.7964130286058
    },
    {
      "id": "_3",
      "label": "Čukarica",
      "longitude": 20.4145017152671,
      "latitude": 44.7863856515716
    },
    {
      "id": "_4",
      "label": "SRC Makiš",
      "longitude": 20.4056899721295,
      "latitude": 44.7850065959287
    },
    {
      "id": "_5",
      "label": "Makiška",
      "longitude": 20.394280565743,
      "latitude": 44.7831415922493
    },
    {
      "id": "_6",
      "label": "Reni bunar",
      "longitude": 20.3816645764824,
      "latitude": 44.7785960748417
    },
    {
      "id": "_7",
      "label": "Taložnik",
      "longitude": 20.374392272692,
      "latitude": 44.775241185318
    },
    {
      "id": "_8",
      "label": "Vodovod",
      "longitude": 20.369454515776,
      "latitude": 44.7733836240053
    },
    {
      "id": "_9",
      "label": "MZ Makiš",
      "longitude": 20.3619773478308,
      "latitude": 44.7708619760293
    },
    {
      "id": "_10",
      "label": "Neoplanta",
      "longitude": 20.3572273041581,
      "latitude": 44.7680923704282
    },
    {
      "id": "_11",
      "label": "BBP Makiš",
      "longitude": 20.3532839941,
      "latitude": 44.7648393411258
    },
    {
      "id": "_12",
      "label": "Brodotehnika",
      "longitude": 20.3508772245552,
      "latitude": 44.7624858442257
    },
    {
      "id": "_13",
      "label": "Privredna zona Makiš",
      "longitude": 20.3464142369268,
      "latitude": 44.7578832899133
    },
    {
      "id": "_14",
      "label": "Mike Alasa",
      "longitude": 20.3425986714038,
      "latitude": 44.7532752722366
    },
    {
      "id": "_15",
      "label": "Mostogradnja",
      "longitude": 20.3386682103208,
      "latitude": 44.7470501282825
    },
    {
      "id": "_16",
      "label": "Nadvožnjak",
      "longitude": 20.3261044309748,
      "latitude": 44.7383913128746
    },
    {
      "id": "_17",
      "label": "Železnički nadvožnjak",
      "longitude": 20.3212902181307,
      "latitude": 44.7354344273393
    },
    {
      "id": "_18",
      "label": "MZ Ostružnica",
      "longitude": 20.3148088183418,
      "latitude": 44.7314990217166
    },
    {
      "id": "_19",
      "label": "Savska",
      "longitude": 20.3115768907888,
      "latitude": 44.726787238148
    },
    {
      "id": "_20",
      "label": "Lole Ribara",
      "longitude": 20.3112927925932,
      "latitude": 44.7230542728865
    },
    {
      "id": "_21",
      "label": "Ostružnica (karaula)",
      "longitude": 20.3097855729407,
      "latitude": 44.7181511888054
    }
  ],
  "direction_b": [
    {
      "id": "_1",
      "label": "Ostružnica (karaula)",
      "longitude": 20.3097855729407,
      "latitude": 44.7181511888054
    },
    {
      "id": "_2",
      "label": "Lole Ribara",
      "longitude": 20.3115227074893,
      "latitude": 44.7232536466205
    },
    {
      "id": "_3",
      "label": "Savska",
      "longitude": 20.3117684522317,
      "latitude": 44.7266011956244
    },
    {
      "id": "_4",
      "label": "MZ Ostružnica",
      "longitude": 20.3150084950393,
      "latitude": 44.7314822158213
    },
    {
      "id": "_5",
      "label": "Železnički nadvožnjak",
      "longitude": 20.3218290499162,
      "latitude": 44.7356357058396
    },
    {
      "id": "_6",
      "label": "Nadvožnjak",
      "longitude": 20.3266853544178,
      "latitude": 44.7386017181126
    },
    {
      "id": "_7",
      "label": "Mostogradnja",
      "longitude": 20.3382899909432,
      "latitude": 44.7465493666038
    },
    {
      "id": "_8",
      "label": "Mike Alasa",
      "longitude": 20.3429112315317,
      "latitude": 44.7535578520857
    },
    {
      "id": "_9",
      "label": "Privredna zona Makiš",
      "longitude": 20.3466860389846,
      "latitude": 44.7579748351589
    },
    {
      "id": "_10",
      "label": "Brodotehnika",
      "longitude": 20.3503321352868,
      "latitude": 44.761751989127
    },
    {
      "id": "_11",
      "label": "BBP Makiš",
      "longitude": 20.3535434278804,
      "latitude": 44.764911001063
    },
    {
      "id": "_12",
      "label": "Neoplanta",
      "longitude": 20.3579878855353,
      "latitude": 44.768544811484
    },
    {
      "id": "_13",
      "label": "MZ Makiš",
      "longitude": 20.3622731390043,
      "latitude": 44.7708474223205
    },
    {
      "id": "_14",
      "label": "Vodovod",
      "longitude": 20.3699819583076,
      "latitude": 44.7734459204679
    },
    {
      "id": "_15",
      "label": "Taložnik",
      "longitude": 20.374657761764,
      "latitude": 44.7752264342161
    },
    {
      "id": "_16",
      "label": "Reni bunar",
      "longitude": 20.3822895040937,
      "latitude": 44.7787650350141
    },
    {
      "id": "_17",
      "label": "Makiška",
      "longitude": 20.3947959572298,
      "latitude": 44.7831587125059
    },
    {
      "id": "_18",
      "label": "SRC Makiš",
      "longitude": 20.4061661056327,
      "latitude": 44.7849100668924
    },
    {
      "id": "_19",
      "label": "Čukarica",
      "longitude": 20.4151354377319,
      "latitude": 44.786451881637
    },
    {
      "id": "_20",
      "label": "Ada Ciganlija",
      "longitude": 20.4199404372204,
      "latitude": 44.7884471855672
    },
    {
      "id": "_21",
      "label": "Ruska",
      "longitude": 20.4381751998929,
      "latitude": 44.7952763240306
    },
    {
      "id": "_22",
      "label": "Sajam",
      "longitude": 20.4420563488721,
      "latitude": 44.7963250729334
    },
    {
      "id": "_23",
      "label": "Palata pravde 1",
      "longitude": 20.451327814778,
      "latitude": 44.8034058554644
    },
    {
      "id": "_24",
      "label": "Kula Beograd",
      "longitude": 20.4486263639051,
      "latitude": 44.8032813106928
    },
    {
      "id": "_25",
      "label": "TC Galerija",
      "longitude": 20.4456286208991,
      "latitude": 44.8013535627872
    }
  ]
}