{
  "direction_a": [
    {
      "id": "_1",
      "label": "Коњарник",
      "longitude": 20.510946,
      "latitude": 44.782343
    },
    {
      "id": "_2",
      "label": "Петрињска",
      "longitude": 20.505783,
      "latitude": 44.782979
    },
    {
      "id": "_3",
      "label": "Шумице",
      "longitude": 20.50136,
      "latitude": 44.782959
    },
    {
      "id": "_4",
      "label": "Медаковић 2",
      "longitude": 20.499747,
      "latitude": 44.774933
    },
    {
      "id": "_5",
      "label": "Светозора Радојчића",
      "longitude": 20.502194,
      "latitude": 44.772139
    },
    {
      "id": "_6",
      "label": "Заплањска",
      "longitude": 20.500575,
      "latitude": 44.768899
    },
    {
      "id": "_7",
      "label": "Насеље Браће Јерковић",
      "longitude": 20.499788,
      "latitude": 44.765096
    },
    {
      "id": "_8",
      "label": "Браће Јерковић (Митрово Брдо)",
      "longitude": 20.497546,
      "latitude": 44.763188
    },
    {
      "id": "_9",
      "label": "СЦ Спорт Еко",
      "longitude": 20.493095,
      "latitude": 44.764619
    },
    {
      "id": "_10",
      "label": "Пиве Караматијевића",
      "longitude": 20.491357,
      "latitude": 44.766147
    },
    {
      "id": "_11",
      "label": "Јована Бијелића",
      "longitude": 20.490175,
      "latitude": 44.767955
    },
    {
      "id": "_12",
      "label": "Мештровићева",
      "longitude": 20.488052,
      "latitude": 44.77128
    },
    {
      "id": "_13",
      "label": "Дарвинова",
      "longitude": 20.482327,
      "latitude": 44.772721
    },
    {
      "id": "_14",
      "label": "Бјеловарска",
      "longitude": 20.481327,
      "latitude": 44.775906
    },
    {
      "id": "_15",
      "label": "Витановачка",
      "longitude": 20.479826,
      "latitude": 44.779011
    },
    {
      "id": "_16",
      "label": "Универзитет Сингидунум",
      "longitude": 20.477296,
      "latitude": 44.78279
    },
    {
      "id": "_17",
      "label": "Прешернова",
      "longitude": 20.473222,
      "latitude": 44.785892
    },
    {
      "id": "_18",
      "label": "Трг Ослобођења",
      "longitude": 20.466297,
      "latitude": 44.788087
    },
    {
      "id": "_19",
      "label": "Франше Д'Епереа",
      "longitude": 20.468254,
      "latitude": 44.790876
    },
    {
      "id": "_20",
      "label": "Делиградска",
      "longitude": 20.457582,
      "latitude": 44.795793
    },
    {
      "id": "_21",
      "label": "Мостар",
      "longitude": 20.44927,
      "latitude": 44.798762
    },
    {
      "id": "_22",
      "label": "Сајам",
      "longitude": 20.441977,
      "latitude": 44.796588
    },
    {
      "id": "_23",
      "label": "Руска",
      "longitude": 20.436034,
      "latitude": 44.795118
    },
    {
      "id": "_24",
      "label": "Петља Радничка",
      "longitude": 20.426785,
      "latitude": 44.792472
    },
    {
      "id": "_25",
      "label": "Ада Циганлија",
      "longitude": 20.419436,
      "latitude": 44.788665
    }
  ],
  "direction_b": [
    {
      "id": "_1",
      "label": "Ада Циганлија",
      "longitude": 20.419789,
      "latitude": 44.7884
    },
    {
      "id": "_2",
      "label": "Петља Радничка",
      "longitude": 20.426938,
      "latitude": 44.792201
    },
    {
      "id": "_3",
      "label": "Господарска Механа",
      "longitude": 20.433518,
      "latitude": 44.794439
    },
    {
      "id": "_4",
      "label": "Руска",
      "longitude": 20.438101,
      "latitude": 44.79525
    },
    {
      "id": "_5",
      "label": "Сајам",
      "longitude": 20.441902,
      "latitude": 44.796305
    },
    {
      "id": "_6",
      "label": "Мостар",
      "longitude": 20.448834,
      "latitude": 44.798229
    },
    {
      "id": "_7",
      "label": "Делиградска",
      "longitude": 20.457354,
      "latitude": 44.795328
    },
    {
      "id": "_8",
      "label": "Франше Д'Епереа",
      "longitude": 20.466418,
      "latitude": 44.791518
    },
    {
      "id": "_9",
      "label": "Трг Ослобођења",
      "longitude": 20.467494,
      "latitude": 44.786665
    },
    {
      "id": "_10",
      "label": "Прешернова",
      "longitude": 20.474107,
      "latitude": 44.785278
    },
    {
      "id": "_11",
      "label": "Универзитет Сингидунум",
      "longitude": 20.477265,
      "latitude": 44.782598
    },
    {
      "id": "_12",
      "label": "Витановачка",
      "longitude": 20.479255,
      "latitude": 44.779612
    },
    {
      "id": "_13",
      "label": "Бјеловарска",
      "longitude": 20.481482,
      "latitude": 44.77512
    },
    {
      "id": "_14",
      "label": "Дарвинова",
      "longitude": 20.482222,
      "latitude": 44.772329
    },
    {
      "id": "_15",
      "label": "Мештровићева",
      "longitude": 20.487496,
      "latitude": 44.771835
    },
    {
      "id": "_16",
      "label": "Јована Бијелића",
      "longitude": 20.48962,
      "latitude": 44.768524
    },
    {
      "id": "_17",
      "label": "Пиве Караматијевића",
      "longitude": 20.491279,
      "latitude": 44.765888
    },
    {
      "id": "_18",
      "label": "СЦ Спорт Еко",
      "longitude": 20.493456,
      "latitude": 44.764173
    },
    {
      "id": "_19",
      "label": "Браће Јерковић (Митрово Брдо)",
      "longitude": 20.498179,
      "latitude": 44.763333
    },
    {
      "id": "_20",
      "label": "Насеље Браће Јерковић",
      "longitude": 20.500236,
      "latitude": 44.765629
    },
    {
      "id": "_21",
      "label": "Заплањска",
      "longitude": 20.500718,
      "latitude": 44.76845
    },
    {
      "id": "_22",
      "label": "Светозора Радојчића",
      "longitude": 20.502804,
      "latitude": 44.772067
    },
    {
      "id": "_23",
      "label": "Медаковић 2",
      "longitude": 20.500217,
      "latitude": 44.77566
    },
    {
      "id": "_24",
      "label": "Владимира Томановића",
      "longitude": 20.5021,
      "latitude": 44.781843
    },
    {
      "id": "_25",
      "label": "Шумице",
      "longitude": 20.502268,
      "latitude": 44.783154
    },
    {
      "id": "_26",
      "label": "Петрињска",
      "longitude": 20.50716,
      "latitude": 44.782581
    },
    {
      "id": "_27",
      "label": "Коњарник",
      "longitude": 20.511114,
      "latitude": 44.782083
    },
    {
      "id": "_28",
      "label": "Коњарник",
      "longitude": 20.510946,
      "latitude": 44.782343
    }
  ]
}