{
  "direction_a": [
    {
      "id": "_1",
      "label": "Konjarnik",
      "longitude": 20.5104823760785,
      "latitude": 44.7823606690898
    },
    {
      "id": "_2",
      "label": "Petrinjska",
      "longitude": 20.5055970497212,
      "latitude": 44.7829697032573
    },
    {
      "id": "_3",
      "label": "Šumice",
      "longitude": 20.5013687183876,
      "latitude": 44.78298921242
    },
    {
      "id": "_4",
      "label": "Medaković 2",
      "longitude": 20.4997318423423,
      "latitude": 44.7749526675893
    },
    {
      "id": "_5",
      "label": "Svetozara Radojčića",
      "longitude": 20.5022425526906,
      "latitude": 44.7721215130103
    },
    {
      "id": "_6",
      "label": "Zaplanjska",
      "longitude": 20.5005624185723,
      "latitude": 44.7688563634862
    },
    {
      "id": "_7",
      "label": "Naselje Braće Jerković",
      "longitude": 20.4997741835448,
      "latitude": 44.7650209032317
    },
    {
      "id": "_8",
      "label": "Braće Jerković (Mitrovo brdo)",
      "longitude": 20.4975517356776,
      "latitude": 44.7631608787103
    },
    {
      "id": "_9",
      "label": "SC Sport eko",
      "longitude": 20.4930269061577,
      "latitude": 44.7646115173547
    },
    {
      "id": "_10",
      "label": "Jovana Bijelića",
      "longitude": 20.4901657365482,
      "latitude": 44.7679214951879
    },
    {
      "id": "_11",
      "label": "Meštrovićeva",
      "longitude": 20.4880191797695,
      "latitude": 44.7712471887841
    },
    {
      "id": "_12",
      "label": "Darvinova",
      "longitude": 20.4822503534218,
      "latitude": 44.7729726294759
    },
    {
      "id": "_13",
      "label": "Bjelovarska",
      "longitude": 20.481293796213,
      "latitude": 44.7759669715648
    },
    {
      "id": "_14",
      "label": "Vitanovačka",
      "longitude": 20.479767755688,
      "latitude": 44.7790487197807
    },
    {
      "id": "_15",
      "label": "Univerzitet Singidunum",
      "longitude": 20.477180986972,
      "latitude": 44.782876182784
    },
    {
      "id": "_16",
      "label": "Prešernova",
      "longitude": 20.4731885623187,
      "latitude": 44.785870980307
    },
    {
      "id": "_17",
      "label": "Trg oslobođenja",
      "longitude": 20.4663379359464,
      "latitude": 44.7876680376035
    },
    {
      "id": "_18",
      "label": "Franše D'Eperea",
      "longitude": 20.4682170383353,
      "latitude": 44.7908590058077
    },
    {
      "id": "_19",
      "label": "Deligradska",
      "longitude": 20.4574991397711,
      "latitude": 44.795814386296
    },
    {
      "id": "_20",
      "label": "Mostar",
      "longitude": 20.4492660247473,
      "latitude": 44.7987396141814
    },
    {
      "id": "_21",
      "label": "Sajam",
      "longitude": 20.4415906546322,
      "latitude": 44.7964130286058
    },
    {
      "id": "_22",
      "label": "Ruska",
      "longitude": 20.4359385437038,
      "latitude": 44.795085842923
    },
    {
      "id": "_23",
      "label": "Čukarica",
      "longitude": 20.4145017152671,
      "latitude": 44.7863856515716
    }
  ],
  "direction_b": [
    {
      "id": "_1",
      "label": "Ada Ciganlija",
      "longitude": 20.4199404372204,
      "latitude": 44.7884471855672
    },
    {
      "id": "_2",
      "label": "Ruska",
      "longitude": 20.4381790000629,
      "latitude": 44.7952642285528
    },
    {
      "id": "_3",
      "label": "Sajam",
      "longitude": 20.44208197302,
      "latitude": 44.7963182238307
    },
    {
      "id": "_4",
      "label": "Mostar",
      "longitude": 20.4488893135074,
      "latitude": 44.7982104318979
    },
    {
      "id": "_5",
      "label": "Deligradska",
      "longitude": 20.457407735647,
      "latitude": 44.7953153789886
    },
    {
      "id": "_6",
      "label": "Franše D'Eperea",
      "longitude": 20.4664495230787,
      "latitude": 44.7914861699274
    },
    {
      "id": "_7",
      "label": "Trg oslobođenja",
      "longitude": 20.4704645363851,
      "latitude": 44.7863678182162
    },
    {
      "id": "_8",
      "label": "Prešernova",
      "longitude": 20.4741010406086,
      "latitude": 44.7853027930892
    },
    {
      "id": "_9",
      "label": "Univerzitet Singidunum",
      "longitude": 20.4772260666708,
      "latitude": 44.7826405993841
    },
    {
      "id": "_10",
      "label": "Vitanovačka",
      "longitude": 20.4792553488666,
      "latitude": 44.7795467723283
    },
    {
      "id": "_11",
      "label": "Bjelovarska",
      "longitude": 20.4814858402251,
      "latitude": 44.7751164788882
    },
    {
      "id": "_12",
      "label": "Darvinova",
      "longitude": 20.4831902124771,
      "latitude": 44.7715639303424
    },
    {
      "id": "_13",
      "label": "Meštrovićeva",
      "longitude": 20.4874475316559,
      "latitude": 44.7718890079117
    },
    {
      "id": "_14",
      "label": "Jovana Bijelića",
      "longitude": 20.4896250949076,
      "latitude": 44.7684914665699
    },
    {
      "id": "_15",
      "label": "SC Sport eko",
      "longitude": 20.4935695662369,
      "latitude": 44.7640919361457
    },
    {
      "id": "_16",
      "label": "Braće Jerković (Mitrovo brdo)",
      "longitude": 20.4985309946891,
      "latitude": 44.7635701430807
    },
    {
      "id": "_17",
      "label": "Naselje Braće Jerković",
      "longitude": 20.5002027826431,
      "latitude": 44.7657157392703
    },
    {
      "id": "_18",
      "label": "Zaplanjska",
      "longitude": 20.5007223064412,
      "latitude": 44.7684790761153
    },
    {
      "id": "_19",
      "label": "Svetozara Radojčića",
      "longitude": 20.5027279457175,
      "latitude": 44.7720930181474
    },
    {
      "id": "_20",
      "label": "Medaković 2",
      "longitude": 20.5002480892655,
      "latitude": 44.7757486795342
    },
    {
      "id": "_21",
      "label": "Vladimira Tomanovića",
      "longitude": 20.5020656605764,
      "latitude": 44.7818762908247
    },
    {
      "id": "_22",
      "label": "Šumice",
      "longitude": 20.5022492654904,
      "latitude": 44.7831622259354
    },
    {
      "id": "_23",
      "label": "Petrinjska",
      "longitude": 20.5071650444596,
      "latitude": 44.7825444661776
    },
    {
      "id": "_24",
      "label": "Konjarnik",
      "longitude": 20.5113646280986,
      "latitude": 44.7820314434885
    }
  ]
}